[{"StopData":[{"StopId":6281,"StopName":"所前路225號(東山區公所)","ScheduleTime":"16:00","EstimateTime":"","CarInfo":"","Lon":120.4043921,"Lat":23.3259541,"Turn":1,"DayValue":"一,三,五,六","RecycleDate":"一,三,五"},{"StopId":6282,"StopName":"中興北街219-2號(消防隊)","ScheduleTime":"16:51","EstimateTime":"","CarInfo":"","Lon":120.4033209,"Lat":23.3262797,"Turn":2,"DayValue":"一,三,五,六","RecycleDate":"一,三,五"},{"StopId":6283,"StopName":"北興街246-1號","ScheduleTime":"16:54","EstimateTime":"","CarInfo":"","Lon":120.404623,"Lat":23.3268302,"Turn":3,"DayValue":"一,三,五,六","RecycleDate":"一,三,五"},{"StopId":6284,"StopName":"育英街139-5號","ScheduleTime":"16:57","EstimateTime":"","CarInfo":"","Lon":120.4046226,"Lat":23.3242151,"Turn":4,"DayValue":"一,三,五,六","RecycleDate":"一,三,五"},{"StopId":6285,"StopName":"碧軒街230-2號","ScheduleTime":"17:00","EstimateTime":"","CarInfo":"","Lon":120.4053013,"Lat":23.3252678,"Turn":5,"DayValue":"一,三,五,六","RecycleDate":"一,三,五"},{"StopId":6286,"StopName":"青葉路二段1號(新發機車)","ScheduleTime":"17:03","EstimateTime":"","CarInfo":"","Lon":120.4048448,"Lat":23.3211472,"Turn":6,"DayValue":"一,三,五,六","RecycleDate":"一,三,五"},{"StopId":6287,"StopName":"青葉路一段283號(東山釣具)","ScheduleTime":"17:06","EstimateTime":"","CarInfo":"","Lon":120.4045913,"Lat":23.3203774,"Turn":7,"DayValue":"一,三,五,六","RecycleDate":"一,三,五"},{"StopId":6288,"StopName":"鳳安一街80號","ScheduleTime":"17:08","EstimateTime":"","CarInfo":"","Lon":120.4006545,"Lat":23.3190121,"Turn":8,"DayValue":"一,三,五,六","RecycleDate":"一,三,五"},{"StopId":6289,"StopName":"福安街22號","ScheduleTime":"17:10","EstimateTime":"","CarInfo":"","Lon":120.3979743,"Lat":23.3191224,"Turn":9,"DayValue":"一,三,五,六","RecycleDate":"一,三,五"},{"StopId":6290,"StopName":"育仁街19號","ScheduleTime":"17:13","EstimateTime":"","CarInfo":"","Lon":120.4008937,"Lat":23.3174556,"Turn":10,"DayValue":"一,三,五,六","RecycleDate":"一,三,五"},{"StopId":6291,"StopName":"鳳安二街40號","ScheduleTime":"17:15","EstimateTime":"","CarInfo":"","Lon":120.4000799,"Lat":23.3200083,"Turn":11,"DayValue":"一,三,五,六","RecycleDate":"一,三,五"},{"StopId":6292,"StopName":"成功街15號","ScheduleTime":"17:18","EstimateTime":"","CarInfo":"","Lon":120.401394,"Lat":23.3206845,"Turn":12,"DayValue":"一,三,五,六","RecycleDate":"一,三,五"},{"StopId":6293,"StopName":"信義街3號","ScheduleTime":"17:21","EstimateTime":"","CarInfo":"","Lon":120.4023427,"Lat":23.3210103,"Turn":13,"DayValue":"一,三,五,六","RecycleDate":"一,三,五"},{"StopId":6294,"StopName":"和平街30號","ScheduleTime":"17:24","EstimateTime":"","CarInfo":"","Lon":120.4022087,"Lat":23.3204137,"Turn":14,"DayValue":"一,三,五,六","RecycleDate":"一,三,五"},{"StopId":6295,"StopName":"東仁街36號","ScheduleTime":"17:27","EstimateTime":"","CarInfo":"","Lon":120.4019186,"Lat":23.3198355,"Turn":15,"DayValue":"一,三,五,六","RecycleDate":"一,三,五"},{"StopId":6296,"StopName":"中興南路96號(七里香)","ScheduleTime":"17:30","EstimateTime":"","CarInfo":"","Lon":120.4031863,"Lat":23.3208293,"Turn":16,"DayValue":"一,三,五,六","RecycleDate":"一,三,五"},{"StopId":6297,"StopName":"中興路46號(錦貴診所)","ScheduleTime":"17:33","EstimateTime":"","CarInfo":"","Lon":120.4033356,"Lat":23.322219,"Turn":17,"DayValue":"一,三,五,六","RecycleDate":"一,三,五"},{"StopId":6298,"StopName":"新東路一段18號(東山郵局)","ScheduleTime":"17:36","EstimateTime":"","CarInfo":"","Lon":120.4024667,"Lat":23.322588,"Turn":18,"DayValue":"一,三,五,六","RecycleDate":"一,三,五"},{"StopId":6299,"StopName":"龍鳳一街400號","ScheduleTime":"17:39","EstimateTime":"","CarInfo":"","Lon":120.4017922,"Lat":23.3232259,"Turn":19,"DayValue":"一,三,五,六","RecycleDate":"一,三,五"},{"StopId":6300,"StopName":"龍鳳二街312-3號","ScheduleTime":"17:42","EstimateTime":"","CarInfo":"","Lon":120.4017218,"Lat":23.3239676,"Turn":20,"DayValue":"一,三,五,六","RecycleDate":"一,三,五"},{"StopId":6301,"StopName":"龍鳳三街276-2號","ScheduleTime":"17:44","EstimateTime":"","CarInfo":"","Lon":120.4020101,"Lat":23.3282548,"Turn":21,"DayValue":"一,三,五,六","RecycleDate":"一,三,五"},{"StopId":6302,"StopName":"中興路89號","ScheduleTime":"17:47","EstimateTime":"","CarInfo":"","Lon":120.4032565,"Lat":23.3240136,"Turn":22,"DayValue":"一,三,五,六","RecycleDate":"一,三,五"},{"StopId":6303,"StopName":"達雲路一段36號(春成機車行)","ScheduleTime":"17:49","EstimateTime":"","CarInfo":"","Lon":120.4039756,"Lat":23.3218334,"Turn":23,"DayValue":"一,三,五,六","RecycleDate":"一,三,五"},{"StopId":6304,"StopName":"15鄰達雲路2段38號","ScheduleTime":"17:50","EstimateTime":"","CarInfo":"","Lon":120.4053995,"Lat":23.3198809,"Turn":24,"DayValue":"一,三,五,六","RecycleDate":"一,三,五"},{"StopId":6305,"StopName":"1鄰東勢1-31號","ScheduleTime":"17:52","EstimateTime":"","CarInfo":"","Lon":120.408945,"Lat":23.3198244,"Turn":25,"DayValue":"一,三,五,六","RecycleDate":"一,三,五"},{"StopId":6306,"StopName":"中興路218號(碧軒寺)","ScheduleTime":"17:55","EstimateTime":"","CarInfo":"","Lon":120.4032755,"Lat":23.3253309,"Turn":26,"DayValue":"一,三,五,六","RecycleDate":"一,三,五"},{"StopId":6307,"StopName":"中興北街268號","ScheduleTime":"17:57","EstimateTime":"","CarInfo":"","Lon":120.4033671,"Lat":23.327988,"Turn":27,"DayValue":"一,三,五,六","RecycleDate":"一,三,五"},{"StopId":6308,"StopName":"大仁街278-7號","ScheduleTime":"18:00","EstimateTime":"","CarInfo":"","Lon":120.4020473,"Lat":23.3287636,"Turn":28,"DayValue":"一,三,五,六","RecycleDate":"一,三,五"},{"StopId":6309,"StopName":"大智街314-2號","ScheduleTime":"18:03","EstimateTime":"","CarInfo":"","Lon":120.4022755,"Lat":23.3278518,"Turn":29,"DayValue":"一,三,五,六","RecycleDate":"一,三,五"},{"StopId":6310,"StopName":"文賢街320號(幸福幼兒園)","ScheduleTime":"18:10","EstimateTime":"","CarInfo":"","Lon":120.4001685,"Lat":23.326563,"Turn":30,"DayValue":"一,三,五,六","RecycleDate":"一,三,五"},{"StopId":6311,"StopName":"下寮子35-1號","ScheduleTime":"18:17","EstimateTime":"","CarInfo":"","Lon":120.3891473,"Lat":23.3318908,"Turn":31,"DayValue":"一,三,五,六","RecycleDate":"一,三,五"},{"StopId":6312,"StopName":"下寮子39號","ScheduleTime":"18:20","EstimateTime":"","CarInfo":"","Lon":120.389976,"Lat":23.3286185,"Turn":32,"DayValue":"一,三,五,六","RecycleDate":"一,三,五"},{"StopId":6313,"StopName":"大德街605號","ScheduleTime":"18:25","EstimateTime":"","CarInfo":"","Lon":120.4003949,"Lat":23.3257954,"Turn":33,"DayValue":"一,三,五,六","RecycleDate":"一,三,五"},{"StopId":6314,"StopName":"文中街543號","ScheduleTime":"18:27","EstimateTime":"","CarInfo":"","Lon":120.4008549,"Lat":23.3251847,"Turn":34,"DayValue":"一,三,五,六","RecycleDate":"一,三,五"},{"StopId":6315,"StopName":"文化街494號","ScheduleTime":"18:29","EstimateTime":"","CarInfo":"","Lon":120.401304,"Lat":23.3244767,"Turn":35,"DayValue":"一,三,五,六","RecycleDate":"一,三,五"},{"StopId":6316,"StopName":"文昌街417號","ScheduleTime":"18:32","EstimateTime":"","CarInfo":"","Lon":120.4012725,"Lat":23.3239309,"Turn":36,"DayValue":"一,三,五,六","RecycleDate":"一,三,五"},{"StopId":6317,"StopName":"惠明街16號","ScheduleTime":"18:35","EstimateTime":"","CarInfo":"","Lon":120.399465,"Lat":23.3210765,"Turn":37,"DayValue":"一,三,五,六","RecycleDate":"一,三,五"},{"StopId":6318,"StopName":"新東路二段15號","ScheduleTime":"18:38","EstimateTime":"","CarInfo":"","Lon":120.3989981,"Lat":23.3215484,"Turn":38,"DayValue":"一,三,五,六","RecycleDate":"一,三,五"},{"StopId":6319,"StopName":"新東路一段79號","ScheduleTime":"18:45","EstimateTime":"","CarInfo":"","Lon":120.4005848,"Lat":23.3220348,"Turn":39,"DayValue":"一,三,五,六","RecycleDate":"一,三,五"},{"StopId":6320,"StopName":"龍山二街302號","ScheduleTime":"18:46","EstimateTime":"","CarInfo":"","Lon":120.4025135,"Lat":23.3246253,"Turn":40,"DayValue":"一,三,五,六","RecycleDate":"一,三,五"},{"StopId":6321,"StopName":"青葉路三段240號(東山加油站)(迴轉)","ScheduleTime":"18:50","EstimateTime":"","CarInfo":"","Lon":120.4070245,"Lat":23.3297424,"Turn":41,"DayValue":"一,三,五,六","RecycleDate":"一,三,五"},{"StopId":6322,"StopName":"公園路32號(旺旺齒模)","ScheduleTime":"19:00","EstimateTime":"","CarInfo":"","Lon":120.4049135,"Lat":23.3188882,"Turn":42,"DayValue":"一,三,五,六","RecycleDate":"一,三,五"},{"StopId":6323,"StopName":"東勢二街42-3號","ScheduleTime":"19:10","EstimateTime":"","CarInfo":"","Lon":120.4081295,"Lat":23.322726,"Turn":43,"DayValue":"一,三,五,六","RecycleDate":"一,三,五"},{"StopId":6324,"StopName":"德昌街34-5號","ScheduleTime":"19:13","EstimateTime":"","CarInfo":"","Lon":120.4087871,"Lat":23.3236872,"Turn":44,"DayValue":"一,三,五,六","RecycleDate":"一,三,五"},{"StopId":6325,"StopName":"廣安街140-9號","ScheduleTime":"19:18","EstimateTime":"","CarInfo":"","Lon":120.4075633,"Lat":23.3238638,"Turn":45,"DayValue":"一,三,五,六","RecycleDate":"一,三,五"},{"StopId":6326,"StopName":"育德街13號","ScheduleTime":"19:25","EstimateTime":"","CarInfo":"","Lon":120.4061026,"Lat":23.3229415,"Turn":46,"DayValue":"一,三,五,六","RecycleDate":"一,三,五"},{"StopId":6327,"StopName":"東勢一街12-5號","ScheduleTime":"19:28","EstimateTime":"","CarInfo":"","Lon":120.4076499,"Lat":23.3212485,"Turn":47,"DayValue":"一,三,五,六","RecycleDate":"一,三,五"},{"StopId":6328,"StopName":"東興二街161號","ScheduleTime":"19:30","EstimateTime":"","CarInfo":"","Lon":120.4071712,"Lat":23.3251265,"Turn":48,"DayValue":"一,三,五,六","RecycleDate":"一,三,五"},{"StopId":6329,"StopName":"正義街195-11號","ScheduleTime":"19:33","EstimateTime":"","CarInfo":"","Lon":120.4061496,"Lat":23.3262797,"Turn":49,"DayValue":"一,三,五,六","RecycleDate":"一,三,五"},{"StopId":6330,"StopName":"東興一街77-2號(廣安宮)","ScheduleTime":"19:35","EstimateTime":"","CarInfo":"","Lon":120.4064536,"Lat":23.3240531,"Turn":50,"DayValue":"一,三,五,六","RecycleDate":"一,三,五"},{"StopId":6331,"StopName":"27-6號(鴨頭)","ScheduleTime":"19:40","EstimateTime":"","CarInfo":"","Lon":120.4105727,"Lat":23.3215047,"Turn":51,"DayValue":"一,三,五,六","RecycleDate":"一,三,五"},{"StopId":6332,"StopName":"凹子腳30-5號(凹子腳三叉路口)","ScheduleTime":"19:47","EstimateTime":"","CarInfo":"","Lon":120.4254386,"Lat":23.3151389,"Turn":52,"DayValue":"一,三,五,六","RecycleDate":"一,三,五"},{"StopId":6333,"StopName":"大庄51-1號(大庄路口)","ScheduleTime":"19:51","EstimateTime":"","CarInfo":"","Lon":120.4105148,"Lat":23.3124816,"Turn":53,"DayValue":"一,三,五,六","RecycleDate":"一,三,五"},{"StopId":6334,"StopName":"育群街9鄰60號","ScheduleTime":"19:53","EstimateTime":"","CarInfo":"","Lon":120.4060463,"Lat":23.3164655,"Turn":54,"DayValue":"一,三,五,六","RecycleDate":"一,三,五"}],"CarData":[],"RouteId":160,"RouteName":"東山1","RouteInfo":"所前路225號(東山區公所)~育群街9鄰60號","IsWork":false}]