[{"StopData":[{"StopId":13270,"StopName":"中山路成功路路口","ScheduleTime":"17:30","EstimateTime":"","CarInfo":"","Lon":120.181183,"Lat":23.234434,"Turn":1,"DayValue":"一,三,五,六","RecycleDate":"一,五"},{"StopId":13271,"StopName":"建大印刷行","ScheduleTime":"17:33","EstimateTime":"","CarInfo":"","Lon":120.18246,"Lat":23.23381,"Turn":2,"DayValue":"一,三,五,六","RecycleDate":"一,五"},{"StopId":13272,"StopName":"成功路民權路路口","ScheduleTime":"17:38","EstimateTime":"","CarInfo":"","Lon":120.180583,"Lat":23.231302,"Turn":3,"DayValue":"一,三,五,六","RecycleDate":"一,五"},{"StopId":13273,"StopName":"廣文路信義路路口","ScheduleTime":"17:48","EstimateTime":"","CarInfo":"","Lon":120.177644,"Lat":23.232685,"Turn":4,"DayValue":"一,三,五,六","RecycleDate":"一,五"},{"StopId":13274,"StopName":"民權路中正路路口","ScheduleTime":"17:57","EstimateTime":"","CarInfo":"","Lon":120.179675,"Lat":23.231466,"Turn":5,"DayValue":"一,三,五,六","RecycleDate":"一,五"},{"StopId":13275,"StopName":"民權路民生路路口","ScheduleTime":"18:01","EstimateTime":"","CarInfo":"","Lon":120.183617,"Lat":23.231299,"Turn":6,"DayValue":"一,三,五,六","RecycleDate":"一,五"},{"StopId":13276,"StopName":"東竹圍13之11號前","ScheduleTime":"18:15","EstimateTime":"","CarInfo":"","Lon":120.187322,"Lat":23.230104999999998,"Turn":7,"DayValue":"一,三,五,六","RecycleDate":"一,五"},{"StopId":13277,"StopName":"國泰人壽前","ScheduleTime":"18:23","EstimateTime":"","CarInfo":"","Lon":120.180651,"Lat":23.230169,"Turn":8,"DayValue":"一,三,五,六","RecycleDate":"一,五"},{"StopId":13278,"StopName":"建國路信義路路口","ScheduleTime":"18:26","EstimateTime":"","CarInfo":"","Lon":120.176861,"Lat":23.230937,"Turn":9,"DayValue":"一,三,五,六","RecycleDate":"一,五"},{"StopId":13279,"StopName":"自立街和平路路口","ScheduleTime":"18:29","EstimateTime":"","CarInfo":"","Lon":120.177962,"Lat":23.229927,"Turn":10,"DayValue":"一,三,五,六","RecycleDate":"一,五"},{"StopId":13280,"StopName":"潔美洗車旁","ScheduleTime":"18:35","EstimateTime":"","CarInfo":"","Lon":120.182409,"Lat":23.228554,"Turn":11,"DayValue":"一,三,五,六","RecycleDate":"一,五"},{"StopId":13281,"StopName":"八德街公館路路口","ScheduleTime":"18:39","EstimateTime":"","CarInfo":"","Lon":120.180833,"Lat":23.227391,"Turn":12,"DayValue":"一,三,五,六","RecycleDate":"一,五"},{"StopId":13282,"StopName":"四維街和平路路口","ScheduleTime":"18:50","EstimateTime":"","CarInfo":"","Lon":120.177533,"Lat":23.228626,"Turn":13,"DayValue":"一,三,五,六","RecycleDate":"一,五"},{"StopId":13283,"StopName":"四維街公館路路口","ScheduleTime":"18:53","EstimateTime":"","CarInfo":"","Lon":120.180844,"Lat":23.228005,"Turn":14,"DayValue":"一,三,五,六","RecycleDate":"一,五"},{"StopId":13284,"StopName":"南天宮","ScheduleTime":"19:02","EstimateTime":"","CarInfo":"","Lon":120.175537,"Lat":23.229806,"Turn":15,"DayValue":"一,三,五,六","RecycleDate":"一,五"},{"StopId":13285,"StopName":"華宗路濟生路路口","ScheduleTime":"19:10","EstimateTime":"","CarInfo":"","Lon":120.182243,"Lat":23.232594,"Turn":16,"DayValue":"一,三,五,六","RecycleDate":"一,五"},{"StopId":13286,"StopName":"濟生路成功路路口","ScheduleTime":"19:14","EstimateTime":"","CarInfo":"","Lon":120.180879,"Lat":23.232869,"Turn":17,"DayValue":"一,三,五,六","RecycleDate":"一,五"},{"StopId":13287,"StopName":"旺一","ScheduleTime":"19:20","EstimateTime":"","CarInfo":"","Lon":120.182255,"Lat":23.23259,"Turn":18,"DayValue":"一,三,五,六","RecycleDate":"一,五"},{"StopId":13288,"StopName":"廣文路中正路路口","ScheduleTime":"19:25","EstimateTime":"","CarInfo":"","Lon":120.179913,"Lat":23.232239,"Turn":19,"DayValue":"一,三,五,六","RecycleDate":"一,五"}],"CarData":[],"RouteId":285,"RouteName":"學甲-1(夜間)","RouteInfo":"中山路成功路路口~廣文路中正路路口","IsWork":false}]