[{"StopData":[{"StopId":8716,"StopName":"三民路55號(磐石咖啡)","ScheduleTime":"17:40","EstimateTime":"","CarInfo":"","Lon":120.3165942,"Lat":23.3072681,"Turn":1,"DayValue":"一,三,五,日","RecycleDate":"三,日"},{"StopId":8717,"StopName":"三民路17號(新營客運旁鐵道)","ScheduleTime":"17:46","EstimateTime":"","CarInfo":"","Lon":120.3192845,"Lat":23.3074131,"Turn":2,"DayValue":"一,三,五,日","RecycleDate":"三,日"},{"StopId":8718,"StopName":"三民路36之2號(第三市場旁)","ScheduleTime":"17:53","EstimateTime":"","CarInfo":"","Lon":120.3197273,"Lat":23.3074168,"Turn":3,"DayValue":"一,三,五,日","RecycleDate":"三,日"},{"StopId":8719,"StopName":"三民路76之11號(肯德基後)","ScheduleTime":"17:57","EstimateTime":"","CarInfo":"","Lon":120.3219864,"Lat":23.3073005,"Turn":4,"DayValue":"一,三,五,日","RecycleDate":"三,日"},{"StopId":8720,"StopName":"中山路142號(7-11)","ScheduleTime":"18:00","EstimateTime":"","CarInfo":"","Lon":120.3172365,"Lat":23.3046936,"Turn":5,"DayValue":"一,三,五,日","RecycleDate":"三,日"},{"StopId":8721,"StopName":"文昌街26之1號","ScheduleTime":"18:04","EstimateTime":"","CarInfo":"","Lon":120.31954,"Lat":23.306384,"Turn":6,"DayValue":"一,三,五,日","RecycleDate":"三,日"},{"StopId":8722,"StopName":"中山路117號","ScheduleTime":"18:11","EstimateTime":"","CarInfo":"","Lon":120.3180417,"Lat":23.3049689,"Turn":7,"DayValue":"一,三,五,日","RecycleDate":"三,日"},{"StopId":8723,"StopName":"中山路53號(添福大旅社)","ScheduleTime":"18:18","EstimateTime":"","CarInfo":"","Lon":120.3219905,"Lat":23.3066864,"Turn":8,"DayValue":"一,三,五,日","RecycleDate":"三,日"},{"StopId":8724,"StopName":"新進路69號","ScheduleTime":"18:23","EstimateTime":"","CarInfo":"","Lon":120.3205992,"Lat":23.3039483,"Turn":9,"DayValue":"一,三,五,日","RecycleDate":"三,日"},{"StopId":8725,"StopName":"公誠街7巷7-1號","ScheduleTime":"18:30","EstimateTime":"","CarInfo":"","Lon":120.3187427,"Lat":23.3036276,"Turn":10,"DayValue":"一,三,五,日","RecycleDate":"三,日"},{"StopId":8726,"StopName":"新進路232號","ScheduleTime":"18:34","EstimateTime":"","CarInfo":"","Lon":120.3181493,"Lat":23.3018286,"Turn":11,"DayValue":"一,三,五,日","RecycleDate":"三,日"},{"StopId":8727,"StopName":"中興路15巷2號","ScheduleTime":"18:38","EstimateTime":"","CarInfo":"","Lon":120.3170762,"Lat":23.3023512,"Turn":12,"DayValue":"一,三,五,日","RecycleDate":"三,日"},{"StopId":8728,"StopName":"公誠街9巷13號","ScheduleTime":"18:43","EstimateTime":"","CarInfo":"","Lon":120.3190057,"Lat":23.3030839,"Turn":13,"DayValue":"一,三,五,日","RecycleDate":"三,日"},{"StopId":8729,"StopName":"新進路1號","ScheduleTime":"18:48","EstimateTime":"","CarInfo":"","Lon":120.3223623,"Lat":23.306421,"Turn":14,"DayValue":"一,三,五,日","RecycleDate":"三,日"},{"StopId":8730,"StopName":"同濟街88號","ScheduleTime":"18:52","EstimateTime":"","CarInfo":"","Lon":120.3201984,"Lat":23.3067687,"Turn":15,"DayValue":"一,三,五,日","RecycleDate":"三,日"},{"StopId":8731,"StopName":"同濟街107號(第1趟結束)","ScheduleTime":"18:54","EstimateTime":"","CarInfo":"","Lon":120.3200927,"Lat":23.30889,"Turn":16,"DayValue":"一,三,五,日","RecycleDate":"三,日"},{"StopId":8732,"StopName":"綠川路60號(勇伯擔仔麵-第2趟起點)","ScheduleTime":"19:25","EstimateTime":"","CarInfo":"","Lon":120.322638,"Lat":23.3097765,"Turn":17,"DayValue":"一,三,五,日","RecycleDate":"三,日"},{"StopId":8733,"StopName":"綠川北街38號","ScheduleTime":"19:30","EstimateTime":"","CarInfo":"","Lon":120.3221176,"Lat":23.3097482,"Turn":18,"DayValue":"一,三,五,日","RecycleDate":"三,日"},{"StopId":8734,"StopName":"綠川北街113號","ScheduleTime":"19:36","EstimateTime":"","CarInfo":"","Lon":120.3189672,"Lat":23.3091229,"Turn":19,"DayValue":"一,三,五,日","RecycleDate":"三,日"},{"StopId":8735,"StopName":"民治路29巷26號","ScheduleTime":"19:40","EstimateTime":"","CarInfo":"","Lon":120.3174435,"Lat":23.3094616,"Turn":20,"DayValue":"一,三,五,日","RecycleDate":"三,日"},{"StopId":8736,"StopName":"民族路7之22號","ScheduleTime":"19:45","EstimateTime":"","CarInfo":"","Lon":120.3185179,"Lat":23.3067975,"Turn":21,"DayValue":"一,三,五,日","RecycleDate":"三,日"},{"StopId":8737,"StopName":"民族路56號","ScheduleTime":"19:51","EstimateTime":"","CarInfo":"","Lon":120.3182999,"Lat":23.3106219,"Turn":22,"DayValue":"一,三,五,日","RecycleDate":"三,日"},{"StopId":8738,"StopName":"同濟街136巷2號","ScheduleTime":"19:52","EstimateTime":"","CarInfo":"","Lon":120.3201907,"Lat":23.3097547,"Turn":23,"DayValue":"一,三,五,日","RecycleDate":"三,日"},{"StopId":8739,"StopName":"大同路23-6號","ScheduleTime":"19:58","EstimateTime":"","CarInfo":"","Lon":120.3225597,"Lat":23.3085847,"Turn":24,"DayValue":"一,三,五,日","RecycleDate":"三,日"},{"StopId":8740,"StopName":"大同路30-3號","ScheduleTime":"20:04","EstimateTime":"","CarInfo":"","Lon":120.322512,"Lat":23.3106,"Turn":25,"DayValue":"一,三,五,日","RecycleDate":"三,日"},{"StopId":8741,"StopName":"開元路59巷6號","ScheduleTime":"20:06","EstimateTime":"","CarInfo":"","Lon":120.3237718,"Lat":23.3100095,"Turn":26,"DayValue":"一,三,五,日","RecycleDate":"三,日"},{"StopId":8742,"StopName":"新東街31號","ScheduleTime":"20:10","EstimateTime":"","CarInfo":"","Lon":120.3233654,"Lat":23.3091366,"Turn":27,"DayValue":"一,三,五,日","RecycleDate":"三,日"},{"StopId":8743,"StopName":"開元路73號","ScheduleTime":"20:15","EstimateTime":"","CarInfo":"","Lon":120.3249718,"Lat":23.3100716,"Turn":28,"DayValue":"一,三,五,日","RecycleDate":"三,日"},{"StopId":8744,"StopName":"開元路61之17號","ScheduleTime":"20:17","EstimateTime":"","CarInfo":"","Lon":120.3245244,"Lat":23.3105049,"Turn":29,"DayValue":"一,三,五,日","RecycleDate":"三,日"},{"StopId":8745,"StopName":"中正路31巷50號","ScheduleTime":"20:23","EstimateTime":"","CarInfo":"","Lon":120.3159944,"Lat":23.3114386,"Turn":30,"DayValue":"一,三,五,日","RecycleDate":"三,日"},{"StopId":8746,"StopName":"中正路37巷180之2號","ScheduleTime":"20:27","EstimateTime":"","CarInfo":"","Lon":120.3147539,"Lat":23.3131689,"Turn":31,"DayValue":"一,三,五,日","RecycleDate":"三,日"},{"StopId":8747,"StopName":"中正路39巷17號","ScheduleTime":"20:30","EstimateTime":"","CarInfo":"","Lon":120.3140621,"Lat":23.3144412,"Turn":32,"DayValue":"一,三,五,日","RecycleDate":"三,日"},{"StopId":8748,"StopName":"中正路39巷65號","ScheduleTime":"20:35","EstimateTime":"","CarInfo":"","Lon":120.3147598,"Lat":23.3142096,"Turn":33,"DayValue":"一,三,五,日","RecycleDate":"三,日"},{"StopId":8749,"StopName":"安和街3號","ScheduleTime":"20:40","EstimateTime":"","CarInfo":"","Lon":120.3161457,"Lat":23.3143356,"Turn":34,"DayValue":"一,三,五,日","RecycleDate":"三,日"}],"CarData":[],"RouteId":275,"RouteName":"新營-03","RouteInfo":"三民路55號(磐石咖啡)~安和街3號","IsWork":false}]