[{"StopData":[{"StopId":1104,"StopName":"佳西路271號（夜市旁）","ScheduleTime":"18:06","EstimateTime":"","CarInfo":"","Lon":120.167678,"Lat":23.164481,"Turn":1,"DayValue":"一,三,五,六","RecycleDate":"一,六"},{"StopId":1105,"StopName":"光華街10號","ScheduleTime":"18:18","EstimateTime":"","CarInfo":"","Lon":120.174264,"Lat":23.165054,"Turn":2,"DayValue":"一,三,五,六","RecycleDate":"一,六"},{"StopId":1106,"StopName":"安西路11巷口","ScheduleTime":"18:22","EstimateTime":"","CarInfo":"","Lon":120.172487,"Lat":23.167338,"Turn":3,"DayValue":"一,三,五,六","RecycleDate":"一,六"},{"StopId":1107,"StopName":"光明街光華街130巷1號","ScheduleTime":"18:25","EstimateTime":"","CarInfo":"","Lon":120.170445,"Lat":23.166325,"Turn":4,"DayValue":"一,三,五,六","RecycleDate":"一,六"},{"StopId":1108,"StopName":"育善街219號（朱澤宮）","ScheduleTime":"18:28","EstimateTime":"","CarInfo":"","Lon":120.169127,"Lat":23.164314,"Turn":5,"DayValue":"一,三,五,六","RecycleDate":"一,六"},{"StopId":1109,"StopName":"同心街63號","ScheduleTime":"18:35","EstimateTime":"","CarInfo":"","Lon":120.169353,"Lat":23.160736,"Turn":6,"DayValue":"一,三,五,六","RecycleDate":"一,六"},{"StopId":1110,"StopName":"安西130之5號（台北小城）","ScheduleTime":"18:40","EstimateTime":"","CarInfo":"","Lon":120.163248,"Lat":23.157917,"Turn":7,"DayValue":"一,三,五,六","RecycleDate":"一,六"},{"StopId":1111,"StopName":"建南157之36號（永順傢俱）","ScheduleTime":"18:50","EstimateTime":"","CarInfo":"","Lon":120.163263,"Lat":23.156549,"Turn":8,"DayValue":"一,三,五,六","RecycleDate":"一,六"},{"StopId":1112,"StopName":"育善街272巷10號","ScheduleTime":"18:55","EstimateTime":"","CarInfo":"","Lon":120.169648,"Lat":23.16421,"Turn":9,"DayValue":"一,三,五,六","RecycleDate":"一,六"},{"StopId":1113,"StopName":"光復路329號","ScheduleTime":"19:05","EstimateTime":"","CarInfo":"","Lon":120.174709,"Lat":23.163247,"Turn":10,"DayValue":"一,三,五,六","RecycleDate":"一,六"},{"StopId":1114,"StopName":"光復路259號","ScheduleTime":"19:08","EstimateTime":"","CarInfo":"","Lon":120.174704,"Lat":23.161627,"Turn":11,"DayValue":"一,三,五,六","RecycleDate":"一,六"},{"StopId":1115,"StopName":"光復路125號","ScheduleTime":"19:12","EstimateTime":"","CarInfo":"","Lon":120.174907,"Lat":23.158202,"Turn":12,"DayValue":"一,三,五,六","RecycleDate":"一,六"},{"StopId":1116,"StopName":"光復路25號（仁愛路）","ScheduleTime":"19:15","EstimateTime":"","CarInfo":"","Lon":120.175186,"Lat":23.156022,"Turn":13,"DayValue":"一,三,五,六","RecycleDate":"一,六"},{"StopId":1117,"StopName":"光復路70號（阿忠牛排）","ScheduleTime":"19:17","EstimateTime":"","CarInfo":"","Lon":120.175115,"Lat":23.157353,"Turn":14,"DayValue":"一,三,五,六","RecycleDate":"一,六"},{"StopId":1118,"StopName":"光復路200號","ScheduleTime":"19:21","EstimateTime":"","CarInfo":"","Lon":120.174818,"Lat":23.160912,"Turn":15,"DayValue":"一,三,五,六","RecycleDate":"一,六"},{"StopId":1119,"StopName":"光復路322號","ScheduleTime":"19:25","EstimateTime":"","CarInfo":"","Lon":120.174943,"Lat":23.164459,"Turn":16,"DayValue":"一,三,五,六","RecycleDate":"一,六"},{"StopId":1120,"StopName":"文化路425號（龍來超市）","ScheduleTime":"19:30","EstimateTime":"","CarInfo":"","Lon":120.171256,"Lat":23.163081,"Turn":17,"DayValue":"一,三,五,六","RecycleDate":"一,六"},{"StopId":1121,"StopName":"佳西路608號","ScheduleTime":"19:33","EstimateTime":"","CarInfo":"","Lon":120.170281,"Lat":23.169126,"Turn":18,"DayValue":"一,三,五,六","RecycleDate":"一,六"},{"StopId":1122,"StopName":"佳西路299巷21號（夜市旁）","ScheduleTime":"19:40","EstimateTime":"","CarInfo":"","Lon":120.167371,"Lat":23.16438,"Turn":19,"DayValue":"一,三,五,六","RecycleDate":"一,六"},{"StopId":1123,"StopName":"文化西路445號（福南山莊）","ScheduleTime":"19:45","EstimateTime":"","CarInfo":"","Lon":120.154932,"Lat":23.161835,"Turn":20,"DayValue":"一,三,五,六","RecycleDate":"一,六"},{"StopId":1124,"StopName":"佳安東路8號（多摩市)","ScheduleTime":"19:55","EstimateTime":"","CarInfo":"","Lon":120.158056,"Lat":23.161137,"Turn":21,"DayValue":"一,三,五,六","RecycleDate":"一,六"},{"StopId":1125,"StopName":"安西路95號","ScheduleTime":"20:10","EstimateTime":"","CarInfo":"","Lon":120.171044,"Lat":23.161262,"Turn":22,"DayValue":"一,三,五,六","RecycleDate":"一,六"},{"StopId":1126,"StopName":"裕善街66號","ScheduleTime":"20:17","EstimateTime":"","CarInfo":"","Lon":120.169706,"Lat":23.159798,"Turn":23,"DayValue":"一,三,五,六","RecycleDate":"一,六"}],"CarData":[],"RouteId":144,"RouteName":"佳里-1(夜)","RouteInfo":"佳西路271號（夜市旁）~裕善街66號","IsWork":false}]