[{"StopData":[{"StopId":8217,"StopName":"裕農路198號","ScheduleTime":"16:30","EstimateTime":"","CarInfo":"","Lon":120.424497,"Lat":23.352274,"Turn":1,"DayValue":"六","RecycleDate":""},{"StopId":8218,"StopName":"北勢頭7-11中山路169號","ScheduleTime":"16:53","EstimateTime":"","CarInfo":"","Lon":120.417519,"Lat":23.353124,"Turn":2,"DayValue":"六","RecycleDate":""},{"StopId":8219,"StopName":"金典幼稚園中山路652號","ScheduleTime":"16:57","EstimateTime":"","CarInfo":"","Lon":120.423988,"Lat":23.361187,"Turn":3,"DayValue":"六","RecycleDate":""},{"StopId":8220,"StopName":"內角郵局內角24-1號","ScheduleTime":"17:11","EstimateTime":"","CarInfo":"","Lon":120.438898,"Lat":23.398494,"Turn":4,"DayValue":"六","RecycleDate":""},{"StopId":8221,"StopName":"女窩娘娘","ScheduleTime":"17:18","EstimateTime":"","CarInfo":"","Lon":120.434467,"Lat":23.401121,"Turn":5,"DayValue":"六","RecycleDate":""},{"StopId":8222,"StopName":"內角營區口草店9-11號","ScheduleTime":"17:27","EstimateTime":"","CarInfo":"","Lon":120.437405,"Lat":23.393562,"Turn":6,"DayValue":"六","RecycleDate":""},{"StopId":8223,"StopName":"關帝廟草店135號","ScheduleTime":"17:35","EstimateTime":"","CarInfo":"","Lon":120.426153,"Lat":23.3959,"Turn":7,"DayValue":"六","RecycleDate":""},{"StopId":8224,"StopName":"新興路5-3號","ScheduleTime":"17:45","EstimateTime":"","CarInfo":"","Lon":120.424178,"Lat":23.352067,"Turn":8,"DayValue":"六","RecycleDate":""},{"StopId":8225,"StopName":"三民路348號","ScheduleTime":"17:55","EstimateTime":"","CarInfo":"","Lon":120.418144,"Lat":23.35073,"Turn":9,"DayValue":"六","RecycleDate":""}],"CarData":[],"RouteId":400,"RouteName":"白河-2-6","RouteInfo":"裕農路198號~三民路348號","IsWork":false}]