[{"StopData":[{"StopId":9862,"StopName":"三民路81號","ScheduleTime":"17:15","EstimateTime":"","CarInfo":"","Lon":120.288211,"Lat":23.132432,"Turn":1,"DayValue":"一,三,五,六","RecycleDate":"三,六"},{"StopId":9863,"StopName":"三民路37號","ScheduleTime":"17:17","EstimateTime":"","CarInfo":"","Lon":120.287536,"Lat":23.12916,"Turn":2,"DayValue":"一,三,五,六","RecycleDate":"三,六"},{"StopId":9864,"StopName":"三民路5之2號","ScheduleTime":"17:19","EstimateTime":"","CarInfo":"","Lon":120.287671,"Lat":23.129562,"Turn":3,"DayValue":"一,三,五,六","RecycleDate":"三,六"},{"StopId":9865,"StopName":"光復路368號","ScheduleTime":"17:21","EstimateTime":"","CarInfo":"","Lon":120.287032,"Lat":23.127935,"Turn":4,"DayValue":"一,三,五,六","RecycleDate":"三,六"},{"StopId":9866,"StopName":"光復路436號","ScheduleTime":"17:23","EstimateTime":"","CarInfo":"","Lon":120.285987,"Lat":23.128861,"Turn":5,"DayValue":"一,三,五,六","RecycleDate":"三,六"},{"StopId":9867,"StopName":"光復路566巷巷口","ScheduleTime":"17:25","EstimateTime":"","CarInfo":"","Lon":120.285242,"Lat":23.130941,"Turn":6,"DayValue":"一,三,五,六","RecycleDate":"三,六"},{"StopId":9868,"StopName":"光復路642號","ScheduleTime":"17:27","EstimateTime":"","CarInfo":"","Lon":120.284836,"Lat":23.132126,"Turn":7,"DayValue":"一,三,五,六","RecycleDate":"三,六"},{"StopId":9869,"StopName":"溪尾1037號","ScheduleTime":"17:29","EstimateTime":"","CarInfo":"","Lon":120.288488,"Lat":23.139002,"Turn":8,"DayValue":"一,三,五,六","RecycleDate":"三,六"},{"StopId":9870,"StopName":"溪尾979號","ScheduleTime":"17:31","EstimateTime":"","CarInfo":"","Lon":120.282475,"Lat":23.151909,"Turn":9,"DayValue":"一,三,五,六","RecycleDate":"三,六"},{"StopId":9871,"StopName":"溪尾957號","ScheduleTime":"17:33","EstimateTime":"","CarInfo":"","Lon":120.282475,"Lat":23.151909,"Turn":10,"DayValue":"一,三,五,六","RecycleDate":"三,六"},{"StopId":9872,"StopName":"溪尾681號","ScheduleTime":"17:35","EstimateTime":"","CarInfo":"","Lon":120.282475,"Lat":23.151909,"Turn":11,"DayValue":"一,三,五,六","RecycleDate":"三,六"},{"StopId":9873,"StopName":"溪尾625號","ScheduleTime":"17:37","EstimateTime":"","CarInfo":"","Lon":120.282475,"Lat":23.151909,"Turn":12,"DayValue":"一,三,五,六","RecycleDate":"三,六"},{"StopId":9874,"StopName":"溪尾583號","ScheduleTime":"17:39","EstimateTime":"","CarInfo":"","Lon":120.282475,"Lat":23.151909,"Turn":13,"DayValue":"一,三,五,六","RecycleDate":"三,六"},{"StopId":9875,"StopName":"溪美212號","ScheduleTime":"17:41","EstimateTime":"","CarInfo":"","Lon":120.286891,"Lat":23.154086,"Turn":14,"DayValue":"一,三,五,六","RecycleDate":"三,六"},{"StopId":9876,"StopName":"溪尾２１７號之３１","ScheduleTime":"17:43","EstimateTime":"","CarInfo":"","Lon":120.282475,"Lat":23.151909,"Turn":15,"DayValue":"一,三,五,六","RecycleDate":"三,六"},{"StopId":9877,"StopName":"建業路185號","ScheduleTime":"17:47","EstimateTime":"","CarInfo":"","Lon":120.301928,"Lat":23.1415,"Turn":16,"DayValue":"一,三,五,六","RecycleDate":"三,六"},{"StopId":9878,"StopName":"建業路24號","ScheduleTime":"17:49","EstimateTime":"","CarInfo":"","Lon":120.306953,"Lat":23.136626,"Turn":17,"DayValue":"一,三,五,六","RecycleDate":"三,六"},{"StopId":9879,"StopName":"建業路154號(衛浴)","ScheduleTime":"17:51","EstimateTime":"","CarInfo":"","Lon":120.301928,"Lat":23.1415,"Turn":18,"DayValue":"一,三,五,六","RecycleDate":"三,六"},{"StopId":9880,"StopName":"苓仔林4-1號(龍鳳宮)","ScheduleTime":"17:53","EstimateTime":"","CarInfo":"","Lon":120.306343,"Lat":23.143512,"Turn":19,"DayValue":"一,三,五,六","RecycleDate":"三,六"},{"StopId":9881,"StopName":"小新營298號","ScheduleTime":"18:00","EstimateTime":"","CarInfo":"","Lon":120.31915,"Lat":23.127231,"Turn":20,"DayValue":"一,三,五,六","RecycleDate":"三,六"},{"StopId":9882,"StopName":"成功新村7號","ScheduleTime":"18:02","EstimateTime":"","CarInfo":"","Lon":120.319586,"Lat":23.128772,"Turn":21,"DayValue":"一,三,五,六","RecycleDate":"三,六"},{"StopId":9883,"StopName":"小新營253號(綠生活社區)","ScheduleTime":"18:10","EstimateTime":"","CarInfo":"","Lon":120.3112868,"Lat":23.1262136,"Turn":22,"DayValue":"一,三,五,六","RecycleDate":"三,六"},{"StopId":9884,"StopName":"中山路343-1號(玉竹根)","ScheduleTime":"20:03","EstimateTime":"","CarInfo":"","Lon":120.293999,"Lat":23.132085,"Turn":23,"DayValue":"一,三,五,六","RecycleDate":"三,六"},{"StopId":9885,"StopName":"中山路329號","ScheduleTime":"20:05","EstimateTime":"","CarInfo":"","Lon":120.294818,"Lat":23.13205,"Turn":24,"DayValue":"一,三,五,六","RecycleDate":"三,六"},{"StopId":9886,"StopName":"中山路285號(香夫子牛肉麵)","ScheduleTime":"20:07","EstimateTime":"","CarInfo":"","Lon":120.295522,"Lat":23.131947,"Turn":25,"DayValue":"一,三,五,六","RecycleDate":"三,六"},{"StopId":9887,"StopName":"中山路217號","ScheduleTime":"20:09","EstimateTime":"","CarInfo":"","Lon":120.299345,"Lat":23.132403,"Turn":26,"DayValue":"一,三,五,六","RecycleDate":"三,六"},{"StopId":9888,"StopName":"中山路203號","ScheduleTime":"20:11","EstimateTime":"","CarInfo":"","Lon":120.299937,"Lat":23.132471,"Turn":27,"DayValue":"一,三,五,六","RecycleDate":"三,六"},{"StopId":9889,"StopName":"中山路與樹人路口","ScheduleTime":"20:13","EstimateTime":"","CarInfo":"","Lon":120.300439,"Lat":23.13266,"Turn":28,"DayValue":"一,三,五,六","RecycleDate":"三,六"},{"StopId":9890,"StopName":"中山路73號","ScheduleTime":"20:15","EstimateTime":"","CarInfo":"","Lon":120.30358,"Lat":23.13305,"Turn":29,"DayValue":"一,三,五,六","RecycleDate":"三,六"},{"StopId":9891,"StopName":"中山路29號","ScheduleTime":"20:17","EstimateTime":"","CarInfo":"","Lon":120.305494,"Lat":23.133346,"Turn":30,"DayValue":"一,三,五,六","RecycleDate":"三,六"},{"StopId":9892,"StopName":"光文路20號(火車站)","ScheduleTime":"20:19","EstimateTime":"","CarInfo":"","Lon":120.305906,"Lat":23.13364,"Turn":31,"DayValue":"一,三,五,六","RecycleDate":"三,六"},{"StopId":9893,"StopName":"中山路52號","ScheduleTime":"20:21","EstimateTime":"","CarInfo":"","Lon":120.304888,"Lat":23.133407,"Turn":32,"DayValue":"一,三,五,六","RecycleDate":"三,六"},{"StopId":9894,"StopName":"中山路186號","ScheduleTime":"20:23","EstimateTime":"","CarInfo":"","Lon":120.300506,"Lat":23.132804,"Turn":33,"DayValue":"一,三,五,六","RecycleDate":"三,六"},{"StopId":9895,"StopName":"中山路270號","ScheduleTime":"20:25","EstimateTime":"","CarInfo":"","Lon":120.296297,"Lat":23.13216,"Turn":34,"DayValue":"一,三,五,六","RecycleDate":"三,六"},{"StopId":9896,"StopName":"中正路中山路口","ScheduleTime":"20:27","EstimateTime":"","CarInfo":"","Lon":120.293862,"Lat":23.132113,"Turn":35,"DayValue":"一,三,五,六","RecycleDate":"三,六"},{"StopId":9897,"StopName":"陽光三路328巷(極光)","ScheduleTime":"20:45","EstimateTime":"","CarInfo":"","Lon":120.309692,"Lat":23.119092,"Turn":36,"DayValue":"一,三,五,六","RecycleDate":"三,六"},{"StopId":9898,"StopName":"陽光三路156巷巷口(植村墅8)","ScheduleTime":"20:47","EstimateTime":"","CarInfo":"","Lon":120.309692,"Lat":23.119092,"Turn":37,"DayValue":"一,三,五,六","RecycleDate":"三,六"},{"StopId":9899,"StopName":"陽光三路與蓮潭南街路口","ScheduleTime":"20:49","EstimateTime":"","CarInfo":"","Lon":120.309503,"Lat":23.112051,"Turn":38,"DayValue":"一,三,五,六","RecycleDate":"三,六"},{"StopId":9900,"StopName":"陽光大道362巷6號","ScheduleTime":"20:51","EstimateTime":"","CarInfo":"","Lon":120.30832,"Lat":23.109381,"Turn":39,"DayValue":"一,三,五,六","RecycleDate":"三,六"},{"StopId":9901,"StopName":"陽光大道(暉映印象)","ScheduleTime":"20:53","EstimateTime":"","CarInfo":"","Lon":120.307631,"Lat":23.117686,"Turn":40,"DayValue":"一,三,五,六","RecycleDate":"三,六"},{"StopId":9902,"StopName":"蓮潭南街279號(統一夢巴里)","ScheduleTime":"20:55","EstimateTime":"","CarInfo":"","Lon":120.305894,"Lat":23.110959,"Turn":41,"DayValue":"一,三,五,六","RecycleDate":"三,六"},{"StopId":9903,"StopName":"月眉園路71巷(南科日麗)","ScheduleTime":"20:57","EstimateTime":"","CarInfo":"","Lon":120.304408,"Lat":23.110512,"Turn":42,"DayValue":"一,三,五,六","RecycleDate":"三,六"},{"StopId":9904,"StopName":"龍目井路428號","ScheduleTime":"20:59","EstimateTime":"","CarInfo":"","Lon":120.306924,"Lat":23.109682,"Turn":43,"DayValue":"一,三,五,六","RecycleDate":"三,六"},{"StopId":9905,"StopName":"陽光南一路81號","ScheduleTime":"21:01","EstimateTime":"","CarInfo":"","Lon":120.305086,"Lat":23.109313,"Turn":44,"DayValue":"一,三,五,六","RecycleDate":"三,六"},{"StopId":9906,"StopName":"善新西路476巷1號","ScheduleTime":"21:03","EstimateTime":"","CarInfo":"","Lon":120.3033925,"Lat":23.1131402,"Turn":45,"DayValue":"一,三,五,六","RecycleDate":"三,六"},{"StopId":9907,"StopName":"善新西路660巷2號","ScheduleTime":"21:05","EstimateTime":"","CarInfo":"","Lon":120.3041303,"Lat":23.1179128,"Turn":46,"DayValue":"一,三,五,六","RecycleDate":"三,六"},{"StopId":9908,"StopName":"陽光北一路186巷2號","ScheduleTime":"21:07","EstimateTime":"","CarInfo":"","Lon":120.305223,"Lat":23.116753,"Turn":47,"DayValue":"一,三,五,六","RecycleDate":"三,六"},{"StopId":9909,"StopName":"陽光北一路152巷(植村墅6)","ScheduleTime":"21:09","EstimateTime":"","CarInfo":"","Lon":120.305308,"Lat":23.11638,"Turn":48,"DayValue":"一,三,五,六","RecycleDate":"三,六"},{"StopId":9910,"StopName":"陽光二路33號","ScheduleTime":"21:11","EstimateTime":"","CarInfo":"","Lon":120.306744,"Lat":23.1168,"Turn":49,"DayValue":"一,三,五,六","RecycleDate":"三,六"},{"StopId":9911,"StopName":"陽光二路151巷1號","ScheduleTime":"21:12","EstimateTime":"","CarInfo":"","Lon":120.306415,"Lat":23.118576,"Turn":50,"DayValue":"一,三,五,六","RecycleDate":"三,六"}],"CarData":[],"RouteId":248,"RouteName":"善化-7","RouteInfo":"三民路81號~陽光二路151巷1號","IsWork":false}]