[{"StopData":[{"StopId":9539,"StopName":"中正北路360巷(每週一、六收)","ScheduleTime":"16:20","EstimateTime":"","CarInfo":"","Lon":120.2609961,"Lat":23.2419875,"Turn":1,"DayValue":"一,三,五,六","RecycleDate":"一,五"},{"StopId":9540,"StopName":"友愛街187巷(每週一、六收)","ScheduleTime":"16:25","EstimateTime":"","CarInfo":"","Lon":120.2578712,"Lat":23.2379404,"Turn":2,"DayValue":"一,三,五,六","RecycleDate":"一,五"},{"StopId":9541,"StopName":"新庄(每週一、六收)大埤里89之1號","ScheduleTime":"16:30","EstimateTime":"","CarInfo":"","Lon":120.2459294,"Lat":23.2203798,"Turn":3,"DayValue":"一,三,五,六","RecycleDate":"一,五"},{"StopId":9542,"StopName":"西連里西寮13之29號(每週一、六收)","ScheduleTime":"16:35","EstimateTime":"","CarInfo":"","Lon":120.249127,"Lat":23.2097418,"Turn":4,"DayValue":"一,三,五,六","RecycleDate":"一,五"},{"StopId":9543,"StopName":"宅內街69號巷口","ScheduleTime":"16:40","EstimateTime":"","CarInfo":"","Lon":120.2601037,"Lat":23.2379841,"Turn":5,"DayValue":"一,三,五,六","RecycleDate":"一,五"},{"StopId":9544,"StopName":"宅內街53號前","ScheduleTime":"16:42","EstimateTime":"","CarInfo":"","Lon":120.2609513,"Lat":23.2380335,"Turn":6,"DayValue":"一,三,五,六","RecycleDate":"一,五"},{"StopId":9545,"StopName":"中正北路131號","ScheduleTime":"16:44","EstimateTime":"","CarInfo":"","Lon":120.2623792,"Lat":23.235708,"Turn":7,"DayValue":"一,三,五,六","RecycleDate":"一,五"},{"StopId":9546,"StopName":"民族一街19號前","ScheduleTime":"16:46","EstimateTime":"","CarInfo":"","Lon":120.2617704,"Lat":23.2355164,"Turn":8,"DayValue":"一,三,五,六","RecycleDate":"一,五"},{"StopId":9547,"StopName":"玄德街廟後玄德街22號","ScheduleTime":"16:48","EstimateTime":"","CarInfo":"","Lon":120.260759,"Lat":23.23546,"Turn":9,"DayValue":"一,三,五,六","RecycleDate":"一,五"},{"StopId":9548,"StopName":"玄德街45號巷口","ScheduleTime":"16:50","EstimateTime":"","CarInfo":"","Lon":120.260759,"Lat":23.235974,"Turn":10,"DayValue":"一,三,五,六","RecycleDate":"一,五"},{"StopId":9549,"StopName":"玄德街80號巷口","ScheduleTime":"16:52","EstimateTime":"","CarInfo":"","Lon":120.2610122,"Lat":23.2366864,"Turn":11,"DayValue":"一,三,五,六","RecycleDate":"一,五"},{"StopId":9550,"StopName":"人和三街71巷22號巷口","ScheduleTime":"16:54","EstimateTime":"","CarInfo":"","Lon":120.2597205,"Lat":23.2362431,"Turn":12,"DayValue":"一,三,五,六","RecycleDate":"一,五"},{"StopId":9551,"StopName":"民族二街25號巷口","ScheduleTime":"16:55","EstimateTime":"","CarInfo":"","Lon":120.260105,"Lat":23.235029,"Turn":13,"DayValue":"一,三,五,六","RecycleDate":"一,五"},{"StopId":9552,"StopName":"友愛街149巷11號前","ScheduleTime":"16:57","EstimateTime":"","CarInfo":"","Lon":120.2584499,"Lat":23.2366198,"Turn":14,"DayValue":"一,三,五,六","RecycleDate":"一,五"},{"StopId":9553,"StopName":"永安街102號巷口","ScheduleTime":"17:00","EstimateTime":"","CarInfo":"","Lon":120.2582863,"Lat":23.2354905,"Turn":15,"DayValue":"一,三,五,六","RecycleDate":"一,五"},{"StopId":9554,"StopName":"沈春貴販厝巷口永安街35號12號前巷口","ScheduleTime":"17:01","EstimateTime":"","CarInfo":"","Lon":120.2582254,"Lat":23.2342745,"Turn":16,"DayValue":"一,三,五,六","RecycleDate":"一,五"},{"StopId":9555,"StopName":"蚵寮街35號巷口","ScheduleTime":"17:03","EstimateTime":"","CarInfo":"","Lon":120.2581418,"Lat":23.2334916,"Turn":17,"DayValue":"一,三,五,六","RecycleDate":"一,五"},{"StopId":9556,"StopName":"蚵寮街91號巷口","ScheduleTime":"17:05","EstimateTime":"","CarInfo":"","Lon":120.2568141,"Lat":23.2335622,"Turn":18,"DayValue":"一,三,五,六","RecycleDate":"一,五"},{"StopId":9557,"StopName":"蚵寮街138號巷口","ScheduleTime":"17:07","EstimateTime":"","CarInfo":"","Lon":120.2560447,"Lat":23.2337048,"Turn":19,"DayValue":"一,三,五,六","RecycleDate":"一,五"},{"StopId":9558,"StopName":"蚵寮街117巷10號前","ScheduleTime":"17:09","EstimateTime":"","CarInfo":"","Lon":120.2549008,"Lat":23.2339656,"Turn":20,"DayValue":"一,三,五,六","RecycleDate":"一,五"},{"StopId":9559,"StopName":"黃寶鋒厝前博愛街209號","ScheduleTime":"17:10","EstimateTime":"","CarInfo":"","Lon":120.2543942,"Lat":23.2339292,"Turn":21,"DayValue":"一,三,五,六","RecycleDate":"一,五"},{"StopId":9560,"StopName":"博愛街125號巷口","ScheduleTime":"17:11","EstimateTime":"","CarInfo":"","Lon":120.2546383,"Lat":23.235255,"Turn":22,"DayValue":"一,三,五,六","RecycleDate":"一,五"},{"StopId":9561,"StopName":"博愛街107號巷口","ScheduleTime":"17:12","EstimateTime":"","CarInfo":"","Lon":120.2552391,"Lat":23.235388,"Turn":23,"DayValue":"一,三,五,六","RecycleDate":"一,五"},{"StopId":9562,"StopName":"永安街67巷88號巷口","ScheduleTime":"17:13","EstimateTime":"","CarInfo":"","Lon":120.2561138,"Lat":23.2353919,"Turn":24,"DayValue":"一,三,五,六","RecycleDate":"一,五"},{"StopId":9563,"StopName":"永安街67巷82號巷口","ScheduleTime":"17:15","EstimateTime":"","CarInfo":"","Lon":120.2565322,"Lat":23.2353327,"Turn":25,"DayValue":"一,三,五,六","RecycleDate":"一,五"},{"StopId":9564,"StopName":"永安街67巷9號巷口","ScheduleTime":"17:16","EstimateTime":"","CarInfo":"","Lon":120.2577588,"Lat":23.2353104,"Turn":26,"DayValue":"一,三,五,六","RecycleDate":"一,五"},{"StopId":9565,"StopName":"蚵寮街10號前","ScheduleTime":"17:18","EstimateTime":"","CarInfo":"","Lon":120.2590692,"Lat":23.2333777,"Turn":27,"DayValue":"一,三,五,六","RecycleDate":"一,五"},{"StopId":9566,"StopName":"公園路110號前","ScheduleTime":"17:20","EstimateTime":"","CarInfo":"","Lon":120.2589251,"Lat":23.2325942,"Turn":28,"DayValue":"一,三,五,六","RecycleDate":"一,五"},{"StopId":9567,"StopName":"新菱冷氣前九份街43號","ScheduleTime":"17:21","EstimateTime":"","CarInfo":"","Lon":120.2586812,"Lat":23.2317263,"Turn":29,"DayValue":"一,三,五,六","RecycleDate":"一,五"},{"StopId":9568,"StopName":"仁興街28號巷口","ScheduleTime":"17:23","EstimateTime":"","CarInfo":"","Lon":120.2592253,"Lat":23.2315702,"Turn":30,"DayValue":"一,三,五,六","RecycleDate":"一,五"},{"StopId":9569,"StopName":"群英旁巷口仁里街122巷27號","ScheduleTime":"17:25","EstimateTime":"","CarInfo":"","Lon":120.2583201,"Lat":23.2304306,"Turn":31,"DayValue":"一,三,五,六","RecycleDate":"一,五"},{"StopId":9570,"StopName":"九分街61號巷口","ScheduleTime":"17:28","EstimateTime":"","CarInfo":"","Lon":120.2584935,"Lat":23.2313073,"Turn":32,"DayValue":"一,三,五,六","RecycleDate":"一,五"},{"StopId":9571,"StopName":"老人活動中心旁巷口仁中街48巷30號","ScheduleTime":"17:31","EstimateTime":"","CarInfo":"","Lon":120.2622434,"Lat":23.2294543,"Turn":33,"DayValue":"一,三,五,六","RecycleDate":"一,五"},{"StopId":9572,"StopName":"仁中街48巷6號巷口","ScheduleTime":"17:33","EstimateTime":"","CarInfo":"","Lon":120.262344,"Lat":23.228949,"Turn":34,"DayValue":"一,三,五,六","RecycleDate":"一,五"},{"StopId":9573,"StopName":"仁南街6巷41號巷口","ScheduleTime":"17:35","EstimateTime":"","CarInfo":"","Lon":120.2612017,"Lat":23.2282302,"Turn":35,"DayValue":"一,三,五,六","RecycleDate":"一,五"},{"StopId":9574,"StopName":"仁中街90號巷口","ScheduleTime":"17:36","EstimateTime":"","CarInfo":"","Lon":120.2606054,"Lat":23.2282753,"Turn":36,"DayValue":"一,三,五,六","RecycleDate":"一,五"},{"StopId":9575,"StopName":"忠孝街19號巷口","ScheduleTime":"17:38","EstimateTime":"","CarInfo":"","Lon":120.264285,"Lat":23.229143,"Turn":37,"DayValue":"一,三,五,六","RecycleDate":"一,五"},{"StopId":9576,"StopName":"營前街12號巷口","ScheduleTime":"17:41","EstimateTime":"","CarInfo":"","Lon":120.2637112,"Lat":23.2298691,"Turn":38,"DayValue":"一,三,五,六","RecycleDate":"一,五"},{"StopId":9577,"StopName":"民權二街15號前","ScheduleTime":"17:43","EstimateTime":"","CarInfo":"","Lon":120.2637049,"Lat":23.2305675,"Turn":39,"DayValue":"一,三,五,六","RecycleDate":"一,五"},{"StopId":9578,"StopName":"仁愛街13號","ScheduleTime":"17:45","EstimateTime":"","CarInfo":"","Lon":120.2651642,"Lat":23.2313267,"Turn":40,"DayValue":"一,三,五,六","RecycleDate":"一,五"},{"StopId":9579,"StopName":"中正南路205巷3號巷口","ScheduleTime":"17:47","EstimateTime":"","CarInfo":"","Lon":120.2650312,"Lat":23.2306355,"Turn":41,"DayValue":"一,三,五,六","RecycleDate":"一,五"},{"StopId":9580,"StopName":"徐老師前中正南路205巷56號","ScheduleTime":"17:50","EstimateTime":"","CarInfo":"","Lon":120.2659145,"Lat":23.2309413,"Turn":42,"DayValue":"一,三,五,六","RecycleDate":"一,五"},{"StopId":9581,"StopName":"健康路200巷16號巷口","ScheduleTime":"17:52","EstimateTime":"","CarInfo":"","Lon":120.266636,"Lat":23.231858,"Turn":43,"DayValue":"一,三,五,六","RecycleDate":"一,五"},{"StopId":9582,"StopName":"欽智旁巷口中華街40巷62號","ScheduleTime":"17:54","EstimateTime":"","CarInfo":"","Lon":120.2664414,"Lat":23.2335856,"Turn":44,"DayValue":"一,三,五,六","RecycleDate":"一,五"},{"StopId":9583,"StopName":"復興街19號巷口","ScheduleTime":"17:55","EstimateTime":"","CarInfo":"","Lon":120.2644222,"Lat":23.234413,"Turn":45,"DayValue":"一,三,五,六","RecycleDate":"一,五"},{"StopId":9584,"StopName":"復興街38號巷口","ScheduleTime":"17:57","EstimateTime":"","CarInfo":"","Lon":120.2634298,"Lat":23.2342552,"Turn":46,"DayValue":"一,三,五,六","RecycleDate":"一,五"},{"StopId":9585,"StopName":"文明街53號","ScheduleTime":"18:00","EstimateTime":"","CarInfo":"","Lon":120.2639595,"Lat":23.2334862,"Turn":47,"DayValue":"一,三,五,六","RecycleDate":"一,五"},{"StopId":9586,"StopName":"文明街85號巷口","ScheduleTime":"18:02","EstimateTime":"","CarInfo":"","Lon":120.2626817,"Lat":23.2333693,"Turn":48,"DayValue":"一,三,五,六","RecycleDate":"一,五"},{"StopId":9587,"StopName":"民權一街36號巷口","ScheduleTime":"18:03","EstimateTime":"","CarInfo":"","Lon":120.262439,"Lat":23.2340162,"Turn":49,"DayValue":"一,三,五,六","RecycleDate":"一,五"},{"StopId":9588,"StopName":"米店巷口民權一街46號","ScheduleTime":"18:04","EstimateTime":"","CarInfo":"","Lon":120.2622894,"Lat":23.2345333,"Turn":50,"DayValue":"一,三,五,六","RecycleDate":"一,五"},{"StopId":9589,"StopName":"民權一街59號巷口","ScheduleTime":"18:06","EstimateTime":"","CarInfo":"","Lon":120.2616027,"Lat":23.2361009,"Turn":51,"DayValue":"一,三,五,六","RecycleDate":"一,五"},{"StopId":9590,"StopName":"大同街52號巷口","ScheduleTime":"18:08","EstimateTime":"","CarInfo":"","Lon":120.2630242,"Lat":23.2364564,"Turn":52,"DayValue":"一,三,五,六","RecycleDate":"一,五"},{"StopId":9591,"StopName":"顏復到代書巷口 大同街19號","ScheduleTime":"18:09","EstimateTime":"","CarInfo":"","Lon":120.2637502,"Lat":23.2366587,"Turn":53,"DayValue":"一,三,五,六","RecycleDate":"一,五"},{"StopId":9592,"StopName":"和平街46號巷口","ScheduleTime":"18:10","EstimateTime":"","CarInfo":"","Lon":120.2641025,"Lat":23.2368164,"Turn":54,"DayValue":"一,三,五,六","RecycleDate":"一,五"},{"StopId":9593,"StopName":"人和一街68號前","ScheduleTime":"18:11","EstimateTime":"","CarInfo":"","Lon":120.2656017,"Lat":23.2375333,"Turn":55,"DayValue":"一,三,五,六","RecycleDate":"一,五"},{"StopId":9594,"StopName":"戶政事務所人和一街25號","ScheduleTime":"18:12","EstimateTime":"","CarInfo":"","Lon":120.2666975,"Lat":23.2376885,"Turn":56,"DayValue":"一,三,五,六","RecycleDate":"一,五"},{"StopId":9595,"StopName":"六興堂巷口東興一街125巷5號","ScheduleTime":"18:15","EstimateTime":"","CarInfo":"","Lon":120.2659835,"Lat":23.2378886,"Turn":57,"DayValue":"一,三,五,六","RecycleDate":"一,五"},{"StopId":9596,"StopName":"新北街95號","ScheduleTime":"18:17","EstimateTime":"","CarInfo":"","Lon":120.2676095,"Lat":23.2401353,"Turn":58,"DayValue":"一,三,五,六","RecycleDate":"一,五"},{"StopId":9597,"StopName":"大忠街60號巷口","ScheduleTime":"18:20","EstimateTime":"","CarInfo":"","Lon":120.2639863,"Lat":23.2397594,"Turn":59,"DayValue":"一,三,五,六","RecycleDate":"一,五"},{"StopId":9598,"StopName":"大孝街60號巷口前","ScheduleTime":"18:22","EstimateTime":"","CarInfo":"","Lon":120.2626443,"Lat":23.2408769,"Turn":60,"DayValue":"一,三,五,六","RecycleDate":"一,五"},{"StopId":9599,"StopName":"水池街158號","ScheduleTime":"18:24","EstimateTime":"","CarInfo":"","Lon":120.26189,"Lat":23.240721,"Turn":61,"DayValue":"一,三,五,六","RecycleDate":"一,五"},{"StopId":9600,"StopName":"下營公園前水池街70號","ScheduleTime":"18:25","EstimateTime":"","CarInfo":"","Lon":120.2619787,"Lat":23.2394506,"Turn":62,"DayValue":"一,三,五,六","RecycleDate":"一,五"},{"StopId":9601,"StopName":"游泳池前水池街9號","ScheduleTime":"18:26","EstimateTime":"","CarInfo":"","Lon":120.2619867,"Lat":23.2390363,"Turn":63,"DayValue":"一,三,五,六","RecycleDate":"一,五"},{"StopId":9602,"StopName":"大埤里18-20號","ScheduleTime":"18:31","EstimateTime":"","CarInfo":"","Lon":120.2554351,"Lat":23.2306138,"Turn":64,"DayValue":"一,三,五,六","RecycleDate":"一,五"},{"StopId":9603,"StopName":"大埤里2-17號前","ScheduleTime":"18:32","EstimateTime":"","CarInfo":"","Lon":120.2537185,"Lat":23.2298843,"Turn":65,"DayValue":"一,三,五,六","RecycleDate":"一,五"},{"StopId":9604,"StopName":"大埤里18-32號巷口","ScheduleTime":"18:33","EstimateTime":"","CarInfo":"","Lon":120.252238,"Lat":23.2293519,"Turn":66,"DayValue":"一,三,五,六","RecycleDate":"一,五"},{"StopId":9605,"StopName":"大埤里3之4號前","ScheduleTime":"18:34","EstimateTime":"","CarInfo":"","Lon":120.2495289,"Lat":23.2287455,"Turn":67,"DayValue":"一,三,五,六","RecycleDate":"一,五"},{"StopId":9606,"StopName":"慶隆宮前大埤寮3之15號","ScheduleTime":"18:36","EstimateTime":"","CarInfo":"","Lon":120.2486801,"Lat":23.2280778,"Turn":68,"DayValue":"一,三,五,六","RecycleDate":"一,五"},{"StopId":9607,"StopName":"大埤公園前巷口大埤里69-1號","ScheduleTime":"18:37","EstimateTime":"","CarInfo":"","Lon":120.2474588,"Lat":23.2274366,"Turn":69,"DayValue":"一,三,五,六","RecycleDate":"一,五"},{"StopId":9608,"StopName":"梅仔商店巷口大埤寮26號","ScheduleTime":"18:38","EstimateTime":"","CarInfo":"","Lon":120.248212,"Lat":23.228642,"Turn":70,"DayValue":"一,三,五,六","RecycleDate":"一,五"},{"StopId":9609,"StopName":"大埤寮31號巷口","ScheduleTime":"18:40","EstimateTime":"","CarInfo":"","Lon":120.2486518,"Lat":23.2291078,"Turn":71,"DayValue":"一,三,五,六","RecycleDate":"一,五"},{"StopId":9610,"StopName":"大埤寮50號巷口","ScheduleTime":"18:42","EstimateTime":"","CarInfo":"","Lon":120.2479357,"Lat":23.2289969,"Turn":72,"DayValue":"一,三,五,六","RecycleDate":"一,五"},{"StopId":9611,"StopName":"王峰林巷口大埤寮40之1號","ScheduleTime":"18:43","EstimateTime":"","CarInfo":"","Lon":120.2485902,"Lat":23.2297462,"Turn":73,"DayValue":"一,三,五,六","RecycleDate":"一,五"},{"StopId":9612,"StopName":"大埤寮35-2號巷口","ScheduleTime":"18:44","EstimateTime":"","CarInfo":"","Lon":120.2494122,"Lat":23.2295381,"Turn":74,"DayValue":"一,三,五,六","RecycleDate":"一,五"},{"StopId":9613,"StopName":"沈東仁(每週一、六收)大埤寮40之11號","ScheduleTime":"18:45","EstimateTime":"","CarInfo":"","Lon":120.2489603,"Lat":23.2306976,"Turn":75,"DayValue":"一,三,五,六","RecycleDate":"一,五"},{"StopId":9614,"StopName":"高速公路下旁(每週五收)大埤寮59之6號","ScheduleTime":"18:46","EstimateTime":"","CarInfo":"","Lon":120.2443633,"Lat":23.2283166,"Turn":76,"DayValue":"一,三,五,六","RecycleDate":"一,五"},{"StopId":9615,"StopName":"大埤寮79之27號巷口","ScheduleTime":"18:48","EstimateTime":"","CarInfo":"","Lon":120.2481047,"Lat":23.2259406,"Turn":77,"DayValue":"一,三,五,六","RecycleDate":"一,五"},{"StopId":9616,"StopName":"朱音宮巷口大埤寮79-25號","ScheduleTime":"18:50","EstimateTime":"","CarInfo":"","Lon":120.2479974,"Lat":23.2249398,"Turn":78,"DayValue":"一,三,五,六","RecycleDate":"一,五"}],"CarData":[],"RouteId":6,"RouteName":"下營-2","RouteInfo":"中正北路360巷(每週一、六收)~朱音宮巷口大埤寮79-25號","IsWork":false}]