[{"StopData":[{"StopId":11512,"StopName":"建國路62號","ScheduleTime":"15:10","EstimateTime":"","CarInfo":"","Lon":120.1806362,"Lat":23.2302183,"Turn":1,"DayValue":"三","RecycleDate":"一,五"},{"StopId":11513,"StopName":"自立街公館路路口","ScheduleTime":"15:20","EstimateTime":"","CarInfo":"","Lon":120.180998,"Lat":23.229382,"Turn":2,"DayValue":"三","RecycleDate":"一,五"},{"StopId":11514,"StopName":"中山路成功路路口","ScheduleTime":"17:30","EstimateTime":"","CarInfo":"","Lon":120.181183,"Lat":23.234434,"Turn":3,"DayValue":"三","RecycleDate":"一,五"},{"StopId":11515,"StopName":"華宗路427號","ScheduleTime":"17:33","EstimateTime":"","CarInfo":"","Lon":120.1824705,"Lat":23.2337116,"Turn":4,"DayValue":"三","RecycleDate":"一,五"},{"StopId":11516,"StopName":"成功路民權路路口","ScheduleTime":"17:38","EstimateTime":"","CarInfo":"","Lon":120.180583,"Lat":23.231302,"Turn":5,"DayValue":"三","RecycleDate":"一,五"},{"StopId":11517,"StopName":"廣文路和平路路口","ScheduleTime":"17:44","EstimateTime":"","CarInfo":"","Lon":120.178756,"Lat":23.232464,"Turn":6,"DayValue":"三","RecycleDate":"一,五"},{"StopId":11518,"StopName":"廣文路信義路路口","ScheduleTime":"17:48","EstimateTime":"","CarInfo":"","Lon":120.177644,"Lat":23.232685,"Turn":7,"DayValue":"三","RecycleDate":"一,五"},{"StopId":11519,"StopName":"民權路中正路路口","ScheduleTime":"17:55","EstimateTime":"","CarInfo":"","Lon":120.179675,"Lat":23.231466,"Turn":8,"DayValue":"三","RecycleDate":"一,五"},{"StopId":11520,"StopName":"民權路民生路路口","ScheduleTime":"18:00","EstimateTime":"","CarInfo":"","Lon":120.183617,"Lat":23.231299,"Turn":9,"DayValue":"三","RecycleDate":"一,五"},{"StopId":11521,"StopName":"東竹圍13之11號前","ScheduleTime":"18:08","EstimateTime":"","CarInfo":"","Lon":120.187322,"Lat":23.230104999999998,"Turn":10,"DayValue":"三","RecycleDate":"一,五"},{"StopId":11522,"StopName":"建國路信義路路口","ScheduleTime":"18:15","EstimateTime":"","CarInfo":"","Lon":120.176861,"Lat":23.230937,"Turn":11,"DayValue":"三","RecycleDate":"一,五"},{"StopId":11523,"StopName":"自立街和平路路口","ScheduleTime":"18:18","EstimateTime":"","CarInfo":"","Lon":120.177962,"Lat":23.229927,"Turn":12,"DayValue":"三","RecycleDate":"一,五"},{"StopId":11524,"StopName":"信義路17巷15號","ScheduleTime":"18:25","EstimateTime":"","CarInfo":"","Lon":120.175537,"Lat":23.229806,"Turn":13,"DayValue":"三","RecycleDate":"一,五"},{"StopId":11525,"StopName":"四維街和平路路口","ScheduleTime":"18:30","EstimateTime":"","CarInfo":"","Lon":120.177533,"Lat":23.228626,"Turn":14,"DayValue":"三","RecycleDate":"一,五"},{"StopId":11526,"StopName":"四維街公館路路口","ScheduleTime":"18:35","EstimateTime":"","CarInfo":"","Lon":120.180844,"Lat":23.228005,"Turn":15,"DayValue":"三","RecycleDate":"一,五"},{"StopId":11527,"StopName":"自強路7號旁","ScheduleTime":"18:40","EstimateTime":"","CarInfo":"","Lon":120.182409,"Lat":23.228554,"Turn":16,"DayValue":"三","RecycleDate":"一,五"},{"StopId":11528,"StopName":"八德街公園街路口","ScheduleTime":"18:43","EstimateTime":"","CarInfo":"","Lon":120.182215,"Lat":23.227315,"Turn":17,"DayValue":"三","RecycleDate":"一,五"},{"StopId":11529,"StopName":"八德街信義路路口","ScheduleTime":"18:50","EstimateTime":"","CarInfo":"","Lon":120.175705,"Lat":23.228608,"Turn":18,"DayValue":"三","RecycleDate":"一,五"},{"StopId":11530,"StopName":"濟生路成功路路口","ScheduleTime":"19:05","EstimateTime":"","CarInfo":"","Lon":120.180879,"Lat":23.232869,"Turn":19,"DayValue":"三","RecycleDate":"一,五"},{"StopId":11531,"StopName":"濟生路和平路路口","ScheduleTime":"19:08","EstimateTime":"","CarInfo":"","Lon":120.178927,"Lat":23.233241,"Turn":20,"DayValue":"三","RecycleDate":"一,五"},{"StopId":11532,"StopName":"華宗路380號","ScheduleTime":"19:15","EstimateTime":"","CarInfo":"","Lon":120.182255,"Lat":23.23259,"Turn":21,"DayValue":"三","RecycleDate":"一,五"},{"StopId":11533,"StopName":"成功路廣文路路口","ScheduleTime":"19:18","EstimateTime":"","CarInfo":"","Lon":120.180723,"Lat":23.232096,"Turn":22,"DayValue":"三","RecycleDate":"一,五"},{"StopId":11534,"StopName":"廣文路中正路路口","ScheduleTime":"19:20","EstimateTime":"","CarInfo":"","Lon":120.179913,"Lat":23.232239,"Turn":23,"DayValue":"三","RecycleDate":"一,五"},{"StopId":11535,"StopName":"山寮6之1號","ScheduleTime":"19:25","EstimateTime":"","CarInfo":"","Lon":120.197459,"Lat":23.23585,"Turn":24,"DayValue":"三","RecycleDate":"一,五"},{"StopId":11536,"StopName":"瓦寮16號","ScheduleTime":"19:32","EstimateTime":"","CarInfo":"","Lon":120.213773,"Lat":23.233478,"Turn":25,"DayValue":"三","RecycleDate":"一,五"},{"StopId":11537,"StopName":"瓦寮31號","ScheduleTime":"19:37","EstimateTime":"","CarInfo":"","Lon":120.21698,"Lat":23.231067,"Turn":26,"DayValue":"三","RecycleDate":"一,五"},{"StopId":11538,"StopName":"山寮11之1號","ScheduleTime":"19:55","EstimateTime":"","CarInfo":"","Lon":120.196303,"Lat":23.236133,"Turn":27,"DayValue":"三","RecycleDate":"一,五"}],"CarData":[],"RouteId":288,"RouteName":"學甲-1(夜間每星期三)","RouteInfo":"建國路62號~山寮11之1號","IsWork":false}]