[{"StopData":[{"StopId":9088,"StopName":"後鎮63-8號","ScheduleTime":"09:15","EstimateTime":"","CarInfo":"","Lon":120.296912,"Lat":23.332981,"Turn":1,"DayValue":"一,二,三,四,五","RecycleDate":"三"},{"StopId":9089,"StopName":"長榮路一段501號","ScheduleTime":"09:25","EstimateTime":"","CarInfo":"","Lon":120.3192175,"Lat":23.3196802,"Turn":2,"DayValue":"一,二,三,四,五","RecycleDate":"三"},{"StopId":9090,"StopName":"長榮路一段510號","ScheduleTime":"09:27","EstimateTime":"","CarInfo":"","Lon":120.3186438,"Lat":23.3201812,"Turn":3,"DayValue":"一,二,三,四,五","RecycleDate":"三"},{"StopId":9091,"StopName":"中正路41號","ScheduleTime":"09:32","EstimateTime":"","CarInfo":"","Lon":120.3163448,"Lat":23.3151674,"Turn":4,"DayValue":"一,二,三,四,五","RecycleDate":"三"},{"StopId":9092,"StopName":"中正路30號","ScheduleTime":"09:34","EstimateTime":"","CarInfo":"","Lon":120.316576,"Lat":23.3102765,"Turn":5,"DayValue":"一,二,三,四,五","RecycleDate":"三"},{"StopId":9093,"StopName":"民治路34號","ScheduleTime":"09:36","EstimateTime":"","CarInfo":"","Lon":120.3162537,"Lat":23.310966,"Turn":6,"DayValue":"一,二,三,四,五","RecycleDate":"三"},{"StopId":9094,"StopName":"民治路38號","ScheduleTime":"09:37","EstimateTime":"","CarInfo":"","Lon":120.315636,"Lat":23.311064,"Turn":7,"DayValue":"一,二,三,四,五","RecycleDate":"三"},{"StopId":9095,"StopName":"民治路36號","ScheduleTime":"09:38","EstimateTime":"","CarInfo":"","Lon":120.3147263,"Lat":23.3115468,"Turn":8,"DayValue":"一,二,三,四,五","RecycleDate":"三"},{"StopId":9096,"StopName":"民治路50-2號","ScheduleTime":"09:41","EstimateTime":"","CarInfo":"","Lon":120.3133236,"Lat":23.3107609,"Turn":9,"DayValue":"一,二,三,四,五","RecycleDate":"三"},{"StopId":9097,"StopName":"民治路146-2號","ScheduleTime":"09:42","EstimateTime":"","CarInfo":"","Lon":120.3083485,"Lat":23.3097583,"Turn":10,"DayValue":"一,二,三,四,五","RecycleDate":"三"},{"StopId":9098,"StopName":"民治路160號","ScheduleTime":"09:43","EstimateTime":"","CarInfo":"","Lon":120.3070434,"Lat":23.309316,"Turn":11,"DayValue":"一,二,三,四,五","RecycleDate":"三"},{"StopId":9099,"StopName":"民治路310號","ScheduleTime":"09:45","EstimateTime":"","CarInfo":"","Lon":120.3037435,"Lat":23.3071859,"Turn":12,"DayValue":"一,二,三,四,五","RecycleDate":"三"},{"StopId":9100,"StopName":"新進路二段109號","ScheduleTime":"09:49","EstimateTime":"","CarInfo":"","Lon":120.3100641,"Lat":23.3003527,"Turn":13,"DayValue":"一,二,三,四,五","RecycleDate":"三"},{"StopId":9101,"StopName":"文化街17號","ScheduleTime":"09:52","EstimateTime":"","CarInfo":"","Lon":120.3137819,"Lat":23.3035779,"Turn":14,"DayValue":"一,二,三,四,五","RecycleDate":"三"},{"StopId":9102,"StopName":"新進路230-2號","ScheduleTime":"09:58","EstimateTime":"","CarInfo":"","Lon":120.318544,"Lat":23.301923,"Turn":15,"DayValue":"一,二,三,四,五","RecycleDate":"三"},{"StopId":9103,"StopName":"新進路69-8號(如意大樓)","ScheduleTime":"10:00","EstimateTime":"","CarInfo":"","Lon":120.320885,"Lat":23.304451,"Turn":16,"DayValue":"一,二,三,四,五","RecycleDate":"三"},{"StopId":9104,"StopName":"新進路2-1號","ScheduleTime":"10:14","EstimateTime":"","CarInfo":"","Lon":120.3135005,"Lat":23.3006271,"Turn":17,"DayValue":"一,二,三,四,五","RecycleDate":"三"},{"StopId":9105,"StopName":"東山路12號","ScheduleTime":"10:17","EstimateTime":"","CarInfo":"","Lon":120.3252878,"Lat":23.3090053,"Turn":18,"DayValue":"一,二,三,四,五","RecycleDate":"三"},{"StopId":9106,"StopName":"開元路81號","ScheduleTime":"10:19","EstimateTime":"","CarInfo":"","Lon":120.325038,"Lat":23.3106209,"Turn":19,"DayValue":"一,二,三,四,五","RecycleDate":"三"},{"StopId":9107,"StopName":"大同路16-5號","ScheduleTime":"10:22","EstimateTime":"","CarInfo":"","Lon":120.3229421,"Lat":23.3089413,"Turn":20,"DayValue":"一,二,三,四,五","RecycleDate":"三"},{"StopId":9108,"StopName":"大同路16-10號","ScheduleTime":"10:23","EstimateTime":"","CarInfo":"","Lon":120.3226897,"Lat":23.3092126,"Turn":21,"DayValue":"一,二,三,四,五","RecycleDate":"三"},{"StopId":9109,"StopName":"綠川路22號","ScheduleTime":"10:25","EstimateTime":"","CarInfo":"","Lon":120.3238512,"Lat":23.3105026,"Turn":22,"DayValue":"一,二,三,四,五","RecycleDate":"三"},{"StopId":9110,"StopName":"東興六街49號","ScheduleTime":"10:29","EstimateTime":"","CarInfo":"","Lon":120.3240158,"Lat":23.3141933,"Turn":23,"DayValue":"一,二,三,四,五","RecycleDate":"三"},{"StopId":9111,"StopName":"東興路163號","ScheduleTime":"10:31","EstimateTime":"","CarInfo":"","Lon":120.3228532,"Lat":23.3152922,"Turn":24,"DayValue":"一,二,三,四,五","RecycleDate":"三"},{"StopId":9112,"StopName":"民治路6號","ScheduleTime":"10:35","EstimateTime":"","CarInfo":"","Lon":120.3211904,"Lat":23.311189,"Turn":25,"DayValue":"一,二,三,四,五","RecycleDate":"三"},{"StopId":9113,"StopName":"義和街36號","ScheduleTime":"10:38","EstimateTime":"","CarInfo":"","Lon":120.3190108,"Lat":23.3125438,"Turn":26,"DayValue":"一,二,三,四,五","RecycleDate":"三"},{"StopId":9114,"StopName":"民治路24-2號","ScheduleTime":"10:40","EstimateTime":"","CarInfo":"","Lon":120.3211519,"Lat":23.3118681,"Turn":27,"DayValue":"一,二,三,四,五","RecycleDate":"三"},{"StopId":9115,"StopName":"中正路23號","ScheduleTime":"10:43","EstimateTime":"","CarInfo":"","Lon":120.3162071,"Lat":23.3097445,"Turn":28,"DayValue":"一,二,三,四,五","RecycleDate":"三"},{"StopId":9116,"StopName":"中正路115號","ScheduleTime":"10:45","EstimateTime":"","CarInfo":"","Lon":120.3162234,"Lat":23.3180155,"Turn":29,"DayValue":"一,二,三,四,五","RecycleDate":"三"},{"StopId":9117,"StopName":"中正路5號","ScheduleTime":"10:46","EstimateTime":"","CarInfo":"","Lon":120.315677,"Lat":23.318702,"Turn":30,"DayValue":"一,二,三,四,五","RecycleDate":"三"},{"StopId":9118,"StopName":"中華路1號","ScheduleTime":"10:47","EstimateTime":"","CarInfo":"","Lon":120.314458,"Lat":23.3051219,"Turn":31,"DayValue":"一,二,三,四,五","RecycleDate":"三"},{"StopId":9119,"StopName":"中山路119號","ScheduleTime":"10:49","EstimateTime":"","CarInfo":"","Lon":120.3176725,"Lat":23.3046742,"Turn":32,"DayValue":"一,二,三,四,五","RecycleDate":"三"},{"StopId":9120,"StopName":"中山路115號","ScheduleTime":"10:51","EstimateTime":"","CarInfo":"","Lon":120.3184642,"Lat":23.3050795,"Turn":33,"DayValue":"一,二,三,四,五","RecycleDate":"三"},{"StopId":9121,"StopName":"中山路79號","ScheduleTime":"10:52","EstimateTime":"","CarInfo":"","Lon":120.320855,"Lat":23.306026,"Turn":34,"DayValue":"一,二,三,四,五","RecycleDate":"三"},{"StopId":9122,"StopName":"文昌街34號","ScheduleTime":"10:54","EstimateTime":"","CarInfo":"","Lon":120.3191326,"Lat":23.3062776,"Turn":35,"DayValue":"一,二,三,四,五","RecycleDate":"三"},{"StopId":9123,"StopName":"三民路70號","ScheduleTime":"10:57","EstimateTime":"","CarInfo":"","Lon":120.317381,"Lat":23.307475,"Turn":36,"DayValue":"一,二,三,四,五","RecycleDate":"三"},{"StopId":9124,"StopName":"綠川路北街121號","ScheduleTime":"11:00","EstimateTime":"","CarInfo":"","Lon":120.318339,"Lat":23.309035,"Turn":37,"DayValue":"一,二,三,四,五","RecycleDate":"三"},{"StopId":9125,"StopName":"中正路8號","ScheduleTime":"11:11","EstimateTime":"","CarInfo":"","Lon":120.31634,"Lat":23.308356,"Turn":38,"DayValue":"一,二,三,四,五","RecycleDate":"三"},{"StopId":9126,"StopName":"中正路479巷45號","ScheduleTime":"11:25","EstimateTime":"","CarInfo":"","Lon":120.313105,"Lat":23.324913,"Turn":39,"DayValue":"一,二,三,四,五","RecycleDate":"三"},{"StopId":9127,"StopName":"中正路439巷128號","ScheduleTime":"11:27","EstimateTime":"","CarInfo":"","Lon":120.31269,"Lat":23.314143,"Turn":40,"DayValue":"一,二,三,四,五","RecycleDate":"三"},{"StopId":9128,"StopName":"長榮路二段78號","ScheduleTime":"11:29","EstimateTime":"","CarInfo":"","Lon":120.309962,"Lat":23.321291,"Turn":41,"DayValue":"一,二,三,四,五","RecycleDate":"三"},{"StopId":9129,"StopName":"三興街380號","ScheduleTime":"11:32","EstimateTime":"","CarInfo":"","Lon":120.3094534,"Lat":23.3226937,"Turn":42,"DayValue":"一,二,三,四,五","RecycleDate":"三"},{"StopId":9130,"StopName":"建國路302號","ScheduleTime":"11:35","EstimateTime":"","CarInfo":"","Lon":120.3076561,"Lat":23.3303155,"Turn":43,"DayValue":"一,二,三,四,五","RecycleDate":"三"},{"StopId":9131,"StopName":"建國路350-1號(每一.四收運)","ScheduleTime":"11:37","EstimateTime":"","CarInfo":"","Lon":120.305931,"Lat":23.33044,"Turn":44,"DayValue":"一,二,三,四,五","RecycleDate":"三"},{"StopId":9132,"StopName":"後鎮63-5號(每一.四收運)","ScheduleTime":"11:38","EstimateTime":"","CarInfo":"","Lon":120.274907,"Lat":23.319948,"Turn":45,"DayValue":"一,二,三,四,五","RecycleDate":"三"}],"CarData":[{"CarNo":"AAQ-066","Angle":179,"Lon":120.316093,"Lat":23.324754}],"RouteId":362,"RouteName":"新營-輔助點","RouteInfo":"後鎮63-8號~後鎮63-5號(每一.四收運)","IsWork":true}]