[{"StopData":[{"StopId":8309,"StopName":"新樂路1-25號","ScheduleTime":"16:53","EstimateTime":"","CarInfo":"","Lon":120.181523,"Lat":22.982044,"Turn":1,"DayValue":"一,二,四,六","RecycleDate":"二,六"},{"StopId":8310,"StopName":"中華西路一段466號","ScheduleTime":"17:00","EstimateTime":"","CarInfo":"","Lon":120.186656,"Lat":22.985927,"Turn":2,"DayValue":"一,二,四,六","RecycleDate":"二,六"},{"StopId":8311,"StopName":"永華路233巷口","ScheduleTime":"17:06","EstimateTime":"","CarInfo":"","Lon":120.19123,"Lat":22.988242,"Turn":3,"DayValue":"一,二,四,六","RecycleDate":"二,六"},{"StopId":8312,"StopName":"金華路二段385巷口","ScheduleTime":"17:13","EstimateTime":"","CarInfo":"","Lon":120.191867,"Lat":22.986502,"Turn":4,"DayValue":"一,二,四,六","RecycleDate":"二,六"},{"StopId":8313,"StopName":"金華路二段345巷口","ScheduleTime":"17:17","EstimateTime":"","CarInfo":"","Lon":120.191811,"Lat":22.985664,"Turn":5,"DayValue":"一,二,四,六","RecycleDate":"二,六"},{"StopId":8314,"StopName":"金華路二段221號","ScheduleTime":"17:25","EstimateTime":"","CarInfo":"","Lon":120.191569,"Lat":22.98271,"Turn":6,"DayValue":"一,二,四,六","RecycleDate":"二,六"},{"StopId":8315,"StopName":"健康路二段324號","ScheduleTime":"17:32","EstimateTime":"","CarInfo":"","Lon":120.188498,"Lat":22.981955,"Turn":7,"DayValue":"一,二,四,六","RecycleDate":"二,六"},{"StopId":8316,"StopName":"健康路二段447號前","ScheduleTime":"17:37","EstimateTime":"","CarInfo":"","Lon":120.184723,"Lat":22.982215,"Turn":8,"DayValue":"一,二,四,六","RecycleDate":"二,六"},{"StopId":8317,"StopName":"金華路二段21巷","ScheduleTime":"17:45","EstimateTime":"","CarInfo":"","Lon":120.19102,"Lat":22.976427,"Turn":9,"DayValue":"一,二,四,六","RecycleDate":"二,六"},{"StopId":8318,"StopName":"金華路二段3巷口","ScheduleTime":"17:49","EstimateTime":"","CarInfo":"","Lon":120.190934,"Lat":22.97553,"Turn":10,"DayValue":"一,二,四,六","RecycleDate":"二,六"},{"StopId":8319,"StopName":"新興路364號","ScheduleTime":"17:55","EstimateTime":"","CarInfo":"","Lon":120.18949,"Lat":22.975143,"Turn":11,"DayValue":"一,二,四,六","RecycleDate":"二,六"},{"StopId":8320,"StopName":"新興路398號前","ScheduleTime":"18:01","EstimateTime":"","CarInfo":"","Lon":120.188167,"Lat":22.974992,"Turn":12,"DayValue":"一,二,四,六","RecycleDate":"二,六"},{"StopId":8321,"StopName":"新興路489號","ScheduleTime":"18:06","EstimateTime":"","CarInfo":"","Lon":120.188447,"Lat":22.974984,"Turn":13,"DayValue":"一,二,四,六","RecycleDate":"二,六"},{"StopId":8322,"StopName":"尊南街與金華路二段3巷交叉口","ScheduleTime":"18:11","EstimateTime":"","CarInfo":"","Lon":120.188685,"Lat":22.975713,"Turn":14,"DayValue":"一,二,四,六","RecycleDate":"二,六"},{"StopId":8323,"StopName":"尊南街（金華市場停車場前）","ScheduleTime":"18:17","EstimateTime":"","CarInfo":"","Lon":120.188756,"Lat":22.977112,"Turn":15,"DayValue":"一,二,四,六","RecycleDate":"二,六"},{"StopId":8324,"StopName":"新孝路77號與79號中間","ScheduleTime":"20:05","EstimateTime":"","CarInfo":"","Lon":120.188123,"Lat":22.97785,"Turn":16,"DayValue":"一,二,四,六","RecycleDate":"二,六"},{"StopId":8325,"StopName":"金華路二段15巷89號前","ScheduleTime":"20:10","EstimateTime":"","CarInfo":"","Lon":120.187853,"Lat":22.976326,"Turn":17,"DayValue":"一,二,四,六","RecycleDate":"二,六"},{"StopId":8326,"StopName":"金華路一段429號","ScheduleTime":"20:18","EstimateTime":"","CarInfo":"","Lon":120.190471,"Lat":22.970804,"Turn":18,"DayValue":"一,二,四,六","RecycleDate":"二,六"},{"StopId":8327,"StopName":"金華路一段（觀音亭前）","ScheduleTime":"20:21","EstimateTime":"","CarInfo":"","Lon":120.190277,"Lat":22.970401,"Turn":19,"DayValue":"一,二,四,六","RecycleDate":"二,六"},{"StopId":8328,"StopName":"金華路一段與利南街口","ScheduleTime":"20:25","EstimateTime":"","CarInfo":"","Lon":120.190332,"Lat":22.969102,"Turn":20,"DayValue":"一,二,四,六","RecycleDate":"二,六"},{"StopId":8329,"StopName":"利南街81號對面","ScheduleTime":"20:32","EstimateTime":"","CarInfo":"","Lon":120.188493,"Lat":22.969929,"Turn":21,"DayValue":"一,二,四,六","RecycleDate":"二,六"},{"StopId":8330,"StopName":"利南街108號","ScheduleTime":"20:36","EstimateTime":"","CarInfo":"","Lon":120.188223,"Lat":22.971231,"Turn":22,"DayValue":"一,二,四,六","RecycleDate":"二,六"},{"StopId":8331,"StopName":"鹽埕路291巷31弄口","ScheduleTime":"20:41","EstimateTime":"","CarInfo":"","Lon":120.188737,"Lat":22.971463,"Turn":23,"DayValue":"一,二,四,六","RecycleDate":"二,六"},{"StopId":8332,"StopName":"文南路56號","ScheduleTime":"20:51","EstimateTime":"","CarInfo":"","Lon":120.189862,"Lat":22.983269,"Turn":24,"DayValue":"一,二,四,六","RecycleDate":"二,六"},{"StopId":8333,"StopName":"文南路292號","ScheduleTime":"20:58","EstimateTime":"","CarInfo":"","Lon":120.190112,"Lat":22.986646,"Turn":25,"DayValue":"一,二,四,六","RecycleDate":"二,六"},{"StopId":8334,"StopName":"文南路來電停車場邊","ScheduleTime":"21:02","EstimateTime":"","CarInfo":"","Lon":120.190009,"Lat":22.985389,"Turn":26,"DayValue":"一,二,四,六","RecycleDate":"二,六"},{"StopId":8335,"StopName":"文南路105巷口","ScheduleTime":"21:06","EstimateTime":"","CarInfo":"","Lon":120.189932,"Lat":22.984565,"Turn":27,"DayValue":"一,二,四,六","RecycleDate":"二,六"},{"StopId":8336,"StopName":"建南路191號","ScheduleTime":"21:12","EstimateTime":"","CarInfo":"","Lon":120.188879,"Lat":22.985049,"Turn":28,"DayValue":"一,二,四,六","RecycleDate":"二,六"},{"StopId":8337,"StopName":"建南路176號","ScheduleTime":"21:17","EstimateTime":"","CarInfo":"","Lon":120.188226,"Lat":22.985109,"Turn":29,"DayValue":"一,二,四,六","RecycleDate":"二,六"},{"StopId":8338,"StopName":"建南路210號","ScheduleTime":"21:22","EstimateTime":"","CarInfo":"","Lon":120.187319,"Lat":22.985171,"Turn":30,"DayValue":"一,二,四,六","RecycleDate":"二,六"},{"StopId":8339,"StopName":"建南路301號","ScheduleTime":"21:26","EstimateTime":"","CarInfo":"","Lon":120.185552,"Lat":22.985271,"Turn":31,"DayValue":"一,二,四,六","RecycleDate":"二,六"}],"CarData":[],"RouteId":205,"RouteName":"南區-16","RouteInfo":"新樂路1-25號~建南路301號","IsWork":true}]