[{"StopData":[{"StopId":351,"StopName":"頂安里333號前福安里長(垃圾不落地)","ScheduleTime":"07:10","EstimateTime":"","CarInfo":"","Lon":120.349975,"Lat":23.347635,"Turn":1,"DayValue":"一","RecycleDate":""},{"StopId":352,"StopName":"頂寮235號嘉苳里(豬舍)和頂安里長家(垃圾不落地)","ScheduleTime":"07:15","EstimateTime":"","CarInfo":"","Lon":120.355452,"Lat":23.34419,"Turn":2,"DayValue":"一","RecycleDate":""},{"StopId":353,"StopName":"嘉苳里47-1號本協部落(1-3號)(垃圾不落地)","ScheduleTime":"07:43","EstimateTime":"","CarInfo":"","Lon":120.38237,"Lat":23.354559,"Turn":3,"DayValue":"一","RecycleDate":""},{"StopId":354,"StopName":"土溝里53-1號無竹圍部落(垃圾不落地)","ScheduleTime":"07:58","EstimateTime":"","CarInfo":"","Lon":120.386197,"Lat":23.36679,"Turn":4,"DayValue":"一","RecycleDate":""},{"StopId":355,"StopName":"福安里16+8-8號安溪市場(垃圾不落地)","ScheduleTime":"08:49","EstimateTime":"","CarInfo":"","Lon":120.353748,"Lat":23.330362,"Turn":5,"DayValue":"一","RecycleDate":""},{"StopId":356,"StopName":"侯伯里156-1號尾厝部落(垃圾不落地)","ScheduleTime":"09:11","EstimateTime":"","CarInfo":"","Lon":120.359147,"Lat":23.369439,"Turn":6,"DayValue":"一","RecycleDate":""},{"StopId":357,"StopName":"菁寮里43號菁寮市場","ScheduleTime":"09:20","EstimateTime":"","CarInfo":"","Lon":120.335912,"Lat":23.378402,"Turn":7,"DayValue":"一","RecycleDate":""},{"StopId":358,"StopName":"竹新里9-60號新厝部落(高速公路旁住戶)(垃圾不落地)","ScheduleTime":"09:58","EstimateTime":"","CarInfo":"","Lon":120.3122,"Lat":23.334473,"Turn":8,"DayValue":"一","RecycleDate":""}],"CarData":[],"RouteId":214,"RouteName":"後壁-5-1(日間輔助點每週一)","RouteInfo":"頂安里333號前福安里長(垃圾不落地)~竹新里9-60號新厝部落(高速公路旁住戶)(垃圾不落地)","IsWork":false}]