[{"StopData":[{"StopId":7385,"StopName":"東門路三段53號","ScheduleTime":"16:30","EstimateTime":"","CarInfo":"","Lon":120.231341,"Lat":22.980112,"Turn":1,"DayValue":"一,二,四,六","RecycleDate":"二,六"},{"StopId":7386,"StopName":"東門路三段37巷口","ScheduleTime":"16:32","EstimateTime":"","CarInfo":"","Lon":120.2307257,"Lat":22.9801687,"Turn":2,"DayValue":"一,二,四,六","RecycleDate":"二,六"},{"StopId":7387,"StopName":"東門路三段37巷6弄口","ScheduleTime":"16:36","EstimateTime":"","CarInfo":"","Lon":120.2319138,"Lat":22.9802489,"Turn":3,"DayValue":"一,二,四,六","RecycleDate":"二,六"},{"StopId":7388,"StopName":"東門路三段37巷6弄49號","ScheduleTime":"16:41","EstimateTime":"","CarInfo":"","Lon":120.232946,"Lat":22.9803093,"Turn":4,"DayValue":"一,二,四,六","RecycleDate":"二,六"},{"StopId":7389,"StopName":"東門路三段37巷12弄與富農街一段89巷底","ScheduleTime":"16:50","EstimateTime":"","CarInfo":"","Lon":120.2332604,"Lat":22.9808078,"Turn":5,"DayValue":"一,二,四,六","RecycleDate":"二,六"},{"StopId":7390,"StopName":"東門路三段37巷63弄與12弄口","ScheduleTime":"16:54","EstimateTime":"","CarInfo":"","Lon":120.2317656,"Lat":22.980818,"Turn":6,"DayValue":"一,二,四,六","RecycleDate":"二,六"},{"StopId":7391,"StopName":"東門路三段11巷12號(大樓)富強教會","ScheduleTime":"16:57","EstimateTime":"","CarInfo":"","Lon":120.2303751,"Lat":22.9812676,"Turn":7,"DayValue":"一,二,四,六","RecycleDate":"二,六"},{"StopId":7392,"StopName":"中華東路二段339號","ScheduleTime":"17:01","EstimateTime":"","CarInfo":"","Lon":120.2301928,"Lat":22.9818561,"Turn":8,"DayValue":"一,二,四,六","RecycleDate":"二,六"},{"StopId":7393,"StopName":"中華東路二段295巷41號前正揚機車","ScheduleTime":"17:08","EstimateTime":"","CarInfo":"","Lon":120.2314323,"Lat":22.9820364,"Turn":9,"DayValue":"一,二,四,六","RecycleDate":"二,六"},{"StopId":7394,"StopName":"富農街一段131巷42弄7號前","ScheduleTime":"17:15","EstimateTime":"","CarInfo":"","Lon":120.2333677,"Lat":22.9822326,"Turn":10,"DayValue":"一,二,四,六","RecycleDate":"二,六"},{"StopId":7395,"StopName":"富農街一段131巷26號(路口)三陽機車","ScheduleTime":"17:19","EstimateTime":"","CarInfo":"","Lon":120.2339006,"Lat":22.9818537,"Turn":11,"DayValue":"一,二,四,六","RecycleDate":"二,六"},{"StopId":7396,"StopName":"富農街一段153巷口","ScheduleTime":"17:26","EstimateTime":"","CarInfo":"","Lon":120.2347311,"Lat":22.9822621,"Turn":12,"DayValue":"一,二,四,六","RecycleDate":"二,六"},{"StopId":7397,"StopName":"中華東路二段243巷37號","ScheduleTime":"17:29","EstimateTime":"","CarInfo":"","Lon":120.232661,"Lat":22.98267,"Turn":13,"DayValue":"一,二,四,六","RecycleDate":"二,六"},{"StopId":7398,"StopName":"中華東路二段203巷19弄與富農街一段199巷口","ScheduleTime":"17:33","EstimateTime":"","CarInfo":"","Lon":120.2338351,"Lat":22.9832659,"Turn":14,"DayValue":"一,二,四,六","RecycleDate":"二,六"},{"StopId":7399,"StopName":"富農街一段199巷2號","ScheduleTime":"17:36","EstimateTime":"","CarInfo":"","Lon":120.2349695,"Lat":22.9831577,"Turn":15,"DayValue":"一,二,四,六","RecycleDate":"二,六"},{"StopId":7400,"StopName":"中華東路二段73巷2號(擎天大樓)","ScheduleTime":"17:39","EstimateTime":"","CarInfo":"","Lon":120.2335241,"Lat":22.9866673,"Turn":16,"DayValue":"一,二,四,六","RecycleDate":"二,六"},{"StopId":7401,"StopName":"中華東路二段73巷7號","ScheduleTime":"17:44","EstimateTime":"","CarInfo":"","Lon":120.2339192,"Lat":22.986682,"Turn":17,"DayValue":"一,二,四,六","RecycleDate":"二,六"},{"StopId":7402,"StopName":"富農街二段132巷口","ScheduleTime":"18:55","EstimateTime":"","CarInfo":"","Lon":120.2355866,"Lat":22.9879397,"Turn":18,"DayValue":"一,二,四,六","RecycleDate":"二,六"},{"StopId":7403,"StopName":"富農街一段191巷10號","ScheduleTime":"19:00","EstimateTime":"","CarInfo":"","Lon":120.2347053,"Lat":22.9827955,"Turn":19,"DayValue":"一,二,四,六","RecycleDate":"二,六"},{"StopId":7404,"StopName":"富農路一段191巷與中華東路二段243巷口","ScheduleTime":"19:13","EstimateTime":"","CarInfo":"","Lon":120.23385,"Lat":22.9827806,"Turn":20,"DayValue":"一,二,四,六","RecycleDate":"二,六"},{"StopId":7405,"StopName":"中華東路二段243巷24弄及13弄口","ScheduleTime":"19:16","EstimateTime":"","CarInfo":"","Lon":120.2322543,"Lat":22.9828179,"Turn":21,"DayValue":"一,二,四,六","RecycleDate":"二,六"},{"StopId":7406,"StopName":"中華東路二段243巷口","ScheduleTime":"19:20","EstimateTime":"","CarInfo":"","Lon":120.2315802,"Lat":22.98336,"Turn":22,"DayValue":"一,二,四,六","RecycleDate":"二,六"},{"StopId":7407,"StopName":"中華東路二段203巷17弄2號","ScheduleTime":"19:24","EstimateTime":"","CarInfo":"","Lon":120.2325189,"Lat":22.9834266,"Turn":23,"DayValue":"一,二,四,六","RecycleDate":"二,六"},{"StopId":7408,"StopName":"中華東路二段133巷72號(環保局大門口)","ScheduleTime":"19:30","EstimateTime":"","CarInfo":"","Lon":120.2352429,"Lat":22.984805,"Turn":24,"DayValue":"一,二,四,六","RecycleDate":"二,六"},{"StopId":7409,"StopName":"中華東路二段133巷70弄39號前","ScheduleTime":"19:38","EstimateTime":"","CarInfo":"","Lon":120.2345624,"Lat":22.9842488,"Turn":25,"DayValue":"一,二,四,六","RecycleDate":"二,六"},{"StopId":7410,"StopName":"中華東路二段185巷及133巷4弄口","ScheduleTime":"19:41","EstimateTime":"","CarInfo":"","Lon":120.2332036,"Lat":22.9845722,"Turn":26,"DayValue":"一,二,四,六","RecycleDate":"二,六"},{"StopId":7411,"StopName":"中華東路二段133巷57弄34號(活動中心)","ScheduleTime":"19:45","EstimateTime":"","CarInfo":"","Lon":120.234715,"Lat":22.9860173,"Turn":27,"DayValue":"一,二,四,六","RecycleDate":"二,六"},{"StopId":7412,"StopName":"富農街二段43巷口","ScheduleTime":"19:56","EstimateTime":"","CarInfo":"","Lon":120.2355388,"Lat":22.9862071,"Turn":28,"DayValue":"一,二,四,六","RecycleDate":"二,六"},{"StopId":7413,"StopName":"中華東路二段41巷45號前","ScheduleTime":"20:01","EstimateTime":"","CarInfo":"","Lon":120.234646,"Lat":22.9873991,"Turn":29,"DayValue":"一,二,四,六","RecycleDate":"二,六"},{"StopId":7414,"StopName":"中華東路二段7巷13弄22號前","ScheduleTime":"20:07","EstimateTime":"","CarInfo":"","Lon":120.2339387,"Lat":22.9879638,"Turn":30,"DayValue":"一,二,四,六","RecycleDate":"二,六"},{"StopId":7415,"StopName":"裕農路574號前","ScheduleTime":"20:16","EstimateTime":"","CarInfo":"","Lon":120.2346273,"Lat":22.988506,"Turn":31,"DayValue":"一,二,四,六","RecycleDate":"二,六"},{"StopId":7416,"StopName":"裕農路594號前(富田診所)","ScheduleTime":"20:20","EstimateTime":"","CarInfo":"","Lon":120.2351985,"Lat":22.9885355,"Turn":32,"DayValue":"一,二,四,六","RecycleDate":"二,六"},{"StopId":7417,"StopName":"中華東路二段133巷39弄口","ScheduleTime":"20:26","EstimateTime":"","CarInfo":"","Lon":120.2342703,"Lat":22.9850964,"Turn":33,"DayValue":"一,二,四,六","RecycleDate":"二,六"},{"StopId":7418,"StopName":"中華東路二段25號","ScheduleTime":"20:29","EstimateTime":"","CarInfo":"","Lon":120.2335961,"Lat":22.9876342,"Turn":34,"DayValue":"一,二,四,六","RecycleDate":"二,六"}],"CarData":[{"CarNo":"531-US","Angle":126,"Lon":120.231277,"Lat":22.982172}],"RouteId":180,"RouteName":"東區-14","RouteInfo":"東門路三段53號~中華東路二段25號","IsWork":true}]