[{"StopData":[{"StopId":5338,"StopName":"安中路一段29巷口","ScheduleTime":"15:02","EstimateTime":"","CarInfo":"","Lon":120.210917,"Lat":23.033374,"Turn":1,"DayValue":"一,二,四,六","RecycleDate":"二,六"},{"StopId":5339,"StopName":"安和路一段285巷口","ScheduleTime":"15:07","EstimateTime":"","CarInfo":"","Lon":120.212463,"Lat":23.032269,"Turn":2,"DayValue":"一,二,四,六","RecycleDate":"二,六"},{"StopId":5340,"StopName":"安和路一段215巷口","ScheduleTime":"15:10","EstimateTime":"","CarInfo":"","Lon":120.21274,"Lat":23.031137,"Turn":3,"DayValue":"一,二,四,六","RecycleDate":"二,六"},{"StopId":5341,"StopName":"安和路一段159巷口","ScheduleTime":"15:13","EstimateTime":"","CarInfo":"","Lon":120.213374,"Lat":23.029981,"Turn":4,"DayValue":"一,二,四,六","RecycleDate":"二,六"},{"StopId":5342,"StopName":"安和路一段91巷口","ScheduleTime":"15:17","EstimateTime":"","CarInfo":"","Lon":120.214548,"Lat":23.027973,"Turn":5,"DayValue":"一,二,四,六","RecycleDate":"二,六"},{"StopId":5343,"StopName":"安和路一段91巷15號","ScheduleTime":"15:23","EstimateTime":"","CarInfo":"","Lon":120.213937,"Lat":23.027722,"Turn":6,"DayValue":"一,二,四,六","RecycleDate":"二,六"},{"StopId":5344,"StopName":"安和路一段89號","ScheduleTime":"15:24","EstimateTime":"","CarInfo":"","Lon":120.214465,"Lat":23.027898,"Turn":7,"DayValue":"一,二,四,六","RecycleDate":"二,六"},{"StopId":5345,"StopName":"安和路一段15巷口","ScheduleTime":"15:28","EstimateTime":"","CarInfo":"","Lon":120.215145,"Lat":23.026106,"Turn":8,"DayValue":"一,二,四,六","RecycleDate":"二,六"},{"StopId":5346,"StopName":"府安路三段339巷口","ScheduleTime":"15:33","EstimateTime":"","CarInfo":"","Lon":120.217087,"Lat":23.027375,"Turn":9,"DayValue":"一,二,四,六","RecycleDate":"二,六"},{"StopId":5347,"StopName":"府安路三段311巷口","ScheduleTime":"15:34","EstimateTime":"","CarInfo":"","Lon":120.218086,"Lat":23.028383,"Turn":10,"DayValue":"一,二,四,六","RecycleDate":"二,六"},{"StopId":5348,"StopName":"府安路三段298巷口","ScheduleTime":"15:37","EstimateTime":"","CarInfo":"","Lon":120.218588,"Lat":23.029008,"Turn":11,"DayValue":"一,二,四,六","RecycleDate":"二,六"},{"StopId":5349,"StopName":"府安路三段276巷28弄口","ScheduleTime":"15:39","EstimateTime":"","CarInfo":"","Lon":120.218533,"Lat":23.031104,"Turn":12,"DayValue":"一,二,四,六","RecycleDate":"二,六"},{"StopId":5350,"StopName":"府安路三段289巷33弄口","ScheduleTime":"15:44","EstimateTime":"","CarInfo":"","Lon":120.21765,"Lat":23.029967,"Turn":13,"DayValue":"一,二,四,六","RecycleDate":"二,六"},{"StopId":5351,"StopName":"府安路三段289巷52弄口","ScheduleTime":"15:45","EstimateTime":"","CarInfo":"","Lon":120.217408,"Lat":23.030006,"Turn":14,"DayValue":"一,二,四,六","RecycleDate":"二,六"},{"StopId":5352,"StopName":"郡安路三段236巷21弄口","ScheduleTime":"15:47","EstimateTime":"","CarInfo":"","Lon":120.217141,"Lat":23.030051,"Turn":15,"DayValue":"一,二,四,六","RecycleDate":"二,六"},{"StopId":5353,"StopName":"郡安路三段236巷22弄口(空地大樹下)","ScheduleTime":"15:50","EstimateTime":"","CarInfo":"","Lon":120.216776,"Lat":23.029344,"Turn":16,"DayValue":"一,二,四,六","RecycleDate":"二,六"},{"StopId":5354,"StopName":"安通路四段47巷口","ScheduleTime":"15:57","EstimateTime":"","CarInfo":"","Lon":120.21121,"Lat":23.028957,"Turn":17,"DayValue":"一,二,四,六","RecycleDate":"二,六"},{"StopId":5355,"StopName":"安通路四段101巷口","ScheduleTime":"16:00","EstimateTime":"","CarInfo":"","Lon":120.207944,"Lat":23.029143,"Turn":18,"DayValue":"一,二,四,六","RecycleDate":"二,六"},{"StopId":5356,"StopName":"安通路四段109巷口","ScheduleTime":"16:02","EstimateTime":"","CarInfo":"","Lon":120.207483,"Lat":23.029175,"Turn":19,"DayValue":"一,二,四,六","RecycleDate":"二,六"},{"StopId":5357,"StopName":"安通路四段119巷口","ScheduleTime":"16:03","EstimateTime":"","CarInfo":"","Lon":120.207008,"Lat":23.029238,"Turn":20,"DayValue":"一,二,四,六","RecycleDate":"二,六"},{"StopId":5358,"StopName":"安通路四段119巷9弄口","ScheduleTime":"16:05","EstimateTime":"","CarInfo":"","Lon":120.206149,"Lat":23.02972,"Turn":21,"DayValue":"一,二,四,六","RecycleDate":"二,六"},{"StopId":5359,"StopName":"安通路四段119巷27弄口","ScheduleTime":"16:06","EstimateTime":"","CarInfo":"","Lon":120.206154,"Lat":23.03012,"Turn":22,"DayValue":"一,二,四,六","RecycleDate":"二,六"},{"StopId":5360,"StopName":"安西一街251號對面","ScheduleTime":"16:07","EstimateTime":"","CarInfo":"","Lon":120.206166,"Lat":23.030664,"Turn":23,"DayValue":"一,二,四,六","RecycleDate":"二,六"},{"StopId":5361,"StopName":"安通三街31號","ScheduleTime":"16:08","EstimateTime":"","CarInfo":"","Lon":120.20537,"Lat":23.03028,"Turn":24,"DayValue":"一,二,四,六","RecycleDate":"二,六"},{"StopId":5362,"StopName":"安西二街58號","ScheduleTime":"16:10","EstimateTime":"","CarInfo":"","Lon":120.207972,"Lat":23.032036,"Turn":25,"DayValue":"一,二,四,六","RecycleDate":"二,六"},{"StopId":5363,"StopName":"安通路四段119巷68號前","ScheduleTime":"16:13","EstimateTime":"","CarInfo":"","Lon":120.207331,"Lat":23.031052,"Turn":26,"DayValue":"一,二,四,六","RecycleDate":"二,六"},{"StopId":5364,"StopName":"安通路四段119巷45弄口","ScheduleTime":"16:15","EstimateTime":"","CarInfo":"","Lon":120.207083,"Lat":23.030462,"Turn":27,"DayValue":"一,二,四,六","RecycleDate":"二,六"},{"StopId":5365,"StopName":"安通路四段119巷23號","ScheduleTime":"16:16","EstimateTime":"","CarInfo":"","Lon":120.207029,"Lat":23.030095,"Turn":28,"DayValue":"一,二,四,六","RecycleDate":"二,六"},{"StopId":5366,"StopName":"安通路四段119巷7號","ScheduleTime":"16:19","EstimateTime":"","CarInfo":"","Lon":120.207027,"Lat":23.02968,"Turn":29,"DayValue":"一,二,四,六","RecycleDate":"二,六"},{"StopId":5367,"StopName":"北安路二段206號","ScheduleTime":"16:23","EstimateTime":"","CarInfo":"","Lon":120.204671,"Lat":23.030664,"Turn":30,"DayValue":"一,二,四,六","RecycleDate":"二,六"},{"StopId":5368,"StopName":"府安路四段34巷口","ScheduleTime":"17:47","EstimateTime":"","CarInfo":"","Lon":120.213543,"Lat":23.025386,"Turn":31,"DayValue":"一,二,四,六","RecycleDate":"二,六"},{"StopId":5369,"StopName":"府安路四段91巷10號","ScheduleTime":"17:52","EstimateTime":"","CarInfo":"","Lon":120.210813,"Lat":23.02535,"Turn":32,"DayValue":"一,二,四,六","RecycleDate":"二,六"},{"StopId":5370,"StopName":"府安路四段91巷18弄口","ScheduleTime":"17:56","EstimateTime":"","CarInfo":"","Lon":120.210798,"Lat":23.025605,"Turn":33,"DayValue":"一,二,四,六","RecycleDate":"二,六"},{"StopId":5371,"StopName":"府安路四段34巷18弄25號","ScheduleTime":"17:57","EstimateTime":"","CarInfo":"","Lon":120.21173,"Lat":23.025817,"Turn":34,"DayValue":"一,二,四,六","RecycleDate":"二,六"},{"StopId":5372,"StopName":"府安路四段34巷45弄口","ScheduleTime":"17:59","EstimateTime":"","CarInfo":"","Lon":120.212646,"Lat":23.026169,"Turn":35,"DayValue":"一,二,四,六","RecycleDate":"二,六"},{"StopId":5373,"StopName":"府安路四段34巷38號","ScheduleTime":"18:00","EstimateTime":"","CarInfo":"","Lon":120.213128,"Lat":23.026373,"Turn":36,"DayValue":"一,二,四,六","RecycleDate":"二,六"},{"StopId":5374,"StopName":"府安路四段24巷尾","ScheduleTime":"18:01","EstimateTime":"","CarInfo":"","Lon":120.213494,"Lat":23.026521,"Turn":37,"DayValue":"一,二,四,六","RecycleDate":"二,六"},{"StopId":5375,"StopName":"安和路一段15巷32弄尾","ScheduleTime":"18:03","EstimateTime":"","CarInfo":"","Lon":120.213703,"Lat":23.026641,"Turn":38,"DayValue":"一,二,四,六","RecycleDate":"二,六"},{"StopId":5376,"StopName":"安和路一段15巷20弄尾","ScheduleTime":"18:04","EstimateTime":"","CarInfo":"","Lon":120.214054,"Lat":23.026911,"Turn":39,"DayValue":"一,二,四,六","RecycleDate":"二,六"},{"StopId":5377,"StopName":"安和路一段18巷17弄尾","ScheduleTime":"18:09","EstimateTime":"","CarInfo":"","Lon":120.21428,"Lat":23.027119,"Turn":40,"DayValue":"一,二,四,六","RecycleDate":"二,六"},{"StopId":5378,"StopName":"安和路一段52巷21弄口","ScheduleTime":"18:12","EstimateTime":"","CarInfo":"","Lon":120.215647,"Lat":23.027217,"Turn":41,"DayValue":"一,二,四,六","RecycleDate":"二,六"},{"StopId":5379,"StopName":"安和路一段88號","ScheduleTime":"18:16","EstimateTime":"","CarInfo":"","Lon":120.214935,"Lat":23.027682,"Turn":42,"DayValue":"一,二,四,六","RecycleDate":"二,六"},{"StopId":5380,"StopName":"安和路一段96巷16號","ScheduleTime":"18:19","EstimateTime":"","CarInfo":"","Lon":120.215123,"Lat":23.028188,"Turn":43,"DayValue":"一,二,四,六","RecycleDate":"二,六"},{"StopId":5381,"StopName":"安和路一段96巷32弄口","ScheduleTime":"18:20","EstimateTime":"","CarInfo":"","Lon":120.215298,"Lat":23.028489,"Turn":44,"DayValue":"一,二,四,六","RecycleDate":"二,六"},{"StopId":5382,"StopName":"安和路一段96巷42弄口","ScheduleTime":"18:22","EstimateTime":"","CarInfo":"","Lon":120.215476,"Lat":23.028778,"Turn":45,"DayValue":"一,二,四,六","RecycleDate":"二,六"},{"StopId":5383,"StopName":"安和路一段96巷56號旁廟口","ScheduleTime":"18:23","EstimateTime":"","CarInfo":"","Lon":120.215682,"Lat":23.029124,"Turn":46,"DayValue":"一,二,四,六","RecycleDate":"二,六"},{"StopId":5384,"StopName":"安和路一段96巷73弄口","ScheduleTime":"18:28","EstimateTime":"","CarInfo":"","Lon":120.215909,"Lat":23.029324,"Turn":47,"DayValue":"一,二,四,六","RecycleDate":"二,六"},{"StopId":5385,"StopName":"安和路一段150巷口","ScheduleTime":"18:33","EstimateTime":"","CarInfo":"","Lon":120.214209,"Lat":23.028847,"Turn":48,"DayValue":"一,二,四,六","RecycleDate":"二,六"},{"StopId":5386,"StopName":"安和路一段373號","ScheduleTime":"18:40","EstimateTime":"","CarInfo":"","Lon":120.212795,"Lat":23.034345,"Turn":49,"DayValue":"一,二,四,六","RecycleDate":"二,六"},{"StopId":5387,"StopName":"安和路一段321巷口","ScheduleTime":"18:44","EstimateTime":"","CarInfo":"","Lon":120.212234,"Lat":23.033061,"Turn":50,"DayValue":"一,二,四,六","RecycleDate":"二,六"},{"StopId":5388,"StopName":"安和路一段285巷67號廟前","ScheduleTime":"18:47","EstimateTime":"","CarInfo":"","Lon":120.212468,"Lat":23.032247,"Turn":51,"DayValue":"一,二,四,六","RecycleDate":"二,六"},{"StopId":5389,"StopName":"安西一街41號","ScheduleTime":"18:50","EstimateTime":"","CarInfo":"","Lon":120.209819,"Lat":23.03136,"Turn":52,"DayValue":"一,二,四,六","RecycleDate":"二,六"},{"StopId":5390,"StopName":"安和路一段159巷136號","ScheduleTime":"18:52","EstimateTime":"","CarInfo":"","Lon":120.211316,"Lat":23.03148,"Turn":53,"DayValue":"一,二,四,六","RecycleDate":"二,六"},{"StopId":5391,"StopName":"安和路一段159巷92號","ScheduleTime":"18:54","EstimateTime":"","CarInfo":"","Lon":120.21141,"Lat":23.030741,"Turn":54,"DayValue":"一,二,四,六","RecycleDate":"二,六"},{"StopId":5392,"StopName":"安通路四段47巷23弄口","ScheduleTime":"19:00","EstimateTime":"","CarInfo":"","Lon":120.209895,"Lat":23.029814,"Turn":55,"DayValue":"一,二,四,六","RecycleDate":"二,六"},{"StopId":5393,"StopName":"安西路39巷70號","ScheduleTime":"19:04","EstimateTime":"","CarInfo":"","Lon":120.208582,"Lat":23.030004,"Turn":56,"DayValue":"一,二,四,六","RecycleDate":"二,六"},{"StopId":5394,"StopName":"安西路83巷口","ScheduleTime":"19:07","EstimateTime":"","CarInfo":"","Lon":120.207954,"Lat":23.03069,"Turn":57,"DayValue":"一,二,四,六","RecycleDate":"二,六"},{"StopId":5395,"StopName":"安通一街106號對面","ScheduleTime":"19:09","EstimateTime":"","CarInfo":"","Lon":120.207714,"Lat":23.031925,"Turn":58,"DayValue":"一,二,四,六","RecycleDate":"二,六"},{"StopId":5396,"StopName":"慈安路109巷口","ScheduleTime":"19:12","EstimateTime":"","CarInfo":"","Lon":120.206572,"Lat":23.03246,"Turn":59,"DayValue":"一,二,四,六","RecycleDate":"二,六"},{"StopId":5397,"StopName":"安通三街89號","ScheduleTime":"19:13","EstimateTime":"","CarInfo":"","Lon":120.20531,"Lat":23.032222,"Turn":60,"DayValue":"一,二,四,六","RecycleDate":"二,六"},{"StopId":5398,"StopName":"安通三街27號","ScheduleTime":"19:15","EstimateTime":"","CarInfo":"","Lon":120.205477,"Lat":23.030121,"Turn":61,"DayValue":"一,二,四,六","RecycleDate":"二,六"},{"StopId":5399,"StopName":"安和路一段123巷口","ScheduleTime":"19:22","EstimateTime":"","CarInfo":"","Lon":120.212797,"Lat":23.028005,"Turn":62,"DayValue":"一,二,四,六","RecycleDate":"二,六"},{"StopId":5400,"StopName":"敦安街52號","ScheduleTime":"19:24","EstimateTime":"","CarInfo":"","Lon":120.211936,"Lat":23.027434,"Turn":63,"DayValue":"一,二,四,六","RecycleDate":"二,六"},{"StopId":5401,"StopName":"敦安街88號","ScheduleTime":"19:26","EstimateTime":"","CarInfo":"","Lon":120.211171,"Lat":23.027427,"Turn":64,"DayValue":"一,二,四,六","RecycleDate":"二,六"},{"StopId":5402,"StopName":"敬安街11號(北安大地大樓)","ScheduleTime":"19:28","EstimateTime":"","CarInfo":"","Lon":120.211133,"Lat":23.027828,"Turn":65,"DayValue":"一,二,四,六","RecycleDate":"二,六"},{"StopId":5403,"StopName":"惠安街24巷17號(森林故鄉大樓)","ScheduleTime":"19:33","EstimateTime":"","CarInfo":"","Lon":120.2106,"Lat":23.027259,"Turn":66,"DayValue":"一,二,四,六","RecycleDate":"二,六"},{"StopId":5404,"StopName":"惠安街23巷口","ScheduleTime":"19:37","EstimateTime":"","CarInfo":"","Lon":120.2106,"Lat":23.026773,"Turn":67,"DayValue":"一,二,四,六","RecycleDate":"二,六"},{"StopId":5405,"StopName":"文安街108巷口","ScheduleTime":"19:38","EstimateTime":"","CarInfo":"","Lon":120.211927,"Lat":23.026624,"Turn":68,"DayValue":"一,二,四,六","RecycleDate":"二,六"},{"StopId":5406,"StopName":"文安街45巷口","ScheduleTime":"19:40","EstimateTime":"","CarInfo":"","Lon":120.213454,"Lat":23.027046,"Turn":69,"DayValue":"一,二,四,六","RecycleDate":"二,六"},{"StopId":5407,"StopName":"安和路一段47巷口","ScheduleTime":"19:44","EstimateTime":"","CarInfo":"","Lon":120.215045,"Lat":23.026861,"Turn":70,"DayValue":"一,二,四,六","RecycleDate":"二,六"}],"CarData":[{"CarNo":"497-UG","Angle":149,"Lon":120.213211,"Lat":23.028533}],"RouteId":131,"RouteName":"安南14線","RouteInfo":"安中路一段29巷口~安和路一段47巷口","IsWork":true}]