[{"StopData":[{"StopId":14984,"StopName":"西和路140號旁巷口","ScheduleTime":"14:40","EstimateTime":"","CarInfo":"","Lon":120.190037,"Lat":23.001218,"Turn":1,"DayValue":"一,二,四,六","RecycleDate":"一,四"},{"StopId":14985,"StopName":"和善街、永和街口","ScheduleTime":"14:44","EstimateTime":"","CarInfo":"","Lon":120.190899,"Lat":23.001112,"Turn":2,"DayValue":"一,二,四,六","RecycleDate":"一,四"},{"StopId":14986,"StopName":"協和街82號、和善街口","ScheduleTime":"14:47","EstimateTime":"","CarInfo":"","Lon":120.191486,"Lat":23.000502,"Turn":3,"DayValue":"一,二,四,六","RecycleDate":"一,四"},{"StopId":14987,"StopName":"臨安路一段121號旁巷口","ScheduleTime":"14:51","EstimateTime":"","CarInfo":"","Lon":120.191334,"Lat":22.999781,"Turn":4,"DayValue":"一,二,四,六","RecycleDate":"一,四"},{"StopId":14988,"StopName":"中和街36號","ScheduleTime":"14:55","EstimateTime":"","CarInfo":"","Lon":120.1905648,"Lat":23.0002564,"Turn":5,"DayValue":"一,二,四,六","RecycleDate":"一,四"},{"StopId":14989,"StopName":"中和街75號","ScheduleTime":"14:58","EstimateTime":"","CarInfo":"","Lon":120.191196,"Lat":23.000801,"Turn":6,"DayValue":"一,二,四,六","RecycleDate":"一,四"},{"StopId":14990,"StopName":"民族路三段295號","ScheduleTime":"15:02","EstimateTime":"","CarInfo":"","Lon":120.192161,"Lat":23.000211,"Turn":7,"DayValue":"一,二,四,六","RecycleDate":"一,四"},{"StopId":14991,"StopName":"民族路三段259號旁空地","ScheduleTime":"15:05","EstimateTime":"","CarInfo":"","Lon":120.1931284,"Lat":22.9998032,"Turn":8,"DayValue":"一,二,四,六","RecycleDate":"一,四"},{"StopId":14992,"StopName":"民族路三段225號","ScheduleTime":"15:08","EstimateTime":"","CarInfo":"","Lon":120.1938928,"Lat":22.9995269,"Turn":9,"DayValue":"一,二,四,六","RecycleDate":"一,四"},{"StopId":14993,"StopName":"金華路四段69號旁巷口","ScheduleTime":"15:12","EstimateTime":"","CarInfo":"","Lon":120.195014,"Lat":22.998927,"Turn":10,"DayValue":"一,二,四,六","RecycleDate":"一,四"},{"StopId":14994,"StopName":"金華路四段47巷口","ScheduleTime":"15:15","EstimateTime":"","CarInfo":"","Lon":120.1946959,"Lat":22.9982757,"Turn":11,"DayValue":"一,二,四,六","RecycleDate":"一,四"},{"StopId":14995,"StopName":"民權路三段246巷4號","ScheduleTime":"15:20","EstimateTime":"","CarInfo":"","Lon":120.199351,"Lat":22.996308,"Turn":12,"DayValue":"一,二,四,六","RecycleDate":"一,四"},{"StopId":14996,"StopName":"民權路三段與大新街22巷尾","ScheduleTime":"15:23","EstimateTime":"","CarInfo":"","Lon":120.192372,"Lat":22.998331,"Turn":13,"DayValue":"一,二,四,六","RecycleDate":"一,四"},{"StopId":14997,"StopName":"民權路三段320巷、大新街口","ScheduleTime":"15:26","EstimateTime":"","CarInfo":"","Lon":120.191611,"Lat":22.998067,"Turn":14,"DayValue":"一,二,四,六","RecycleDate":"一,四"},{"StopId":14998,"StopName":"民權路三段370號旁","ScheduleTime":"15:30","EstimateTime":"","CarInfo":"","Lon":120.189389,"Lat":22.998642,"Turn":15,"DayValue":"一,二,四,六","RecycleDate":"一,四"},{"StopId":14999,"StopName":"民權路三段418號公寓前","ScheduleTime":"15:33","EstimateTime":"","CarInfo":"","Lon":120.1886244,"Lat":22.9989764,"Turn":16,"DayValue":"一,二,四,六","RecycleDate":"一,四"},{"StopId":15000,"StopName":"西和路26號","ScheduleTime":"15:36","EstimateTime":"","CarInfo":"","Lon":120.188074,"Lat":22.999811,"Turn":17,"DayValue":"一,二,四,六","RecycleDate":"一,四"},{"StopId":15001,"StopName":"西和路98號、美麗街口","ScheduleTime":"15:39","EstimateTime":"","CarInfo":"","Lon":120.188882,"Lat":23.000403,"Turn":18,"DayValue":"一,二,四,六","RecycleDate":"一,四"},{"StopId":15002,"StopName":"和真街50巷62號(明華園)","ScheduleTime":"15:42","EstimateTime":"","CarInfo":"","Lon":120.189228,"Lat":23.000745,"Turn":19,"DayValue":"一,二,四,六","RecycleDate":"一,四"},{"StopId":15003,"StopName":"和真街、永和街口","ScheduleTime":"15:44","EstimateTime":"","CarInfo":"","Lon":120.189803,"Lat":23.000186,"Turn":20,"DayValue":"一,二,四,六","RecycleDate":"一,四"},{"StopId":15004,"StopName":"和真街7號旁","ScheduleTime":"15:47","EstimateTime":"","CarInfo":"","Lon":120.190589,"Lat":22.99931,"Turn":21,"DayValue":"一,二,四,六","RecycleDate":"一,四"},{"StopId":15005,"StopName":"臨安路一段63號","ScheduleTime":"15:51","EstimateTime":"","CarInfo":"","Lon":120.190195,"Lat":22.998924,"Turn":22,"DayValue":"一,二,四,六","RecycleDate":"一,四"},{"StopId":15006,"StopName":"臨安路一段大新街7巷口","ScheduleTime":"15:55","EstimateTime":"","CarInfo":"","Lon":120.190396,"Lat":22.998838,"Turn":23,"DayValue":"一,二,四,六","RecycleDate":"一,四"},{"StopId":15007,"StopName":"臨安路一段、大新街21巷口","ScheduleTime":"15:57","EstimateTime":"","CarInfo":"","Lon":120.190811,"Lat":22.99917,"Turn":24,"DayValue":"一,二,四,六","RecycleDate":"一,四"},{"StopId":15008,"StopName":"臨安路一段與大新街47巷口","ScheduleTime":"15:59","EstimateTime":"","CarInfo":"","Lon":120.1911803,"Lat":22.9995136,"Turn":25,"DayValue":"一,二,四,六","RecycleDate":"一,四"},{"StopId":15009,"StopName":"大新街71、72巷口","ScheduleTime":"16:02","EstimateTime":"","CarInfo":"","Lon":120.191224,"Lat":22.998802,"Turn":26,"DayValue":"一,二,四,六","RecycleDate":"一,四"},{"StopId":15010,"StopName":"大新街47、48巷口","ScheduleTime":"16:05","EstimateTime":"","CarInfo":"","Lon":120.191224,"Lat":22.998802,"Turn":27,"DayValue":"一,二,四,六","RecycleDate":"一,四"},{"StopId":15011,"StopName":"大新街21、22巷口","ScheduleTime":"16:08","EstimateTime":"","CarInfo":"","Lon":120.1918168,"Lat":22.9985502,"Turn":28,"DayValue":"一,二,四,六","RecycleDate":"一,四"},{"StopId":15012,"StopName":"大福街3巷口","ScheduleTime":"16:12","EstimateTime":"","CarInfo":"","Lon":120.1933436,"Lat":22.9983675,"Turn":29,"DayValue":"一,二,四,六","RecycleDate":"一,四"},{"StopId":15013,"StopName":"大福街24、27巷口","ScheduleTime":"16:15","EstimateTime":"","CarInfo":"","Lon":120.1935766,"Lat":22.9988592,"Turn":30,"DayValue":"一,二,四,六","RecycleDate":"一,四"},{"StopId":15014,"StopName":"金華路四段15號(協進國小旁)","ScheduleTime":"16:19","EstimateTime":"","CarInfo":"","Lon":120.1941165,"Lat":22.9967937,"Turn":31,"DayValue":"一,二,四,六","RecycleDate":"一,四"},{"StopId":15015,"StopName":"民生路二段228號(協進館前)","ScheduleTime":"16:23","EstimateTime":"","CarInfo":"","Lon":120.1928263,"Lat":22.9965734,"Turn":32,"DayValue":"一,二,四,六","RecycleDate":"一,四"},{"StopId":15016,"StopName":"民生路二段276號、西寧街口","ScheduleTime":"16:26","EstimateTime":"","CarInfo":"","Lon":120.192285,"Lat":22.997176,"Turn":33,"DayValue":"一,二,四,六","RecycleDate":"一,四"},{"StopId":15017,"StopName":"民生路二段306號","ScheduleTime":"16:29","EstimateTime":"","CarInfo":"","Lon":120.190769,"Lat":22.997172,"Turn":34,"DayValue":"一,二,四,六","RecycleDate":"一,四"},{"StopId":15018,"StopName":"民生路二段332號","ScheduleTime":"16:32","EstimateTime":"","CarInfo":"","Lon":120.1901386,"Lat":22.9973614,"Turn":35,"DayValue":"一,二,四,六","RecycleDate":"一,四"},{"StopId":15019,"StopName":"民生路二段400巷口","ScheduleTime":"16:35","EstimateTime":"","CarInfo":"","Lon":120.1884269,"Lat":22.9988894,"Turn":36,"DayValue":"一,二,四,六","RecycleDate":"一,四"},{"StopId":15020,"StopName":"民權路三段413巷口","ScheduleTime":"16:38","EstimateTime":"","CarInfo":"","Lon":120.1873867,"Lat":22.9989183,"Turn":37,"DayValue":"一,二,四,六","RecycleDate":"一,四"},{"StopId":15021,"StopName":"臨安路一段33巷口","ScheduleTime":"16:40","EstimateTime":"","CarInfo":"","Lon":120.1895448,"Lat":22.9982535,"Turn":38,"DayValue":"一,二,四,六","RecycleDate":"一,四"},{"StopId":15022,"StopName":"臨安路一段15巷口","ScheduleTime":"16:42","EstimateTime":"","CarInfo":"","Lon":120.1893485,"Lat":22.9979083,"Turn":39,"DayValue":"一,二,四,六","RecycleDate":"一,四"},{"StopId":15023,"StopName":"臨安路一段、西寧街口","ScheduleTime":"16:45","EstimateTime":"","CarInfo":"","Lon":120.1895001,"Lat":22.997771,"Turn":40,"DayValue":"一,二,四,六","RecycleDate":"一,四"},{"StopId":15024,"StopName":"臨安路一段、濟生街口","ScheduleTime":"16:47","EstimateTime":"","CarInfo":"","Lon":120.189652,"Lat":22.9980469,"Turn":41,"DayValue":"一,二,四,六","RecycleDate":"一,四"},{"StopId":15025,"StopName":"民權路三段347號旁","ScheduleTime":"16:49","EstimateTime":"","CarInfo":"","Lon":120.190372,"Lat":22.998283,"Turn":42,"DayValue":"一,二,四,六","RecycleDate":"一,四"},{"StopId":15026,"StopName":"民權路三段313號","ScheduleTime":"16:52","EstimateTime":"","CarInfo":"","Lon":120.191171,"Lat":22.998051,"Turn":43,"DayValue":"一,二,四,六","RecycleDate":"一,四"},{"StopId":15027,"StopName":"民權路4段240號","ScheduleTime":"16:55","EstimateTime":"","CarInfo":"","Lon":120.179625,"Lat":22.999138,"Turn":44,"DayValue":"一,二,四,六","RecycleDate":"一,四"},{"StopId":15028,"StopName":"西賢一街148巷31號","ScheduleTime":"16:57","EstimateTime":"","CarInfo":"","Lon":120.1787962,"Lat":23.0019895,"Turn":45,"DayValue":"一,二,四,六","RecycleDate":"一,四"},{"StopId":15029,"StopName":"西賢一街109巷尾","ScheduleTime":"17:00","EstimateTime":"","CarInfo":"","Lon":120.1764707,"Lat":23.0019975,"Turn":46,"DayValue":"一,二,四,六","RecycleDate":"一,四"},{"StopId":15030,"StopName":"西賢二街139號","ScheduleTime":"17:03","EstimateTime":"","CarInfo":"","Lon":120.1764553,"Lat":23.001356,"Turn":47,"DayValue":"一,二,四,六","RecycleDate":"一,四"},{"StopId":15031,"StopName":"西賢二街127巷口","ScheduleTime":"17:04","EstimateTime":"","CarInfo":"","Lon":120.1764923,"Lat":23.001071,"Turn":48,"DayValue":"一,二,四,六","RecycleDate":"一,四"},{"StopId":15032,"StopName":"西賢二街109巷口","ScheduleTime":"17:05","EstimateTime":"","CarInfo":"","Lon":120.1764727,"Lat":23.0006621,"Turn":49,"DayValue":"一,二,四,六","RecycleDate":"一,四"},{"StopId":15033,"StopName":"西賢二街99巷口","ScheduleTime":"17:06","EstimateTime":"","CarInfo":"","Lon":120.1764988,"Lat":23.0002725,"Turn":50,"DayValue":"一,二,四,六","RecycleDate":"一,四"},{"StopId":15034,"StopName":"西賢一街51巷2號","ScheduleTime":"17:08","EstimateTime":"","CarInfo":"","Lon":120.1775085,"Lat":23.0002801,"Turn":51,"DayValue":"一,二,四,六","RecycleDate":"一,四"},{"StopId":15035,"StopName":"西賢一街27巷26號","ScheduleTime":"17:09","EstimateTime":"","CarInfo":"","Lon":120.1771622,"Lat":22.9997351,"Turn":52,"DayValue":"一,二,四,六","RecycleDate":"一,四"},{"StopId":15036,"StopName":"華平路810號","ScheduleTime":"17:12","EstimateTime":"","CarInfo":"","Lon":120.1758493,"Lat":23.0004501,"Turn":53,"DayValue":"一,二,四,六","RecycleDate":"一,四"},{"StopId":15037,"StopName":"華平路850號","ScheduleTime":"17:13","EstimateTime":"","CarInfo":"","Lon":120.175739,"Lat":23.001183,"Turn":54,"DayValue":"一,二,四,六","RecycleDate":"一,四"},{"StopId":15038,"StopName":"民權路四段162號.湖美街口","ScheduleTime":"18:40","EstimateTime":"","CarInfo":"","Lon":120.1819044,"Lat":22.9992087,"Turn":55,"DayValue":"一,二,四,六","RecycleDate":"一,四"},{"StopId":15039,"StopName":"湖美二街14巷口","ScheduleTime":"18:42","EstimateTime":"","CarInfo":"","Lon":120.181891,"Lat":22.999642,"Turn":56,"DayValue":"一,二,四,六","RecycleDate":"一,四"},{"StopId":15040,"StopName":"湖美二街26巷口","ScheduleTime":"18:44","EstimateTime":"","CarInfo":"","Lon":120.1819564,"Lat":23.000188,"Turn":57,"DayValue":"一,二,四,六","RecycleDate":"一,四"},{"StopId":15041,"StopName":"湖美一街32巷1號","ScheduleTime":"18:46","EstimateTime":"","CarInfo":"","Lon":120.181286,"Lat":23.000502,"Turn":58,"DayValue":"一,二,四,六","RecycleDate":"一,四"},{"StopId":15042,"StopName":"湖美二街42巷口對面","ScheduleTime":"18:48","EstimateTime":"","CarInfo":"","Lon":120.1818213,"Lat":23.0011122,"Turn":59,"DayValue":"一,二,四,六","RecycleDate":"一,四"},{"StopId":15043,"StopName":"湖美一街62巷口","ScheduleTime":"18:50","EstimateTime":"","CarInfo":"","Lon":120.1808016,"Lat":23.0046597,"Turn":60,"DayValue":"一,二,四,六","RecycleDate":"一,四"},{"StopId":15044,"StopName":"湖美二街92巷口","ScheduleTime":"18:52","EstimateTime":"","CarInfo":"","Lon":120.1818924,"Lat":23.0021835,"Turn":61,"DayValue":"一,二,四,六","RecycleDate":"一,四"},{"StopId":15045,"StopName":"湖美二街100巷口","ScheduleTime":"18:54","EstimateTime":"","CarInfo":"","Lon":120.1818295,"Lat":23.0026505,"Turn":62,"DayValue":"一,二,四,六","RecycleDate":"一,四"},{"StopId":15046,"StopName":"湖美二街106巷2號","ScheduleTime":"18:56","EstimateTime":"","CarInfo":"","Lon":120.1820785,"Lat":23.0030339,"Turn":63,"DayValue":"一,二,四,六","RecycleDate":"一,四"},{"StopId":15047,"StopName":"湖美二街120巷口","ScheduleTime":"18:58","EstimateTime":"","CarInfo":"","Lon":120.1819355,"Lat":23.0036349,"Turn":64,"DayValue":"一,二,四,六","RecycleDate":"一,四"},{"StopId":15048,"StopName":"湖美二街、142巷口","ScheduleTime":"19:00","EstimateTime":"","CarInfo":"","Lon":120.1825742,"Lat":23.0036288,"Turn":65,"DayValue":"一,二,四,六","RecycleDate":"一,四"},{"StopId":15049,"StopName":"湖美一街和緯路口","ScheduleTime":"19:02","EstimateTime":"","CarInfo":"","Lon":120.181221,"Lat":23.0048592,"Turn":66,"DayValue":"一,二,四,六","RecycleDate":"一,四"},{"StopId":15050,"StopName":"湖美一街173巷口","ScheduleTime":"19:04","EstimateTime":"","CarInfo":"","Lon":120.1799352,"Lat":23.0025019,"Turn":67,"DayValue":"一,二,四,六","RecycleDate":"一,四"},{"StopId":15051,"StopName":"湖美一街121巷口","ScheduleTime":"19:07","EstimateTime":"","CarInfo":"","Lon":120.1811199,"Lat":23.0033206,"Turn":68,"DayValue":"一,二,四,六","RecycleDate":"一,四"},{"StopId":15052,"StopName":"湖美一街115巷口","ScheduleTime":"19:10","EstimateTime":"","CarInfo":"","Lon":120.1811556,"Lat":23.0028179,"Turn":69,"DayValue":"一,二,四,六","RecycleDate":"一,四"},{"StopId":15053,"StopName":"湖美一街109巷口","ScheduleTime":"19:13","EstimateTime":"","CarInfo":"","Lon":120.1811695,"Lat":23.0025504,"Turn":70,"DayValue":"一,二,四,六","RecycleDate":"一,四"},{"StopId":15054,"StopName":"湖美一街103巷與92巷口","ScheduleTime":"19:15","EstimateTime":"","CarInfo":"","Lon":120.1811878,"Lat":23.0021133,"Turn":71,"DayValue":"一,二,四,六","RecycleDate":"一,四"},{"StopId":15055,"StopName":"湖美一街49巷口","ScheduleTime":"19:18","EstimateTime":"","CarInfo":"","Lon":120.1811542,"Lat":23.0010851,"Turn":72,"DayValue":"一,二,四,六","RecycleDate":"一,四"},{"StopId":15056,"StopName":"湖美一街43巷口","ScheduleTime":"19:20","EstimateTime":"","CarInfo":"","Lon":120.1811699,"Lat":23.0007201,"Turn":73,"DayValue":"一,二,四,六","RecycleDate":"一,四"},{"StopId":15057,"StopName":"湖美一街33巷口","ScheduleTime":"19:23","EstimateTime":"","CarInfo":"","Lon":120.181239,"Lat":23.0001725,"Turn":74,"DayValue":"一,二,四,六","RecycleDate":"一,四"},{"StopId":15058,"StopName":"湖美一街27巷口","ScheduleTime":"19:25","EstimateTime":"","CarInfo":"","Lon":120.1812589,"Lat":22.9998517,"Turn":75,"DayValue":"一,二,四,六","RecycleDate":"一,四"},{"StopId":15059,"StopName":"湖美一街21巷口","ScheduleTime":"19:27","EstimateTime":"","CarInfo":"","Lon":120.1812733,"Lat":22.9995444,"Turn":76,"DayValue":"一,二,四,六","RecycleDate":"一,四"},{"StopId":15060,"StopName":"湖美一街、民權路四段路口","ScheduleTime":"19:30","EstimateTime":"","CarInfo":"","Lon":120.181328,"Lat":22.999162,"Turn":77,"DayValue":"一,二,四,六","RecycleDate":"一,四"},{"StopId":15061,"StopName":"湖美街12巷口","ScheduleTime":"19:33","EstimateTime":"","CarInfo":"","Lon":120.1802022,"Lat":22.999513,"Turn":78,"DayValue":"一,二,四,六","RecycleDate":"一,四"},{"StopId":15062,"StopName":"湖美街22巷口","ScheduleTime":"19:36","EstimateTime":"","CarInfo":"","Lon":120.1801863,"Lat":22.9999676,"Turn":79,"DayValue":"一,二,四,六","RecycleDate":"一,四"},{"StopId":15063,"StopName":"湖美街32巷口","ScheduleTime":"19:38","EstimateTime":"","CarInfo":"","Lon":120.1801311,"Lat":23.000398,"Turn":80,"DayValue":"一,二,四,六","RecycleDate":"一,四"},{"StopId":15064,"StopName":"湖美街46巷口","ScheduleTime":"19:40","EstimateTime":"","CarInfo":"","Lon":120.1801071,"Lat":23.0007944,"Turn":81,"DayValue":"一,二,四,六","RecycleDate":"一,四"},{"StopId":15065,"StopName":"湖美街60巷口","ScheduleTime":"19:43","EstimateTime":"","CarInfo":"","Lon":120.1801431,"Lat":23.0012349,"Turn":82,"DayValue":"一,二,四,六","RecycleDate":"一,四"},{"StopId":15066,"StopName":"湖美活動中心","ScheduleTime":"19:45","EstimateTime":"","CarInfo":"","Lon":120.181041,"Lat":23.001358,"Turn":83,"DayValue":"一,二,四,六","RecycleDate":"一,四"},{"StopId":15067,"StopName":"湖美街70巷6號","ScheduleTime":"19:47","EstimateTime":"","CarInfo":"","Lon":120.1802507,"Lat":23.0021018,"Turn":84,"DayValue":"一,二,四,六","RecycleDate":"一,四"},{"StopId":15068,"StopName":"湖美街82巷口","ScheduleTime":"19:53","EstimateTime":"","CarInfo":"","Lon":120.180426,"Lat":23.00254,"Turn":85,"DayValue":"一,二,四,六","RecycleDate":"一,四"},{"StopId":15069,"StopName":"湖美街104巷口","ScheduleTime":"19:56","EstimateTime":"","CarInfo":"","Lon":120.180577,"Lat":23.002964,"Turn":86,"DayValue":"一,二,四,六","RecycleDate":"一,四"},{"StopId":15070,"StopName":"湖美街106號（玉宇別墅）","ScheduleTime":"19:58","EstimateTime":"","CarInfo":"","Lon":120.1799916,"Lat":23.003498,"Turn":87,"DayValue":"一,二,四,六","RecycleDate":"一,四"},{"StopId":15071,"StopName":"湖美街108巷口","ScheduleTime":"20:02","EstimateTime":"","CarInfo":"","Lon":120.1800011,"Lat":23.0037328,"Turn":88,"DayValue":"一,二,四,六","RecycleDate":"一,四"},{"StopId":15072,"StopName":"湖美街263巷口","ScheduleTime":"20:06","EstimateTime":"","CarInfo":"","Lon":120.1799472,"Lat":23.004486,"Turn":89,"DayValue":"一,二,四,六","RecycleDate":"一,四"},{"StopId":15073,"StopName":"湖美街215巷口","ScheduleTime":"20:08","EstimateTime":"","CarInfo":"","Lon":120.178831,"Lat":23.00417,"Turn":90,"DayValue":"一,二,四,六","RecycleDate":"一,四"},{"StopId":15074,"StopName":"湖美街177巷口","ScheduleTime":"20:10","EstimateTime":"","CarInfo":"","Lon":120.1799193,"Lat":23.0029339,"Turn":91,"DayValue":"一,二,四,六","RecycleDate":"一,四"},{"StopId":15075,"StopName":"湖美街113巷口","ScheduleTime":"20:12","EstimateTime":"","CarInfo":"","Lon":120.1799811,"Lat":23.0021055,"Turn":92,"DayValue":"一,二,四,六","RecycleDate":"一,四"},{"StopId":15076,"StopName":"湖美街101巷口","ScheduleTime":"20:14","EstimateTime":"","CarInfo":"","Lon":120.1799957,"Lat":23.0016431,"Turn":93,"DayValue":"一,二,四,六","RecycleDate":"一,四"},{"StopId":15077,"StopName":"湖美街87巷口","ScheduleTime":"20:16","EstimateTime":"","CarInfo":"","Lon":120.1799809,"Lat":23.0012216,"Turn":94,"DayValue":"一,二,四,六","RecycleDate":"一,四"},{"StopId":15078,"StopName":"湖美街47巷口","ScheduleTime":"20:18","EstimateTime":"","CarInfo":"","Lon":120.1800102,"Lat":23.0003969,"Turn":95,"DayValue":"一,二,四,六","RecycleDate":"一,四"},{"StopId":15079,"StopName":"湖美街31巷口","ScheduleTime":"20:20","EstimateTime":"","CarInfo":"","Lon":120.1800381,"Lat":22.9999427,"Turn":96,"DayValue":"一,二,四,六","RecycleDate":"一,四"},{"StopId":15080,"StopName":"湖美街15巷9號旁","ScheduleTime":"20:22","EstimateTime":"","CarInfo":"","Lon":120.1800478,"Lat":22.9994954,"Turn":97,"DayValue":"一,二,四,六","RecycleDate":"一,四"},{"StopId":15081,"StopName":"西賢街、西賢一街56巷尾","ScheduleTime":"20:23","EstimateTime":"","CarInfo":"","Lon":120.178919,"Lat":23.0006241,"Turn":98,"DayValue":"一,二,四,六","RecycleDate":"一,四"},{"StopId":15082,"StopName":"西賢街73號旁","ScheduleTime":"20:24","EstimateTime":"","CarInfo":"","Lon":120.1788873,"Lat":23.0013205,"Turn":99,"DayValue":"一,二,四,六","RecycleDate":"一,四"},{"StopId":15083,"StopName":"西賢一街148巷31號對面","ScheduleTime":"20:26","EstimateTime":"","CarInfo":"","Lon":120.1787908,"Lat":23.0020562,"Turn":100,"DayValue":"一,二,四,六","RecycleDate":"一,四"},{"StopId":15084,"StopName":"西賢街182巷口","ScheduleTime":"20:27","EstimateTime":"","CarInfo":"","Lon":120.1788163,"Lat":23.0026069,"Turn":101,"DayValue":"一,二,四,六","RecycleDate":"一,四"},{"StopId":15085,"StopName":"西賢一街212巷口","ScheduleTime":"20:30","EstimateTime":"","CarInfo":"","Lon":120.1776804,"Lat":23.0032334,"Turn":102,"DayValue":"一,二,四,六","RecycleDate":"一,四"},{"StopId":15086,"StopName":"西賢街、西賢一街230巷尾","ScheduleTime":"20:32","EstimateTime":"","CarInfo":"","Lon":120.178828,"Lat":23.003785,"Turn":103,"DayValue":"一,二,四,六","RecycleDate":"一,四"},{"StopId":15087,"StopName":"西賢街、西賢一街258巷50號對面","ScheduleTime":"20:35","EstimateTime":"","CarInfo":"","Lon":120.1788516,"Lat":23.0045143,"Turn":104,"DayValue":"一,二,四,六","RecycleDate":"一,四"},{"StopId":15088,"StopName":"西賢一街187巷124號","ScheduleTime":"20:38","EstimateTime":"","CarInfo":"","Lon":120.176858,"Lat":23.004478,"Turn":105,"DayValue":"一,二,四,六","RecycleDate":"一,四"},{"StopId":15089,"StopName":"西賢一街187巷156號","ScheduleTime":"20:40","EstimateTime":"","CarInfo":"","Lon":120.1763096,"Lat":23.0038907,"Turn":106,"DayValue":"一,二,四,六","RecycleDate":"一,四"},{"StopId":15090,"StopName":"西賢一街187巷80號對面","ScheduleTime":"20:43","EstimateTime":"","CarInfo":"","Lon":120.1769786,"Lat":23.0038689,"Turn":107,"DayValue":"一,二,四,六","RecycleDate":"一,四"},{"StopId":15091,"StopName":"西賢一街187巷20號","ScheduleTime":"20:46","EstimateTime":"","CarInfo":"","Lon":120.1773687,"Lat":23.0038583,"Turn":108,"DayValue":"一,二,四,六","RecycleDate":"一,四"},{"StopId":15092,"StopName":"西賢一街157號","ScheduleTime":"20:48","EstimateTime":"","CarInfo":"","Lon":120.1775774,"Lat":23.0030445,"Turn":109,"DayValue":"一,二,四,六","RecycleDate":"一,四"},{"StopId":15093,"StopName":"西賢一街109巷旁(公園)","ScheduleTime":"20:50","EstimateTime":"","CarInfo":"","Lon":120.1774282,"Lat":23.0020271,"Turn":110,"DayValue":"一,二,四,六","RecycleDate":"一,四"},{"StopId":15094,"StopName":"西賢一街95巷口","ScheduleTime":"20:53","EstimateTime":"","CarInfo":"","Lon":120.1775999,"Lat":23.0016761,"Turn":111,"DayValue":"一,二,四,六","RecycleDate":"一,四"},{"StopId":15095,"StopName":"西賢一街85巷口","ScheduleTime":"20:55","EstimateTime":"","CarInfo":"","Lon":120.1776444,"Lat":23.0014407,"Turn":112,"DayValue":"一,二,四,六","RecycleDate":"一,四"},{"StopId":15096,"StopName":"西賢一街71巷口","ScheduleTime":"20:57","EstimateTime":"","CarInfo":"","Lon":120.1776519,"Lat":23.001107,"Turn":113,"DayValue":"一,二,四,六","RecycleDate":"一,四"},{"StopId":15097,"StopName":"西賢一街57巷","ScheduleTime":"20:59","EstimateTime":"","CarInfo":"","Lon":120.1776555,"Lat":23.0004946,"Turn":114,"DayValue":"一,二,四,六","RecycleDate":"一,四"},{"StopId":15098,"StopName":"西賢一街27巷","ScheduleTime":"21:02","EstimateTime":"","CarInfo":"","Lon":120.177686,"Lat":22.9997122,"Turn":115,"DayValue":"一,二,四,六","RecycleDate":"一,四"},{"StopId":15099,"StopName":"西賢一街182巷口","ScheduleTime":"21:05","EstimateTime":"","CarInfo":"","Lon":120.1788163,"Lat":23.0026069,"Turn":116,"DayValue":"一,二,四,六","RecycleDate":"一,四"},{"StopId":15100,"StopName":"西賢一街230巷口","ScheduleTime":"21:07","EstimateTime":"","CarInfo":"","Lon":120.178216,"Lat":23.003811,"Turn":117,"DayValue":"一,二,四,六","RecycleDate":"一,四"},{"StopId":15101,"StopName":"西賢一街260號","ScheduleTime":"21:10","EstimateTime":"","CarInfo":"","Lon":120.1776048,"Lat":23.0045712,"Turn":118,"DayValue":"一,二,四,六","RecycleDate":"一,四"},{"StopId":15102,"StopName":"和緯路五段287號","ScheduleTime":"21:12","EstimateTime":"","CarInfo":"","Lon":120.180067,"Lat":23.005147,"Turn":119,"DayValue":"一,二,四,六","RecycleDate":"一,四"}],"CarData":[],"RouteId":354,"RouteName":"西區-1","RouteInfo":"西和路140號旁巷口~和緯路五段287號","IsWork":true}]