[{"StopData":[{"StopId":12377,"StopName":"忠孝路園環","ScheduleTime":"07:00","EstimateTime":"","CarInfo":"","Lon":120.300564,"Lat":23.036898,"Turn":1,"DayValue":"一,二,三,四,五,六","RecycleDate":"一,二,三,四,五,六"},{"StopId":12378,"StopName":"潭頂路十字路口","ScheduleTime":"09:10","EstimateTime":"","CarInfo":"","Lon":120.34852,"Lat":23.06758,"Turn":2,"DayValue":"一,二,三,四,五,六","RecycleDate":"一,二,三,四,五,六"},{"StopId":12379,"StopName":"那拔里廟前(清水宮)","ScheduleTime":"09:40","EstimateTime":"","CarInfo":"","Lon":120.350688,"Lat":23.065455,"Turn":3,"DayValue":"一,二,三,四,五,六","RecycleDate":"一,二,三,四,五,六"},{"StopId":12380,"StopName":"大同街86號(公有零售市場)","ScheduleTime":"13:25","EstimateTime":"","CarInfo":"","Lon":120.307245,"Lat":23.034648,"Turn":4,"DayValue":"一,二,三,四,五,六","RecycleDate":"一,二,三,四,五,六"},{"StopId":12381,"StopName":"大智路309號(週一.週三.週六)","ScheduleTime":"13:50","EstimateTime":"","CarInfo":"","Lon":120.296865,"Lat":23.030719,"Turn":5,"DayValue":"一,二,三,四,五,六","RecycleDate":"一,二,三,四,五,六"},{"StopId":12382,"StopName":"中山路997號(週三)","ScheduleTime":"14:00","EstimateTime":"","CarInfo":"","Lon":120.288914,"Lat":23.033933,"Turn":6,"DayValue":"一,二,三,四,五,六","RecycleDate":"一,二,三,四,五,六"}],"CarData":[{"CarNo":"105-UT","Angle":72,"Lon":120.348434,"Lat":23.067491}],"RouteId":260,"RouteName":"新化-2輔助點","RouteInfo":"忠孝路園環~中山路997號(週三)","IsWork":true}]