[{"StopData":[{"StopId":6782,"StopName":"長榮路二段32巷175號前","ScheduleTime":"15:30","EstimateTime":"","CarInfo":"","Lon":120.2208961,"Lat":22.9884106,"Turn":1,"DayValue":"一,二,四,六","RecycleDate":"一,四"},{"StopId":6783,"StopName":"大同路一段175巷111號","ScheduleTime":"15:50","EstimateTime":"","CarInfo":"","Lon":120.2135668,"Lat":22.9834375,"Turn":2,"DayValue":"一,二,四,六","RecycleDate":"一,四"},{"StopId":6784,"StopName":"大同路一段175巷132弄口","ScheduleTime":"15:55","EstimateTime":"","CarInfo":"","Lon":120.2138079,"Lat":22.9830936,"Turn":3,"DayValue":"一,二,四,六","RecycleDate":"一,四"},{"StopId":6785,"StopName":"府東街272之1號","ScheduleTime":"16:03","EstimateTime":"","CarInfo":"","Lon":120.2120405,"Lat":22.987469,"Turn":4,"DayValue":"一,二,四,六","RecycleDate":"一,四"},{"StopId":6786,"StopName":"大同路一段45巷口","ScheduleTime":"16:07","EstimateTime":"","CarInfo":"","Lon":120.21137,"Lat":22.9880961,"Turn":5,"DayValue":"一,二,四,六","RecycleDate":"一,四"},{"StopId":6787,"StopName":"北門路一段284號公路局入口","ScheduleTime":"16:15","EstimateTime":"","CarInfo":"","Lon":120.21201,"Lat":22.995575,"Turn":6,"DayValue":"一,二,四,六","RecycleDate":"一,四"},{"StopId":6788,"StopName":"北門路2段18號","ScheduleTime":"16:21","EstimateTime":"","CarInfo":"","Lon":120.212233,"Lat":22.997773,"Turn":7,"DayValue":"一,二,四,六","RecycleDate":"一,四"},{"StopId":6789,"StopName":"育樂街57巷口","ScheduleTime":"16:28","EstimateTime":"","CarInfo":"","Lon":120.2163096,"Lat":22.9955124,"Turn":8,"DayValue":"一,二,四,六","RecycleDate":"一,四"},{"StopId":6790,"StopName":"育樂街58號（成大活動中心前）","ScheduleTime":"16:31","EstimateTime":"","CarInfo":"","Lon":120.2165692,"Lat":22.9955721,"Turn":9,"DayValue":"一,二,四,六","RecycleDate":"一,四"},{"StopId":6791,"StopName":"育樂街148巷17弄口","ScheduleTime":"16:37","EstimateTime":"","CarInfo":"","Lon":120.2141157,"Lat":22.995795,"Turn":10,"DayValue":"一,二,四,六","RecycleDate":"一,四"},{"StopId":6792,"StopName":"長榮路1段與光華街口","ScheduleTime":"16:46","EstimateTime":"","CarInfo":"","Lon":120.218216,"Lat":22.984859,"Turn":11,"DayValue":"一,二,四,六","RecycleDate":"一,四"},{"StopId":6793,"StopName":"光華街117號","ScheduleTime":"16:50","EstimateTime":"","CarInfo":"","Lon":120.2175231,"Lat":22.9850936,"Turn":12,"DayValue":"一,二,四,六","RecycleDate":"一,四"},{"StopId":6794,"StopName":"樹林街一段110號","ScheduleTime":"16:55","EstimateTime":"","CarInfo":"","Lon":120.2139105,"Lat":22.9864112,"Turn":13,"DayValue":"一,二,四,六","RecycleDate":"一,四"},{"StopId":6795,"StopName":"府連路234號（地下道上方轉角）","ScheduleTime":"17:00","EstimateTime":"","CarInfo":"","Lon":120.213676,"Lat":22.985196,"Turn":14,"DayValue":"一,二,四,六","RecycleDate":"一,四"},{"StopId":6796,"StopName":"府連路368號前（路口）","ScheduleTime":"17:05","EstimateTime":"","CarInfo":"","Lon":120.2166501,"Lat":22.9846096,"Turn":15,"DayValue":"一,二,四,六","RecycleDate":"一,四"},{"StopId":6797,"StopName":"大同路二段19巷口","ScheduleTime":"18:30","EstimateTime":"","CarInfo":"","Lon":120.2127908,"Lat":22.9805437,"Turn":16,"DayValue":"一,二,四,六","RecycleDate":"一,四"},{"StopId":6798,"StopName":"林森路一段62號前","ScheduleTime":"18:34","EstimateTime":"","CarInfo":"","Lon":120.2132469,"Lat":22.9811202,"Turn":17,"DayValue":"一,二,四,六","RecycleDate":"一,四"},{"StopId":6799,"StopName":"林森路一段136號","ScheduleTime":"18:38","EstimateTime":"","CarInfo":"","Lon":120.214247,"Lat":22.981449,"Turn":18,"DayValue":"一,二,四,六","RecycleDate":"一,四"},{"StopId":6800,"StopName":"大同路二段61巷115號路口","ScheduleTime":"18:42","EstimateTime":"","CarInfo":"","Lon":120.2139459,"Lat":22.9809673,"Turn":19,"DayValue":"一,二,四,六","RecycleDate":"一,四"},{"StopId":6801,"StopName":"大同路二段61巷146號","ScheduleTime":"18:46","EstimateTime":"","CarInfo":"","Lon":120.2141069,"Lat":22.9804295,"Turn":20,"DayValue":"一,二,四,六","RecycleDate":"一,四"},{"StopId":6802,"StopName":"大同路二段61巷136弄口","ScheduleTime":"18:50","EstimateTime":"","CarInfo":"","Lon":120.2141526,"Lat":22.9799496,"Turn":21,"DayValue":"一,二,四,六","RecycleDate":"一,四"},{"StopId":6803,"StopName":"大同路二段61巷23號之1巷口","ScheduleTime":"18:54","EstimateTime":"","CarInfo":"","Lon":120.2135941,"Lat":22.9795451,"Turn":22,"DayValue":"一,二,四,六","RecycleDate":"一,四"},{"StopId":6804,"StopName":"大同路二段61巷1弄路口","ScheduleTime":"18:58","EstimateTime":"","CarInfo":"","Lon":120.2130699,"Lat":22.9795762,"Turn":23,"DayValue":"一,二,四,六","RecycleDate":"一,四"},{"StopId":6805,"StopName":"東成街131巷12弄9號","ScheduleTime":"19:15","EstimateTime":"","CarInfo":"","Lon":120.2371892,"Lat":22.9807977,"Turn":24,"DayValue":"一,二,四,六","RecycleDate":"一,四"},{"StopId":6806,"StopName":"富農街一段232巷口","ScheduleTime":"19:21","EstimateTime":"","CarInfo":"","Lon":120.2349716,"Lat":22.9827696,"Turn":25,"DayValue":"一,二,四,六","RecycleDate":"一,四"},{"StopId":6807,"StopName":"富農街一段232巷23號","ScheduleTime":"19:24","EstimateTime":"","CarInfo":"","Lon":120.2357899,"Lat":22.9828455,"Turn":26,"DayValue":"一,二,四,六","RecycleDate":"一,四"},{"StopId":6808,"StopName":"富農街一段218巷底37弄口","ScheduleTime":"19:29","EstimateTime":"","CarInfo":"","Lon":120.2359744,"Lat":22.9825325,"Turn":27,"DayValue":"一,二,四,六","RecycleDate":"一,四"},{"StopId":6809,"StopName":"富農街一段300巷105號路口","ScheduleTime":"19:35","EstimateTime":"","CarInfo":"","Lon":120.2363831,"Lat":22.9831376,"Turn":28,"DayValue":"一,二,四,六","RecycleDate":"一,四"},{"StopId":6810,"StopName":"富農街一段188巷152號路口","ScheduleTime":"19:40","EstimateTime":"","CarInfo":"","Lon":120.236391,"Lat":22.981693,"Turn":29,"DayValue":"一,二,四,六","RecycleDate":"一,四"},{"StopId":6811,"StopName":"富農街一段188巷143號","ScheduleTime":"19:44","EstimateTime":"","CarInfo":"","Lon":120.236676,"Lat":22.981365,"Turn":30,"DayValue":"一,二,四,六","RecycleDate":"一,四"},{"StopId":6812,"StopName":"東成街201巷32號","ScheduleTime":"19:48","EstimateTime":"","CarInfo":"","Lon":120.23769,"Lat":22.981145,"Turn":31,"DayValue":"一,二,四,六","RecycleDate":"一,四"},{"StopId":6813,"StopName":"東成街219巷口","ScheduleTime":"19:51","EstimateTime":"","CarInfo":"","Lon":120.2383258,"Lat":22.9802974,"Turn":32,"DayValue":"一,二,四,六","RecycleDate":"一,四"},{"StopId":6814,"StopName":"富農街一段188巷114號","ScheduleTime":"19:54","EstimateTime":"","CarInfo":"","Lon":120.236135,"Lat":22.982337,"Turn":33,"DayValue":"一,二,四,六","RecycleDate":"一,四"},{"StopId":6815,"StopName":"長榮路三段66巷25號路口","ScheduleTime":"20:10","EstimateTime":"","CarInfo":"","Lon":120.2221854,"Lat":22.9936921,"Turn":34,"DayValue":"一,二,四,六","RecycleDate":"一,四"},{"StopId":6816,"StopName":"大學路18巷30號路口","ScheduleTime":"20:17","EstimateTime":"","CarInfo":"","Lon":120.221155,"Lat":22.9937669,"Turn":35,"DayValue":"一,二,四,六","RecycleDate":"一,四"},{"StopId":6817,"StopName":"大學路22巷14-1號十字路口","ScheduleTime":"20:24","EstimateTime":"","CarInfo":"","Lon":120.2213564,"Lat":22.995099,"Turn":36,"DayValue":"一,二,四,六","RecycleDate":"一,四"},{"StopId":6818,"StopName":"大學路12巷9號","ScheduleTime":"20:31","EstimateTime":"","CarInfo":"","Lon":120.220352,"Lat":22.995128,"Turn":37,"DayValue":"一,二,四,六","RecycleDate":"一,四"},{"StopId":6819,"StopName":"東寧路3巷口","ScheduleTime":"20:38","EstimateTime":"","CarInfo":"","Lon":120.2194569,"Lat":22.9922112,"Turn":38,"DayValue":"一,二,四,六","RecycleDate":"一,四"}],"CarData":[{"CarNo":"503-US","Angle":272,"Lon":120.217948,"Lat":22.985025}],"RouteId":164,"RouteName":"東區-01","RouteInfo":"長榮路二段32巷175號前~東寧路3巷口","IsWork":true}]