[{"StopData":[{"StopId":2692,"StopName":"永大路三段467號","ScheduleTime":"16:20","EstimateTime":"","CarInfo":"","Lon":120.258607,"Lat":23.038294,"Turn":1,"DayValue":"一,二,四,六","RecycleDate":"二,六"},{"StopId":2693,"StopName":"永大路二段1127號","ScheduleTime":"16:39","EstimateTime":"","CarInfo":"","Lon":120.260326,"Lat":23.027066,"Turn":2,"DayValue":"一,二,四,六","RecycleDate":"二,六"},{"StopId":2694,"StopName":"國光五街2號","ScheduleTime":"16:54","EstimateTime":"","CarInfo":"","Lon":120.260927,"Lat":23.005274,"Turn":3,"DayValue":"一,二,四,六","RecycleDate":"二,六"},{"StopId":2695,"StopName":"大灣路942巷319號","ScheduleTime":"17:04","EstimateTime":"","CarInfo":"","Lon":120.256807,"Lat":23.005491,"Turn":4,"DayValue":"一,二,四,六","RecycleDate":"二,六"},{"StopId":2696,"StopName":"大仁街60號","ScheduleTime":"17:18","EstimateTime":"","CarInfo":"","Lon":120.256918,"Lat":23.001983,"Turn":5,"DayValue":"一,二,四,六","RecycleDate":"二,六"},{"StopId":2697,"StopName":"國光五街73號","ScheduleTime":"17:24","EstimateTime":"","CarInfo":"","Lon":120.258495,"Lat":23.005953,"Turn":6,"DayValue":"一,二,四,六","RecycleDate":"二,六"},{"StopId":2698,"StopName":"永大路二段1號","ScheduleTime":"17:26","EstimateTime":"","CarInfo":"","Lon":120.259224,"Lat":23.000658,"Turn":7,"DayValue":"一,二,四,六","RecycleDate":"二,六"},{"StopId":2699,"StopName":"永大路一段1號","ScheduleTime":"17:35","EstimateTime":"","CarInfo":"","Lon":120.256381,"Lat":22.9939477,"Turn":8,"DayValue":"一,二,四,六","RecycleDate":"二,六"},{"StopId":2700,"StopName":"大灣東路289號","ScheduleTime":"17:40","EstimateTime":"","CarInfo":"","Lon":120.267629,"Lat":23.00058,"Turn":9,"DayValue":"一,二,四,六","RecycleDate":"二,六"},{"StopId":2701,"StopName":"永大路一段286號","ScheduleTime":"17:58","EstimateTime":"","CarInfo":"","Lon":120.258947,"Lat":22.999618,"Turn":10,"DayValue":"一,二,四,六","RecycleDate":"二,六"},{"StopId":2702,"StopName":"大灣路597號","ScheduleTime":"18:03","EstimateTime":"","CarInfo":"","Lon":120.2609974,"Lat":23.0004236,"Turn":11,"DayValue":"一,二,四,六","RecycleDate":"二,六"},{"StopId":2703,"StopName":"立興街55號","ScheduleTime":"18:50","EstimateTime":"","CarInfo":"","Lon":120.2642184,"Lat":23.0031446,"Turn":12,"DayValue":"一,二,四,六","RecycleDate":"二,六"},{"StopId":2704,"StopName":"南興路109號","ScheduleTime":"18:56","EstimateTime":"","CarInfo":"","Lon":120.2614704,"Lat":23.0001899,"Turn":13,"DayValue":"一,二,四,六","RecycleDate":"二,六"},{"StopId":2705,"StopName":"大灣路716號","ScheduleTime":"18:59","EstimateTime":"","CarInfo":"","Lon":120.2613082,"Lat":23.0007774,"Turn":14,"DayValue":"一,二,四,六","RecycleDate":"二,六"},{"StopId":2706,"StopName":"復興路12號","ScheduleTime":"18:59","EstimateTime":"","CarInfo":"","Lon":120.2500907,"Lat":22.9987618,"Turn":15,"DayValue":"一,二,四,六","RecycleDate":"二,六"},{"StopId":2707,"StopName":"大灣路1031號","ScheduleTime":"18:59","EstimateTime":"","CarInfo":"","Lon":120.2512187,"Lat":22.9983471,"Turn":16,"DayValue":"一,二,四,六","RecycleDate":"二,六"},{"StopId":2708,"StopName":"永大路二段988號","ScheduleTime":"19:25","EstimateTime":"","CarInfo":"","Lon":120.262866,"Lat":23.01731,"Turn":17,"DayValue":"一,二,四,六","RecycleDate":"二,六"},{"StopId":2709,"StopName":"永大路3段618巷72號","ScheduleTime":"19:45","EstimateTime":"","CarInfo":"","Lon":120.259844,"Lat":23.038503,"Turn":18,"DayValue":"一,二,四,六","RecycleDate":"二,六"}],"CarData":[],"RouteId":54,"RouteName":"永康-夜間02","RouteInfo":"永大路三段467號~永大路3段618巷72號","IsWork":true}]