[{"StopData":[{"StopId":11010,"StopName":"國平路599號(多摩新第+閱讀左岸)","ScheduleTime":"16:30","EstimateTime":"","CarInfo":"","Lon":120.171626,"Lat":22.996632,"Turn":1,"DayValue":"一,二,四,六","RecycleDate":"一,四"},{"StopId":11011,"StopName":"永華路與健康三街口","ScheduleTime":"16:33","EstimateTime":"","CarInfo":"","Lon":120.168887,"Lat":22.991201,"Turn":2,"DayValue":"一,二,四,六","RecycleDate":"一,四"},{"StopId":11012,"StopName":"健康三街225號（永華富邑）","ScheduleTime":"16:37","EstimateTime":"","CarInfo":"","Lon":120.168745,"Lat":22.990271,"Turn":3,"DayValue":"一,二,四,六","RecycleDate":"一,四"},{"StopId":11013,"StopName":"育平5街21號(蘇都社區)","ScheduleTime":"16:39","EstimateTime":"","CarInfo":"","Lon":120.169383,"Lat":22.990651,"Turn":4,"DayValue":"一,二,四,六","RecycleDate":"一,四"},{"StopId":11014,"StopName":"府平路144巷67號(台南新世界)","ScheduleTime":"16:41","EstimateTime":"","CarInfo":"","Lon":120.169157,"Lat":22.988696,"Turn":5,"DayValue":"一,二,四,六","RecycleDate":"一,四"},{"StopId":11015,"StopName":"郡平路188號（南國）","ScheduleTime":"16:47","EstimateTime":"","CarInfo":"","Lon":120.167498,"Lat":22.989296,"Turn":6,"DayValue":"一,二,四,六","RecycleDate":"一,四"},{"StopId":11016,"StopName":"育平四街30號(地中海大樓)","ScheduleTime":"16:53","EstimateTime":"","CarInfo":"","Lon":120.167913,"Lat":22.989757,"Turn":7,"DayValue":"一,二,四,六","RecycleDate":"一,四"},{"StopId":11017,"StopName":"漁光路300號(海巡署)","ScheduleTime":"17:05","EstimateTime":"","CarInfo":"","Lon":120.151351,"Lat":22.987323,"Turn":8,"DayValue":"一,二,四,六","RecycleDate":"一,四"},{"StopId":11018,"StopName":"漁光路148號","ScheduleTime":"17:08","EstimateTime":"","CarInfo":"","Lon":120.153869,"Lat":22.985151,"Turn":9,"DayValue":"一,二,四,六","RecycleDate":"一,四"},{"StopId":11019,"StopName":"漁光路128號之一","ScheduleTime":"17:10","EstimateTime":"","CarInfo":"","Lon":120.155993,"Lat":22.983227,"Turn":10,"DayValue":"一,二,四,六","RecycleDate":"一,四"},{"StopId":11020,"StopName":"漁光路124號","ScheduleTime":"17:12","EstimateTime":"","CarInfo":"","Lon":120.156321,"Lat":22.982101,"Turn":11,"DayValue":"一,二,四,六","RecycleDate":"一,四"},{"StopId":11021,"StopName":"平豐路210號(摩登家園)","ScheduleTime":"17:45","EstimateTime":"","CarInfo":"","Lon":120.164311,"Lat":22.989265,"Turn":12,"DayValue":"一,二,四,六","RecycleDate":"一,四"},{"StopId":11022,"StopName":"光州五街35號","ScheduleTime":"17:48","EstimateTime":"","CarInfo":"","Lon":120.161079,"Lat":22.988858,"Turn":13,"DayValue":"一,二,四,六","RecycleDate":"一,四"},{"StopId":11023,"StopName":"郡平路388號與454號之間（品富天廈）","ScheduleTime":"17:50","EstimateTime":"","CarInfo":"","Lon":120.161298,"Lat":22.98955,"Turn":14,"DayValue":"一,二,四,六","RecycleDate":"一,四"},{"StopId":11024,"StopName":"光州路138號邊","ScheduleTime":"17:54","EstimateTime":"","CarInfo":"","Lon":120.159554,"Lat":22.993202,"Turn":15,"DayValue":"一,二,四,六","RecycleDate":"一,四"},{"StopId":11025,"StopName":"慶平路705號（綠園大道）","ScheduleTime":"17:58","EstimateTime":"","CarInfo":"","Lon":120.166857,"Lat":22.997674,"Turn":16,"DayValue":"一,二,四,六","RecycleDate":"一,四"},{"StopId":11026,"StopName":"文平路461巷21弄(名門天下)","ScheduleTime":"18:02","EstimateTime":"","CarInfo":"","Lon":120.178207,"Lat":22.994157,"Turn":17,"DayValue":"一,二,四,六","RecycleDate":"一,四"},{"StopId":11027,"StopName":"永華六街34號(國泰華園)","ScheduleTime":"18:06","EstimateTime":"","CarInfo":"","Lon":120.176715,"Lat":22.992038,"Turn":18,"DayValue":"一,二,四,六","RecycleDate":"一,四"},{"StopId":11028,"StopName":"永華六街22巷五號(佳南名邸)","ScheduleTime":"18:10","EstimateTime":"","CarInfo":"","Lon":120.177687,"Lat":22.991401,"Turn":19,"DayValue":"一,二,四,六","RecycleDate":"一,四"},{"StopId":11029,"StopName":"建平六街114號(昊鼎門第)","ScheduleTime":"18:14","EstimateTime":"","CarInfo":"","Lon":120.182502,"Lat":22.987366,"Turn":20,"DayValue":"一,二,四,六","RecycleDate":"一,四"},{"StopId":11030,"StopName":"建平三街62巷14號（天賜良緣）","ScheduleTime":"18:18","EstimateTime":"","CarInfo":"","Lon":120.18241,"Lat":22.985807,"Turn":21,"DayValue":"一,二,四,六","RecycleDate":"一,四"},{"StopId":11031,"StopName":"建平三街9號","ScheduleTime":"18:20","EstimateTime":"","CarInfo":"","Lon":120.182801,"Lat":22.985061,"Turn":22,"DayValue":"一,二,四,六","RecycleDate":"一,四"},{"StopId":11032,"StopName":"建平三街14號","ScheduleTime":"18:22","EstimateTime":"","CarInfo":"","Lon":120.183504,"Lat":22.984986,"Turn":23,"DayValue":"一,二,四,六","RecycleDate":"一,四"},{"StopId":11033,"StopName":"建平二街42號","ScheduleTime":"18:24","EstimateTime":"","CarInfo":"","Lon":120.182991,"Lat":22.984646,"Turn":24,"DayValue":"一,二,四,六","RecycleDate":"一,四"},{"StopId":11034,"StopName":"建平路32號邊","ScheduleTime":"18:26","EstimateTime":"","CarInfo":"","Lon":120.181798,"Lat":22.984838,"Turn":25,"DayValue":"一,二,四,六","RecycleDate":"一,四"},{"StopId":11035,"StopName":"建平一街23巷52號","ScheduleTime":"18:28","EstimateTime":"","CarInfo":"","Lon":120.180642,"Lat":22.984781,"Turn":26,"DayValue":"一,二,四,六","RecycleDate":"一,四"},{"StopId":11036,"StopName":"建平一街23巷25弄（市政傳奇）","ScheduleTime":"18:30","EstimateTime":"","CarInfo":"","Lon":120.180884,"Lat":22.984384,"Turn":27,"DayValue":"一,二,四,六","RecycleDate":"一,四"},{"StopId":11037,"StopName":"健康一街16巷6號","ScheduleTime":"18:32","EstimateTime":"","CarInfo":"","Lon":120.180156,"Lat":22.983465,"Turn":28,"DayValue":"一,二,四,六","RecycleDate":"一,四"},{"StopId":11038,"StopName":"建平一街17號旁路口","ScheduleTime":"18:34","EstimateTime":"","CarInfo":"","Lon":120.180974,"Lat":22.983768,"Turn":29,"DayValue":"一,二,四,六","RecycleDate":"一,四"},{"StopId":11039,"StopName":"建平一街38號(臺邦新世紀)","ScheduleTime":"18:37","EstimateTime":"","CarInfo":"","Lon":120.180535,"Lat":22.983978,"Turn":30,"DayValue":"一,二,四,六","RecycleDate":"一,四"},{"StopId":11040,"StopName":"健康路三段180號（南紡健康城)","ScheduleTime":"18:40","EstimateTime":"","CarInfo":"","Lon":120.175862,"Lat":22.98348,"Turn":31,"DayValue":"一,二,四,六","RecycleDate":"一,四"},{"StopId":11041,"StopName":"華平路21巷32弄22號(華平特區公園社區)","ScheduleTime":"18:43","EstimateTime":"","CarInfo":"","Lon":120.173195,"Lat":22.985144,"Turn":32,"DayValue":"一,二,四,六","RecycleDate":"一,四"},{"StopId":11042,"StopName":"府平路364號(大隆新香港公寓)","ScheduleTime":"18:46","EstimateTime":"","CarInfo":"","Lon":120.167787,"Lat":22.987137,"Turn":33,"DayValue":"一,二,四,六","RecycleDate":"一,四"},{"StopId":11043,"StopName":"府平路144巷67號（台南新世界）","ScheduleTime":"18:50","EstimateTime":"","CarInfo":"","Lon":120.169153,"Lat":22.988669,"Turn":34,"DayValue":"一,二,四,六","RecycleDate":"一,四"},{"StopId":11044,"StopName":"育平五街21號(蘇都社區)","ScheduleTime":"18:52","EstimateTime":"","CarInfo":"","Lon":120.169403,"Lat":22.990648,"Turn":35,"DayValue":"一,二,四,六","RecycleDate":"一,四"},{"StopId":11045,"StopName":"健康三街225號（永華富邑）","ScheduleTime":"18:53","EstimateTime":"","CarInfo":"","Lon":120.168745,"Lat":22.990294,"Turn":36,"DayValue":"一,二,四,六","RecycleDate":"一,四"},{"StopId":11046,"StopName":"郡平路188號（南國）","ScheduleTime":"18:57","EstimateTime":"","CarInfo":"","Lon":120.167522,"Lat":22.989295,"Turn":37,"DayValue":"一,二,四,六","RecycleDate":"一,四"},{"StopId":11047,"StopName":"永華五街與平通路口","ScheduleTime":"19:15","EstimateTime":"","CarInfo":"","Lon":120.179824,"Lat":22.992626,"Turn":38,"DayValue":"一,二,四,六","RecycleDate":"一,四"},{"StopId":11048,"StopName":"怡平路140巷17弄3號","ScheduleTime":"19:19","EstimateTime":"","CarInfo":"","Lon":120.179255,"Lat":22.993675,"Turn":39,"DayValue":"一,二,四,六","RecycleDate":"一,四"},{"StopId":11049,"StopName":"建平十一街226號","ScheduleTime":"19:22","EstimateTime":"","CarInfo":"","Lon":120.179416,"Lat":22.994967,"Turn":40,"DayValue":"一,二,四,六","RecycleDate":"一,四"},{"StopId":11050,"StopName":"建平十二街95號","ScheduleTime":"19:24","EstimateTime":"","CarInfo":"","Lon":120.179599,"Lat":22.995328,"Turn":41,"DayValue":"一,二,四,六","RecycleDate":"一,四"},{"StopId":11051,"StopName":"建平十二街與永華三街口","ScheduleTime":"19:26","EstimateTime":"","CarInfo":"","Lon":120.182169,"Lat":22.995026,"Turn":42,"DayValue":"一,二,四,六","RecycleDate":"一,四"},{"StopId":11052,"StopName":"建平十二街70號","ScheduleTime":"19:27","EstimateTime":"","CarInfo":"","Lon":120.182864,"Lat":22.99495,"Turn":43,"DayValue":"一,二,四,六","RecycleDate":"一,四"},{"StopId":11053,"StopName":"建平十三街與永華三街口","ScheduleTime":"19:29","EstimateTime":"","CarInfo":"","Lon":120.182129,"Lat":22.995533,"Turn":44,"DayValue":"一,二,四,六","RecycleDate":"一,四"},{"StopId":11054,"StopName":"建平十四街與永華三街口","ScheduleTime":"19:31","EstimateTime":"","CarInfo":"","Lon":120.182186,"Lat":22.995999,"Turn":45,"DayValue":"一,二,四,六","RecycleDate":"一,四"},{"StopId":11055,"StopName":"建平十五街與永華三街口","ScheduleTime":"19:32","EstimateTime":"","CarInfo":"","Lon":120.182248,"Lat":22.996469,"Turn":46,"DayValue":"一,二,四,六","RecycleDate":"一,四"}],"CarData":[],"RouteId":334,"RouteName":"安平區-2(夜間)","RouteInfo":"國平路599號(多摩新第+閱讀左岸)~建平十五街與永華三街口","IsWork":true}]