[{"StopData":[{"StopId":15563,"StopName":"東門路二段239巷與裕農路16巷口","ScheduleTime":"16:22","EstimateTime":"","CarInfo":"","Lon":120.225562,"Lat":22.984453,"Turn":1,"DayValue":"一,二,四,六","RecycleDate":"一,四"},{"StopId":15564,"StopName":"裕農路16巷39號邊","ScheduleTime":"16:24","EstimateTime":"","CarInfo":"","Lon":120.2252981,"Lat":22.9846385,"Turn":2,"DayValue":"一,二,四,六","RecycleDate":"一,四"},{"StopId":15565,"StopName":"裕農路46巷口","ScheduleTime":"16:27","EstimateTime":"","CarInfo":"","Lon":120.2254467,"Lat":22.9851942,"Turn":3,"DayValue":"一,二,四,六","RecycleDate":"一,四"},{"StopId":15566,"StopName":"裕農路76號大樓","ScheduleTime":"16:30","EstimateTime":"","CarInfo":"","Lon":120.2261809,"Lat":22.9854634,"Turn":4,"DayValue":"一,二,四,六","RecycleDate":"一,四"},{"StopId":15567,"StopName":"裕豐街61巷3號轉角口","ScheduleTime":"16:33","EstimateTime":"","CarInfo":"","Lon":120.226711,"Lat":22.9850116,"Turn":5,"DayValue":"一,二,四,六","RecycleDate":"一,四"},{"StopId":15568,"StopName":"裕豐街84巷與112巷交叉口","ScheduleTime":"16:37","EstimateTime":"","CarInfo":"","Lon":120.227333,"Lat":22.9855044,"Turn":6,"DayValue":"一,二,四,六","RecycleDate":"一,四"},{"StopId":15569,"StopName":"裕豐街84巷53號邊","ScheduleTime":"16:41","EstimateTime":"","CarInfo":"","Lon":120.2274678,"Lat":22.9850271,"Turn":7,"DayValue":"一,二,四,六","RecycleDate":"一,四"},{"StopId":15570,"StopName":"裕豐街84巷26號","ScheduleTime":"16:44","EstimateTime":"","CarInfo":"","Lon":120.22795,"Lat":22.985084,"Turn":8,"DayValue":"一,二,四,六","RecycleDate":"一,四"},{"StopId":15571,"StopName":"東門路二段301巷43弄及裕豐街54巷交叉口","ScheduleTime":"16:48","EstimateTime":"","CarInfo":"","Lon":120.227577,"Lat":22.984396,"Turn":9,"DayValue":"一,二,四,六","RecycleDate":"一,四"},{"StopId":15572,"StopName":"東門路二段301巷33-39號大樓","ScheduleTime":"16:52","EstimateTime":"","CarInfo":"","Lon":120.2266092,"Lat":22.9834564,"Turn":10,"DayValue":"一,二,四,六","RecycleDate":"一,四"},{"StopId":15573,"StopName":"東門路二段301巷53弄口對面公園邊","ScheduleTime":"16:55","EstimateTime":"","CarInfo":"","Lon":120.2282024,"Lat":22.9839749,"Turn":11,"DayValue":"一,二,四,六","RecycleDate":"一,四"},{"StopId":15574,"StopName":"東門路二段301巷與裕農路288巷60弄口","ScheduleTime":"16:59","EstimateTime":"","CarInfo":"","Lon":120.228731,"Lat":22.9840921,"Turn":12,"DayValue":"一,二,四,六","RecycleDate":"一,四"},{"StopId":15575,"StopName":"裕農路288巷60弄45號邊","ScheduleTime":"17:03","EstimateTime":"","CarInfo":"","Lon":120.2286825,"Lat":22.9848943,"Turn":13,"DayValue":"一,二,四,六","RecycleDate":"一,四"},{"StopId":15576,"StopName":"東門路二段301巷與裕農路288巷70弄口","ScheduleTime":"17:07","EstimateTime":"","CarInfo":"","Lon":120.229084,"Lat":22.984051,"Turn":14,"DayValue":"一,二,四,六","RecycleDate":"一,四"},{"StopId":15577,"StopName":"東門路二段301巷120弄38號","ScheduleTime":"17:10","EstimateTime":"","CarInfo":"","Lon":120.2291366,"Lat":22.9838107,"Turn":15,"DayValue":"一,二,四,六","RecycleDate":"一,四"},{"StopId":15578,"StopName":"中華東路二段226巷27弄口(書香大樓)前","ScheduleTime":"17:13","EstimateTime":"","CarInfo":"","Lon":120.2302199,"Lat":22.9830933,"Turn":16,"DayValue":"一,二,四,六","RecycleDate":"一,四"},{"StopId":15579,"StopName":"裕豐街68巷口","ScheduleTime":"17:18","EstimateTime":"","CarInfo":"","Lon":120.2267664,"Lat":22.9846375,"Turn":17,"DayValue":"一,二,四,六","RecycleDate":"一,四"},{"StopId":15580,"StopName":"裕農路288巷口機車行","ScheduleTime":"17:23","EstimateTime":"","CarInfo":"","Lon":120.227413,"Lat":22.9860029,"Turn":18,"DayValue":"一,二,四,六","RecycleDate":"一,四"},{"StopId":15581,"StopName":"裕農路288巷26弄口","ScheduleTime":"17:25","EstimateTime":"","CarInfo":"","Lon":120.2281586,"Lat":22.9859733,"Turn":19,"DayValue":"一,二,四,六","RecycleDate":"一,四"},{"StopId":15582,"StopName":"裕農路288巷17號（金鑽大樓）","ScheduleTime":"17:29","EstimateTime":"","CarInfo":"","Lon":120.2288156,"Lat":22.9860131,"Turn":20,"DayValue":"一,二,四,六","RecycleDate":"一,四"},{"StopId":15583,"StopName":"裕農路320號","ScheduleTime":"17:33","EstimateTime":"","CarInfo":"","Lon":120.2291662,"Lat":22.9867876,"Turn":21,"DayValue":"一,二,四,六","RecycleDate":"一,四"},{"StopId":15584,"StopName":"裕農路350巷口","ScheduleTime":"17:36","EstimateTime":"","CarInfo":"","Lon":120.229601,"Lat":22.987004,"Turn":22,"DayValue":"一,二,四,六","RecycleDate":"一,四"},{"StopId":15585,"StopName":"裕農路288巷及350巷口","ScheduleTime":"17:39","EstimateTime":"","CarInfo":"","Lon":120.2300442,"Lat":22.9861276,"Turn":23,"DayValue":"一,二,四,六","RecycleDate":"一,四"},{"StopId":15586,"StopName":"中華東路二段96巷73號路口","ScheduleTime":"17:44","EstimateTime":"","CarInfo":"","Lon":120.2303392,"Lat":22.9850076,"Turn":24,"DayValue":"一,二,四,六","RecycleDate":"一,四"},{"StopId":15587,"StopName":"東門路二段301巷33-39號大樓前","ScheduleTime":"19:17","EstimateTime":"","CarInfo":"","Lon":120.2275372,"Lat":22.9838563,"Turn":25,"DayValue":"一,二,四,六","RecycleDate":"一,四"},{"StopId":15588,"StopName":"東門路二段301巷80弄尾接365巷32弄23號邊","ScheduleTime":"19:25","EstimateTime":"","CarInfo":"","Lon":120.2288502,"Lat":22.9837553,"Turn":26,"DayValue":"一,二,四,六","RecycleDate":"一,四"},{"StopId":15589,"StopName":"東門路二段365巷34弄口","ScheduleTime":"19:28","EstimateTime":"","CarInfo":"","Lon":120.2282405,"Lat":22.9835863,"Turn":27,"DayValue":"一,二,四,六","RecycleDate":"一,四"},{"StopId":15590,"StopName":"裕農路288巷96弄42號十字路口","ScheduleTime":"19:33","EstimateTime":"","CarInfo":"","Lon":120.2292759,"Lat":22.9849934,"Turn":28,"DayValue":"一,二,四,六","RecycleDate":"一,四"},{"StopId":15591,"StopName":"裕農路288巷196弄17號口","ScheduleTime":"19:36","EstimateTime":"","CarInfo":"","Lon":120.2294286,"Lat":22.9850877,"Turn":29,"DayValue":"一,二,四,六","RecycleDate":"一,四"},{"StopId":15592,"StopName":"東門路二段301巷115弄口","ScheduleTime":"19:39","EstimateTime":"","CarInfo":"","Lon":120.2298183,"Lat":22.9841079,"Turn":30,"DayValue":"一,二,四,六","RecycleDate":"一,四"},{"StopId":15593,"StopName":"東門路二段301巷149號對面","ScheduleTime":"19:43","EstimateTime":"","CarInfo":"","Lon":120.2300883,"Lat":22.9841269,"Turn":31,"DayValue":"一,二,四,六","RecycleDate":"一,四"},{"StopId":15594,"StopName":"中華東路二段226巷35號邊","ScheduleTime":"19:46","EstimateTime":"","CarInfo":"","Lon":120.230666,"Lat":22.983946,"Turn":32,"DayValue":"一,二,四,六","RecycleDate":"一,四"},{"StopId":15595,"StopName":"中華東路二段96巷23弄口","ScheduleTime":"19:49","EstimateTime":"","CarInfo":"","Lon":120.231671,"Lat":22.984659,"Turn":33,"DayValue":"一,二,四,六","RecycleDate":"一,四"},{"StopId":15596,"StopName":"中華東路二段96巷80弄口","ScheduleTime":"19:52","EstimateTime":"","CarInfo":"","Lon":120.2308526,"Lat":22.9850722,"Turn":34,"DayValue":"一,二,四,六","RecycleDate":"一,四"},{"StopId":15597,"StopName":"中華東路二段96巷關帝廳轉角口","ScheduleTime":"19:56","EstimateTime":"","CarInfo":"","Lon":120.2328368,"Lat":22.9853605,"Turn":35,"DayValue":"一,二,四,六","RecycleDate":"一,四"},{"StopId":15598,"StopName":"裕農路446巷90弄7號口","ScheduleTime":"20:00","EstimateTime":"","CarInfo":"","Lon":120.2315067,"Lat":22.9856454,"Turn":36,"DayValue":"一,二,四,六","RecycleDate":"一,四"},{"StopId":15599,"StopName":"裕農路446巷70弄31-3號十字路口","ScheduleTime":"20:03","EstimateTime":"","CarInfo":"","Lon":120.2308589,"Lat":22.9860943,"Turn":37,"DayValue":"一,二,四,六","RecycleDate":"一,四"},{"StopId":15600,"StopName":"裕農路446巷70弄口","ScheduleTime":"20:07","EstimateTime":"","CarInfo":"","Lon":120.2318929,"Lat":22.9861093,"Turn":38,"DayValue":"一,二,四,六","RecycleDate":"一,四"},{"StopId":15601,"StopName":"裕農路446巷52弄19號口","ScheduleTime":"20:11","EstimateTime":"","CarInfo":"","Lon":120.231023,"Lat":22.986412,"Turn":39,"DayValue":"一,二,四,六","RecycleDate":"一,四"},{"StopId":15602,"StopName":"中華東路二段48巷25弄口","ScheduleTime":"20:14","EstimateTime":"","CarInfo":"","Lon":120.232211,"Lat":22.985326,"Turn":40,"DayValue":"一,二,四,六","RecycleDate":"一,四"},{"StopId":15603,"StopName":"中華東路二段48巷17弄口","ScheduleTime":"20:15","EstimateTime":"","CarInfo":"","Lon":120.232525,"Lat":22.985364,"Turn":41,"DayValue":"一,二,四,六","RecycleDate":"一,四"},{"StopId":15604,"StopName":"中華東路二段48巷口(顯明殿)","ScheduleTime":"20:16","EstimateTime":"","CarInfo":"","Lon":120.2330225,"Lat":22.9866487,"Turn":42,"DayValue":"一,二,四,六","RecycleDate":"一,四"},{"StopId":15605,"StopName":"中華東路二段22巷9弄口","ScheduleTime":"20:19","EstimateTime":"","CarInfo":"","Lon":120.2328212,"Lat":22.9873613,"Turn":43,"DayValue":"一,二,四,六","RecycleDate":"一,四"},{"StopId":15606,"StopName":"裕農路446巷與中華東路二段22巷口","ScheduleTime":"20:23","EstimateTime":"","CarInfo":"","Lon":120.2318688,"Lat":22.987505,"Turn":44,"DayValue":"一,二,四,六","RecycleDate":"一,四"},{"StopId":15607,"StopName":"裕農路450號口","ScheduleTime":"20:27","EstimateTime":"","CarInfo":"","Lon":120.2322592,"Lat":22.988132,"Turn":45,"DayValue":"一,二,四,六","RecycleDate":"一,四"}],"CarData":[],"RouteId":168,"RouteName":"東區-03","RouteInfo":"東門路二段239巷與裕農路16巷口~裕農路450號口","IsWork":true}]