[{"StopData":[{"StopId":15361,"StopName":"新樂路1-25號","ScheduleTime":"16:50","EstimateTime":"","CarInfo":"","Lon":120.181523,"Lat":22.982044,"Turn":1,"DayValue":"一,二,四,六","RecycleDate":"二,六"},{"StopId":15362,"StopName":"健康路二段447號前","ScheduleTime":"16:53","EstimateTime":"","CarInfo":"","Lon":120.184723,"Lat":22.982215,"Turn":2,"DayValue":"一,二,四,六","RecycleDate":"二,六"},{"StopId":15363,"StopName":"中華西路一段466號","ScheduleTime":"16:58","EstimateTime":"","CarInfo":"","Lon":120.186656,"Lat":22.985927,"Turn":3,"DayValue":"一,二,四,六","RecycleDate":"二,六"},{"StopId":15364,"StopName":"永華路233巷口","ScheduleTime":"17:04","EstimateTime":"","CarInfo":"","Lon":120.19123,"Lat":22.988242,"Turn":4,"DayValue":"一,二,四,六","RecycleDate":"二,六"},{"StopId":15365,"StopName":"金華路二段385巷口","ScheduleTime":"17:07","EstimateTime":"","CarInfo":"","Lon":120.191867,"Lat":22.986502,"Turn":5,"DayValue":"一,二,四,六","RecycleDate":"二,六"},{"StopId":15366,"StopName":"金華路二段345巷口","ScheduleTime":"17:10","EstimateTime":"","CarInfo":"","Lon":120.191811,"Lat":22.985664,"Turn":6,"DayValue":"一,二,四,六","RecycleDate":"二,六"},{"StopId":15367,"StopName":"金華路二段221號","ScheduleTime":"17:16","EstimateTime":"","CarInfo":"","Lon":120.191569,"Lat":22.98271,"Turn":7,"DayValue":"一,二,四,六","RecycleDate":"二,六"},{"StopId":15368,"StopName":"健康路二段324號","ScheduleTime":"17:23","EstimateTime":"","CarInfo":"","Lon":120.188498,"Lat":22.981955,"Turn":8,"DayValue":"一,二,四,六","RecycleDate":"二,六"},{"StopId":15369,"StopName":"金華路二段21巷","ScheduleTime":"17:31","EstimateTime":"","CarInfo":"","Lon":120.19102,"Lat":22.976427,"Turn":9,"DayValue":"一,二,四,六","RecycleDate":"二,六"},{"StopId":15370,"StopName":"金華路二段3巷口","ScheduleTime":"17:36","EstimateTime":"","CarInfo":"","Lon":120.190934,"Lat":22.97553,"Turn":10,"DayValue":"一,二,四,六","RecycleDate":"二,六"},{"StopId":15371,"StopName":"新興路364號","ScheduleTime":"17:41","EstimateTime":"","CarInfo":"","Lon":120.18949,"Lat":22.975143,"Turn":11,"DayValue":"一,二,四,六","RecycleDate":"二,六"},{"StopId":15372,"StopName":"新興路398號前","ScheduleTime":"17:45","EstimateTime":"","CarInfo":"","Lon":120.188167,"Lat":22.974992,"Turn":12,"DayValue":"一,二,四,六","RecycleDate":"二,六"},{"StopId":15373,"StopName":"新興路489號","ScheduleTime":"17:50","EstimateTime":"","CarInfo":"","Lon":120.188447,"Lat":22.974984,"Turn":13,"DayValue":"一,二,四,六","RecycleDate":"二,六"},{"StopId":15374,"StopName":"尊南街與金華路二段3巷交叉口","ScheduleTime":"17:53","EstimateTime":"","CarInfo":"","Lon":120.188685,"Lat":22.975713,"Turn":14,"DayValue":"一,二,四,六","RecycleDate":"二,六"},{"StopId":15375,"StopName":"尊南街（金華市場停車場前）","ScheduleTime":"18:00","EstimateTime":"","CarInfo":"","Lon":120.188756,"Lat":22.977112,"Turn":15,"DayValue":"一,二,四,六","RecycleDate":"二,六"},{"StopId":15376,"StopName":"新孝路77號與79號中間","ScheduleTime":"20:00","EstimateTime":"","CarInfo":"","Lon":120.188123,"Lat":22.97785,"Turn":16,"DayValue":"一,二,四,六","RecycleDate":"二,六"},{"StopId":15377,"StopName":"金華路二段15巷89號前","ScheduleTime":"20:07","EstimateTime":"","CarInfo":"","Lon":120.187853,"Lat":22.976326,"Turn":17,"DayValue":"一,二,四,六","RecycleDate":"二,六"},{"StopId":15378,"StopName":"金華路一段429號","ScheduleTime":"20:15","EstimateTime":"","CarInfo":"","Lon":120.190471,"Lat":22.970804,"Turn":18,"DayValue":"一,二,四,六","RecycleDate":"二,六"},{"StopId":15379,"StopName":"金華路一段（觀音亭前）","ScheduleTime":"20:17","EstimateTime":"","CarInfo":"","Lon":120.190277,"Lat":22.970401,"Turn":19,"DayValue":"一,二,四,六","RecycleDate":"二,六"},{"StopId":15380,"StopName":"金華路一段與利南街口","ScheduleTime":"20:19","EstimateTime":"","CarInfo":"","Lon":120.190332,"Lat":22.969102,"Turn":20,"DayValue":"一,二,四,六","RecycleDate":"二,六"},{"StopId":15381,"StopName":"利南街81號對面","ScheduleTime":"20:22","EstimateTime":"","CarInfo":"","Lon":120.188493,"Lat":22.969929,"Turn":21,"DayValue":"一,二,四,六","RecycleDate":"二,六"},{"StopId":15382,"StopName":"利南街108號","ScheduleTime":"20:25","EstimateTime":"","CarInfo":"","Lon":120.188223,"Lat":22.971231,"Turn":22,"DayValue":"一,二,四,六","RecycleDate":"二,六"},{"StopId":15383,"StopName":"鹽埕路291巷31弄口","ScheduleTime":"20:27","EstimateTime":"","CarInfo":"","Lon":120.188737,"Lat":22.971463,"Turn":23,"DayValue":"一,二,四,六","RecycleDate":"二,六"},{"StopId":15384,"StopName":"文南路56號","ScheduleTime":"20:40","EstimateTime":"","CarInfo":"","Lon":120.189862,"Lat":22.983269,"Turn":24,"DayValue":"一,二,四,六","RecycleDate":"二,六"},{"StopId":15385,"StopName":"文南路292號","ScheduleTime":"20:48","EstimateTime":"","CarInfo":"","Lon":120.190112,"Lat":22.986646,"Turn":25,"DayValue":"一,二,四,六","RecycleDate":"二,六"},{"StopId":15386,"StopName":"文南路來電停車場邊","ScheduleTime":"20:54","EstimateTime":"","CarInfo":"","Lon":120.190009,"Lat":22.985389,"Turn":26,"DayValue":"一,二,四,六","RecycleDate":"二,六"},{"StopId":15387,"StopName":"文南路105巷口","ScheduleTime":"20:57","EstimateTime":"","CarInfo":"","Lon":120.189932,"Lat":22.984565,"Turn":27,"DayValue":"一,二,四,六","RecycleDate":"二,六"},{"StopId":15388,"StopName":"建南路191號","ScheduleTime":"21:01","EstimateTime":"","CarInfo":"","Lon":120.188879,"Lat":22.985049,"Turn":28,"DayValue":"一,二,四,六","RecycleDate":"二,六"},{"StopId":15389,"StopName":"建南路176號","ScheduleTime":"21:04","EstimateTime":"","CarInfo":"","Lon":120.188226,"Lat":22.985109,"Turn":29,"DayValue":"一,二,四,六","RecycleDate":"二,六"},{"StopId":15390,"StopName":"建南路210號","ScheduleTime":"21:06","EstimateTime":"","CarInfo":"","Lon":120.187319,"Lat":22.985171,"Turn":30,"DayValue":"一,二,四,六","RecycleDate":"二,六"},{"StopId":15391,"StopName":"建南路301號","ScheduleTime":"21:09","EstimateTime":"","CarInfo":"","Lon":120.185552,"Lat":22.985271,"Turn":31,"DayValue":"一,二,四,六","RecycleDate":"二,六"}],"CarData":[],"RouteId":205,"RouteName":"南區-16","RouteInfo":"新樂路1-25號~建南路301號","IsWork":true}]