[{"StopData":[{"StopId":7151,"StopName":"崇明11街與崇明路口","ScheduleTime":"16:19","EstimateTime":"","CarInfo":"","Lon":120.222127,"Lat":22.975375,"Turn":1,"DayValue":"一,二,四,六","RecycleDate":"一,四"},{"StopId":7152,"StopName":"崇明11街10巷22號前","ScheduleTime":"16:20","EstimateTime":"","CarInfo":"","Lon":120.2228916,"Lat":22.9753601,"Turn":2,"DayValue":"一,二,四,六","RecycleDate":"一,四"},{"StopId":7153,"StopName":"崇明12街26號前","ScheduleTime":"16:24","EstimateTime":"","CarInfo":"","Lon":120.2233102,"Lat":22.9752178,"Turn":3,"DayValue":"一,二,四,六","RecycleDate":"一,四"},{"StopId":7154,"StopName":"崇明12街62號前","ScheduleTime":"16:26","EstimateTime":"","CarInfo":"","Lon":120.2238939,"Lat":22.9757784,"Turn":4,"DayValue":"一,二,四,六","RecycleDate":"一,四"},{"StopId":7155,"StopName":"崇明11街31巷號前","ScheduleTime":"16:30","EstimateTime":"","CarInfo":"","Lon":120.2228614,"Lat":22.9760467,"Turn":5,"DayValue":"一,二,四,六","RecycleDate":"一,四"},{"StopId":7156,"StopName":"崇明11街3號前","ScheduleTime":"16:33","EstimateTime":"","CarInfo":"","Lon":120.2224822,"Lat":22.9756556,"Turn":6,"DayValue":"一,二,四,六","RecycleDate":"一,四"},{"StopId":7157,"StopName":"崇明10街70巷口(光寶眼鏡)","ScheduleTime":"16:35","EstimateTime":"","CarInfo":"","Lon":120.2219112,"Lat":22.9764133,"Turn":7,"DayValue":"一,二,四,六","RecycleDate":"一,四"},{"StopId":7158,"StopName":"榮譽街290巷7號(老地方停車場)前","ScheduleTime":"16:41","EstimateTime":"","CarInfo":"","Lon":120.2219133,"Lat":22.9772138,"Turn":8,"DayValue":"一,二,四,六","RecycleDate":"一,四"},{"StopId":7159,"StopName":"崇明9街108號前","ScheduleTime":"16:43","EstimateTime":"","CarInfo":"","Lon":120.2214741,"Lat":22.9767255,"Turn":9,"DayValue":"一,二,四,六","RecycleDate":"一,四"},{"StopId":7160,"StopName":"榮譽街及崇學路16巷口","ScheduleTime":"16:45","EstimateTime":"","CarInfo":"","Lon":120.221199,"Lat":22.977094,"Turn":10,"DayValue":"一,二,四,六","RecycleDate":"一,四"},{"StopId":7161,"StopName":"崇學路16巷口(文化大廈)","ScheduleTime":"16:47","EstimateTime":"","CarInfo":"","Lon":120.220566,"Lat":22.977791,"Turn":11,"DayValue":"一,二,四,六","RecycleDate":"一,四"},{"StopId":7162,"StopName":"崇學路56巷24號前","ScheduleTime":"16:49","EstimateTime":"","CarInfo":"","Lon":120.222331,"Lat":22.978128,"Turn":12,"DayValue":"一,二,四,六","RecycleDate":"一,四"},{"StopId":7163,"StopName":"崇學路56巷53號巷口","ScheduleTime":"16:54","EstimateTime":"","CarInfo":"","Lon":120.2233498,"Lat":22.9774779,"Turn":13,"DayValue":"一,二,四,六","RecycleDate":"一,四"},{"StopId":7164,"StopName":"崇德四街3巷1號前","ScheduleTime":"16:58","EstimateTime":"","CarInfo":"","Lon":120.224456,"Lat":22.976689,"Turn":14,"DayValue":"一,二,四,六","RecycleDate":"一,四"},{"StopId":7165,"StopName":"崇德四街5巷3號前","ScheduleTime":"17:00","EstimateTime":"","CarInfo":"","Lon":120.224473,"Lat":22.977247,"Turn":15,"DayValue":"一,二,四,六","RecycleDate":"一,四"},{"StopId":7166,"StopName":"崇德四街5巷38號前","ScheduleTime":"17:04","EstimateTime":"","CarInfo":"","Lon":120.2238514,"Lat":22.9775867,"Turn":16,"DayValue":"一,二,四,六","RecycleDate":"一,四"},{"StopId":7167,"StopName":"崇德路333巷23弄口","ScheduleTime":"17:06","EstimateTime":"","CarInfo":"","Lon":120.2236385,"Lat":22.9776777,"Turn":17,"DayValue":"一,二,四,六","RecycleDate":"一,四"},{"StopId":7168,"StopName":"崇德路333巷23弄38號前","ScheduleTime":"17:08","EstimateTime":"","CarInfo":"","Lon":120.2231539,"Lat":22.97815,"Turn":18,"DayValue":"一,二,四,六","RecycleDate":"一,四"},{"StopId":7169,"StopName":"崇學路96巷8弄口","ScheduleTime":"17:10","EstimateTime":"","CarInfo":"","Lon":120.2230377,"Lat":22.9788235,"Turn":19,"DayValue":"一,二,四,六","RecycleDate":"一,四"},{"StopId":7170,"StopName":"崇德四街7巷47號前","ScheduleTime":"17:12","EstimateTime":"","CarInfo":"","Lon":120.224403,"Lat":22.977877,"Turn":20,"DayValue":"一,二,四,六","RecycleDate":"一,四"},{"StopId":7171,"StopName":"崇德四街7巷9號前","ScheduleTime":"17:14","EstimateTime":"","CarInfo":"","Lon":120.225003,"Lat":22.977441,"Turn":21,"DayValue":"一,二,四,六","RecycleDate":"一,四"},{"StopId":7172,"StopName":"崇德四街37號(托兒所)前","ScheduleTime":"17:17","EstimateTime":"","CarInfo":"","Lon":120.225748,"Lat":22.9781024,"Turn":22,"DayValue":"一,二,四,六","RecycleDate":"一,四"},{"StopId":7173,"StopName":"崇善路182巷3弄口","ScheduleTime":"17:20","EstimateTime":"","CarInfo":"","Lon":120.225075,"Lat":22.9785452,"Turn":23,"DayValue":"一,二,四,六","RecycleDate":"一,四"},{"StopId":7174,"StopName":"中華東路三段170號中油西站","ScheduleTime":"18:49","EstimateTime":"","CarInfo":"","Lon":120.226142,"Lat":22.977704,"Turn":24,"DayValue":"一,二,四,六","RecycleDate":"一,四"},{"StopId":7175,"StopName":"崇德四街7巷口","ScheduleTime":"18:50","EstimateTime":"","CarInfo":"","Lon":120.2252465,"Lat":22.9773246,"Turn":25,"DayValue":"一,二,四,六","RecycleDate":"一,四"},{"StopId":7176,"StopName":"崇德四街5巷38號前","ScheduleTime":"18:53","EstimateTime":"","CarInfo":"","Lon":120.2239265,"Lat":22.977725,"Turn":26,"DayValue":"一,二,四,六","RecycleDate":"一,四"},{"StopId":7177,"StopName":"崇德路333巷23弄口","ScheduleTime":"18:55","EstimateTime":"","CarInfo":"","Lon":120.2236492,"Lat":22.9778555,"Turn":27,"DayValue":"一,二,四,六","RecycleDate":"一,四"},{"StopId":7178,"StopName":"崇德路與崇德4街口","ScheduleTime":"18:57","EstimateTime":"","CarInfo":"","Lon":120.224287,"Lat":22.976245,"Turn":28,"DayValue":"一,二,四,六","RecycleDate":"一,四"},{"StopId":7179,"StopName":"崇德路333巷口","ScheduleTime":"18:59","EstimateTime":"","CarInfo":"","Lon":120.2231189,"Lat":22.9770766,"Turn":29,"DayValue":"一,二,四,六","RecycleDate":"一,四"},{"StopId":7180,"StopName":"崇德路288號對面","ScheduleTime":"19:04","EstimateTime":"","CarInfo":"","Lon":120.2225713,"Lat":22.9774297,"Turn":30,"DayValue":"一,二,四,六","RecycleDate":"一,四"},{"StopId":7181,"StopName":"崇學路96巷口","ScheduleTime":"19:09","EstimateTime":"","CarInfo":"","Lon":120.2226866,"Lat":22.9790253,"Turn":31,"DayValue":"一,二,四,六","RecycleDate":"一,四"},{"StopId":7182,"StopName":"崇學路188巷17號前","ScheduleTime":"19:12","EstimateTime":"","CarInfo":"","Lon":120.225669,"Lat":22.9816866,"Turn":32,"DayValue":"一,二,四,六","RecycleDate":"一,四"},{"StopId":7183,"StopName":"崇學路188巷48號前與142巷口","ScheduleTime":"19:18","EstimateTime":"","CarInfo":"","Lon":120.2249398,"Lat":22.9807287,"Turn":33,"DayValue":"一,二,四,六","RecycleDate":"一,四"},{"StopId":7184,"StopName":"崇學路142巷10弄18號前","ScheduleTime":"19:20","EstimateTime":"","CarInfo":"","Lon":120.2246038,"Lat":22.9802727,"Turn":34,"DayValue":"一,二,四,六","RecycleDate":"一,四"},{"StopId":7185,"StopName":"崇善路205巷3號(建台公司)前","ScheduleTime":"19:22","EstimateTime":"","CarInfo":"","Lon":120.2249241,"Lat":22.9799358,"Turn":35,"DayValue":"一,二,四,六","RecycleDate":"一,四"},{"StopId":7186,"StopName":"崇學路230巷108號前","ScheduleTime":"19:26","EstimateTime":"","CarInfo":"","Lon":120.2257535,"Lat":22.9802125,"Turn":36,"DayValue":"一,二,四,六","RecycleDate":"一,四"},{"StopId":7187,"StopName":"崇善路231巷12號前","ScheduleTime":"19:30","EstimateTime":"","CarInfo":"","Lon":120.2257109,"Lat":22.9793531,"Turn":37,"DayValue":"一,二,四,六","RecycleDate":"一,四"},{"StopId":7188,"StopName":"崇善一街5號(計程車工會)前","ScheduleTime":"19:34","EstimateTime":"","CarInfo":"","Lon":120.2266027,"Lat":22.9789211,"Turn":38,"DayValue":"一,二,四,六","RecycleDate":"一,四"},{"StopId":7189,"StopName":"崇善一街43巷4號前","ScheduleTime":"19:37","EstimateTime":"","CarInfo":"","Lon":120.2268985,"Lat":22.979421,"Turn":39,"DayValue":"一,二,四,六","RecycleDate":"一,四"},{"StopId":7190,"StopName":"崇善一街43巷32號前","ScheduleTime":"19:40","EstimateTime":"","CarInfo":"","Lon":120.226694,"Lat":22.979855,"Turn":40,"DayValue":"一,二,四,六","RecycleDate":"一,四"},{"StopId":7191,"StopName":"崇學路230巷60號前","ScheduleTime":"19:42","EstimateTime":"","CarInfo":"","Lon":120.2260018,"Lat":22.9808472,"Turn":41,"DayValue":"一,二,四,六","RecycleDate":"一,四"},{"StopId":7192,"StopName":"崇信街50巷8號前","ScheduleTime":"19:44","EstimateTime":"","CarInfo":"","Lon":120.2262154,"Lat":22.9817586,"Turn":42,"DayValue":"一,二,四,六","RecycleDate":"一,四"},{"StopId":7193,"StopName":"崇學路212號前","ScheduleTime":"19:48","EstimateTime":"","CarInfo":"","Lon":120.2257252,"Lat":22.9823648,"Turn":43,"DayValue":"一,二,四,六","RecycleDate":"一,四"},{"StopId":7194,"StopName":"崇信街51號前","ScheduleTime":"19:53","EstimateTime":"","CarInfo":"","Lon":120.226767,"Lat":22.981595,"Turn":44,"DayValue":"一,二,四,六","RecycleDate":"一,四"},{"StopId":7195,"StopName":"崇信街87號前","ScheduleTime":"19:56","EstimateTime":"","CarInfo":"","Lon":120.2270849,"Lat":22.9806149,"Turn":45,"DayValue":"一,二,四,六","RecycleDate":"一,四"},{"StopId":7196,"StopName":"崇信街134號前","ScheduleTime":"19:58","EstimateTime":"","CarInfo":"","Lon":120.2272362,"Lat":22.9800112,"Turn":46,"DayValue":"一,二,四,六","RecycleDate":"一,四"},{"StopId":7197,"StopName":"崇善一街116號前","ScheduleTime":"19:59","EstimateTime":"","CarInfo":"","Lon":120.2274871,"Lat":22.9807545,"Turn":47,"DayValue":"一,二,四,六","RecycleDate":"一,四"},{"StopId":7198,"StopName":"崇善一街149號前","ScheduleTime":"20:01","EstimateTime":"","CarInfo":"","Lon":120.2273461,"Lat":22.9811643,"Turn":48,"DayValue":"一,二,四,六","RecycleDate":"一,四"},{"StopId":7199,"StopName":"東門路二段390巷19號","ScheduleTime":"20:03","EstimateTime":"","CarInfo":"","Lon":120.2274577,"Lat":22.9818999,"Turn":49,"DayValue":"一,二,四,六","RecycleDate":"一,四"},{"StopId":7200,"StopName":"崇信街8號對面","ScheduleTime":"20:06","EstimateTime":"","CarInfo":"","Lon":120.2264383,"Lat":22.9826487,"Turn":50,"DayValue":"一,二,四,六","RecycleDate":"一,四"},{"StopId":7201,"StopName":"東門路二段390巷口","ScheduleTime":"20:12","EstimateTime":"","CarInfo":"","Lon":120.2277767,"Lat":22.9821981,"Turn":51,"DayValue":"一,二,四,六","RecycleDate":"一,四"},{"StopId":7202,"StopName":"東門路二段436號(慈惠堂)前","ScheduleTime":"20:14","EstimateTime":"","CarInfo":"","Lon":120.2285381,"Lat":22.9816642,"Turn":52,"DayValue":"一,二,四,六","RecycleDate":"一,四"}],"CarData":[],"RouteId":176,"RouteName":"東區-10","RouteInfo":"崇明11街與崇明路口~東門路二段436號(慈惠堂)前","IsWork":true}]