[{"StopData":[{"StopId":5858,"StopName":"城西街三段431號(城西里活動中心)","ScheduleTime":"14:30","EstimateTime":"","CarInfo":"","Lon":120.095614,"Lat":23.057009,"Turn":1,"DayValue":"一,二,四,六","RecycleDate":"一,四"},{"StopId":5859,"StopName":"海環街281巷21號至311號至安通路6段","ScheduleTime":"14:43","EstimateTime":"","CarInfo":"","Lon":120.181449,"Lat":23.036448,"Turn":2,"DayValue":"一,二,四,六","RecycleDate":"一,四"},{"StopId":5860,"StopName":"安通路五段230巷160號至110之1號","ScheduleTime":"15:20","EstimateTime":"","CarInfo":"","Lon":120.19793,"Lat":23.03202,"Turn":3,"DayValue":"一,二,四,六","RecycleDate":"一,四"},{"StopId":5861,"StopName":"四草大道1179號","ScheduleTime":"15:25","EstimateTime":"","CarInfo":"","Lon":120.132329,"Lat":23.021415,"Turn":4,"DayValue":"一,二,四,六","RecycleDate":"一,四"},{"StopId":5862,"StopName":"大眾1街3號","ScheduleTime":"15:28","EstimateTime":"","CarInfo":"","Lon":120.130996,"Lat":23.018015,"Turn":5,"DayValue":"一,二,四,六","RecycleDate":"一,四"},{"StopId":5863,"StopName":"大眾六街126巷49號","ScheduleTime":"15:32","EstimateTime":"","CarInfo":"","Lon":120.127706,"Lat":23.019274,"Turn":6,"DayValue":"一,二,四,六","RecycleDate":"一,四"},{"StopId":5864,"StopName":"大眾六街148巷11號","ScheduleTime":"15:36","EstimateTime":"","CarInfo":"","Lon":120.126512,"Lat":23.019359,"Turn":7,"DayValue":"一,二,四,六","RecycleDate":"一,四"},{"StopId":5865,"StopName":"大眾六街6號至222號","ScheduleTime":"15:43","EstimateTime":"","CarInfo":"","Lon":120.128133,"Lat":23.017005,"Turn":8,"DayValue":"一,二,四,六","RecycleDate":"一,四"},{"StopId":5866,"StopName":"大眾6街181巷口至大眾路656號活動中心","ScheduleTime":"15:47","EstimateTime":"","CarInfo":"","Lon":120.124761,"Lat":23.020038,"Turn":9,"DayValue":"一,二,四,六","RecycleDate":"一,四"},{"StopId":5867,"StopName":"大眾路634巷750號","ScheduleTime":"15:52","EstimateTime":"","CarInfo":"","Lon":120.128436,"Lat":23.017251,"Turn":10,"DayValue":"一,二,四,六","RecycleDate":"一,四"},{"StopId":5868,"StopName":"北汕尾1路89號","ScheduleTime":"15:56","EstimateTime":"","CarInfo":"","Lon":120.128897,"Lat":23.013532,"Turn":11,"DayValue":"一,二,四,六","RecycleDate":"一,四"},{"StopId":5869,"StopName":"北汕尾1路96巷59號","ScheduleTime":"16:02","EstimateTime":"","CarInfo":"","Lon":120.130724,"Lat":23.014174,"Turn":12,"DayValue":"一,二,四,六","RecycleDate":"一,四"},{"StopId":5870,"StopName":"大?5街40號","ScheduleTime":"16:10","EstimateTime":"","CarInfo":"","Lon":120.129273,"Lat":23.015997,"Turn":13,"DayValue":"一,二,四,六","RecycleDate":"一,四"},{"StopId":5871,"StopName":"四草大道80巷180號","ScheduleTime":"16:15","EstimateTime":"","CarInfo":"","Lon":120.138515,"Lat":23.001061,"Turn":14,"DayValue":"一,二,四,六","RecycleDate":"一,四"},{"StopId":5872,"StopName":"四草大道138之8號、438、486號686巷口、706號","ScheduleTime":"16:22","EstimateTime":"","CarInfo":"","Lon":120.13359,"Lat":23.008323,"Turn":15,"DayValue":"一,二,四,六","RecycleDate":"一,四"},{"StopId":5873,"StopName":"大?街402號(四草大眾廟)","ScheduleTime":"16:28","EstimateTime":"","CarInfo":"","Lon":120.135079,"Lat":23.019032,"Turn":16,"DayValue":"一,二,四,六","RecycleDate":"一,四"},{"StopId":5874,"StopName":"北汕尾1路439巷72弄656號","ScheduleTime":"16:35","EstimateTime":"","CarInfo":"","Lon":120.113298,"Lat":23.022062,"Turn":17,"DayValue":"一,二,四,六","RecycleDate":"一,四"},{"StopId":5875,"StopName":"媽祖宮1街345巷420號(鎮門宮)","ScheduleTime":"16:41","EstimateTime":"","CarInfo":"","Lon":120.110094,"Lat":23.020929,"Turn":18,"DayValue":"一,二,四,六","RecycleDate":"一,四"},{"StopId":5876,"StopName":"媽祖宮5街12號","ScheduleTime":"16:46","EstimateTime":"","CarInfo":"","Lon":120.124264,"Lat":23.037979,"Turn":19,"DayValue":"一,二,四,六","RecycleDate":"一,四"},{"StopId":5877,"StopName":"媽祖宮5街12號至138號","ScheduleTime":"16:52","EstimateTime":"","CarInfo":"","Lon":120.124812,"Lat":23.039128,"Turn":20,"DayValue":"一,二,四,六","RecycleDate":"一,四"},{"StopId":5878,"StopName":"媽祖宮2街186巷8號","ScheduleTime":"16:54","EstimateTime":"","CarInfo":"","Lon":120.125016,"Lat":23.037961,"Turn":21,"DayValue":"一,二,四,六","RecycleDate":"一,四"},{"StopId":5879,"StopName":"媽祖宮2街170號、152巷148號","ScheduleTime":"16:57","EstimateTime":"","CarInfo":"","Lon":120.125375,"Lat":23.038006,"Turn":22,"DayValue":"一,二,四,六","RecycleDate":"一,四"},{"StopId":5880,"StopName":"媽祖宮2街126巷6號","ScheduleTime":"17:02","EstimateTime":"","CarInfo":"","Lon":120.126347,"Lat":23.038676,"Turn":23,"DayValue":"一,二,四,六","RecycleDate":"一,四"},{"StopId":5881,"StopName":"媽祖宮1街10號","ScheduleTime":"17:04","EstimateTime":"","CarInfo":"","Lon":120.127055,"Lat":23.036849,"Turn":24,"DayValue":"一,二,四,六","RecycleDate":"一,四"},{"StopId":5882,"StopName":"媽祖宮2街口","ScheduleTime":"17:07","EstimateTime":"","CarInfo":"","Lon":120.129525,"Lat":23.039874,"Turn":25,"DayValue":"一,二,四,六","RecycleDate":"一,四"},{"StopId":5883,"StopName":"媽祖宮路231號","ScheduleTime":"17:09","EstimateTime":"","CarInfo":"","Lon":120.125047,"Lat":23.037024,"Turn":26,"DayValue":"一,二,四,六","RecycleDate":"一,四"},{"StopId":5884,"StopName":"媽祖宮路211號","ScheduleTime":"17:12","EstimateTime":"","CarInfo":"","Lon":120.125766,"Lat":23.037406,"Turn":27,"DayValue":"一,二,四,六","RecycleDate":"一,四"},{"StopId":5885,"StopName":"媽祖宮路188號","ScheduleTime":"17:15","EstimateTime":"","CarInfo":"","Lon":120.126928,"Lat":23.03839,"Turn":28,"DayValue":"一,二,四,六","RecycleDate":"一,四"},{"StopId":5886,"StopName":"媽祖宮路50號","ScheduleTime":"18:16","EstimateTime":"","CarInfo":"","Lon":120.129911,"Lat":23.039925,"Turn":29,"DayValue":"一,二,四,六","RecycleDate":"一,四"},{"StopId":5887,"StopName":"大眾1街69號","ScheduleTime":"18:18","EstimateTime":"","CarInfo":"","Lon":120.132109,"Lat":23.01611,"Turn":30,"DayValue":"一,二,四,六","RecycleDate":"一,四"},{"StopId":5888,"StopName":"四草大道681巷127之6號","ScheduleTime":"18:22","EstimateTime":"","CarInfo":"","Lon":120.130833,"Lat":23.014323,"Turn":31,"DayValue":"一,二,四,六","RecycleDate":"一,四"},{"StopId":5889,"StopName":"四草大道81巷2號","ScheduleTime":"18:25","EstimateTime":"","CarInfo":"","Lon":120.135125,"Lat":23.00262,"Turn":32,"DayValue":"一,二,四,六","RecycleDate":"一,四"},{"StopId":5890,"StopName":"四草大道81巷417號","ScheduleTime":"18:29","EstimateTime":"","CarInfo":"","Lon":120.127295,"Lat":23.00775,"Turn":33,"DayValue":"一,二,四,六","RecycleDate":"一,四"},{"StopId":5891,"StopName":"四草大道456號","ScheduleTime":"18:30","EstimateTime":"","CarInfo":"","Lon":120.132694,"Lat":23.011166,"Turn":34,"DayValue":"一,二,四,六","RecycleDate":"一,四"},{"StopId":5892,"StopName":"北汕尾1路83巷216號","ScheduleTime":"18:33","EstimateTime":"","CarInfo":"","Lon":120.128406,"Lat":23.009402,"Turn":35,"DayValue":"一,二,四,六","RecycleDate":"一,四"},{"StopId":5893,"StopName":"北汕尾1路240巷口","ScheduleTime":"18:35","EstimateTime":"","CarInfo":"","Lon":120.127344,"Lat":23.0148,"Turn":36,"DayValue":"一,二,四,六","RecycleDate":"一,四"},{"StopId":5894,"StopName":"大眾路780號","ScheduleTime":"18:38","EstimateTime":"","CarInfo":"","Lon":120.125716,"Lat":23.014211,"Turn":37,"DayValue":"一,二,四,六","RecycleDate":"一,四"},{"StopId":5895,"StopName":"大眾路809號","ScheduleTime":"18:42","EstimateTime":"","CarInfo":"","Lon":120.125179,"Lat":23.013607,"Turn":38,"DayValue":"一,二,四,六","RecycleDate":"一,四"},{"StopId":5896,"StopName":"北汕尾1路439巷47號","ScheduleTime":"18:47","EstimateTime":"","CarInfo":"","Lon":120.121389,"Lat":23.016018,"Turn":39,"DayValue":"一,二,四,六","RecycleDate":"一,四"},{"StopId":5897,"StopName":"大眾6街218號","ScheduleTime":"18:52","EstimateTime":"","CarInfo":"","Lon":120.124417,"Lat":23.020287,"Turn":40,"DayValue":"一,二,四,六","RecycleDate":"一,四"},{"StopId":5898,"StopName":"大眾3街口","ScheduleTime":"18:56","EstimateTime":"","CarInfo":"","Lon":120.128673,"Lat":23.017012,"Turn":41,"DayValue":"一,二,四,六","RecycleDate":"一,四"},{"StopId":5899,"StopName":"大眾1街口","ScheduleTime":"19:03","EstimateTime":"","CarInfo":"","Lon":120.131004,"Lat":23.01804,"Turn":42,"DayValue":"一,二,四,六","RecycleDate":"一,四"},{"StopId":5900,"StopName":"北汕尾1路550巷19之1號","ScheduleTime":"19:07","EstimateTime":"","CarInfo":"","Lon":120.128156,"Lat":23.03116,"Turn":43,"DayValue":"一,二,四,六","RecycleDate":"一,四"},{"StopId":5901,"StopName":"北汕尾1路800巷9弄53號","ScheduleTime":"19:12","EstimateTime":"","CarInfo":"","Lon":120.12924,"Lat":23.036708,"Turn":44,"DayValue":"一,二,四,六","RecycleDate":"一,四"},{"StopId":5902,"StopName":"媽祖宮路2號~252號","ScheduleTime":"19:17","EstimateTime":"","CarInfo":"","Lon":120.124906,"Lat":23.036918,"Turn":45,"DayValue":"一,二,四,六","RecycleDate":"一,四"},{"StopId":5903,"StopName":"媽祖宮1街136號(媽祖宮天后宮)","ScheduleTime":"19:20","EstimateTime":"","CarInfo":"","Lon":120.124615,"Lat":23.036627,"Turn":46,"DayValue":"一,二,四,六","RecycleDate":"一,四"}],"CarData":[{"CarNo":"360-N3","Angle":51,"Lon":120.128677,"Lat":23.039764}],"RouteId":138,"RouteName":"安南21線","RouteInfo":"城西街三段431號(城西里活動中心)~媽祖宮1街136號(媽祖宮天后宮)","IsWork":true}]