[{"StopData":[{"StopId":3341,"StopName":"裕農路167巷12號","ScheduleTime":"16:43","EstimateTime":"","CarInfo":"","Lon":120.4211071,"Lat":23.3547414,"Turn":1,"DayValue":"六","RecycleDate":""},{"StopId":3342,"StopName":"長安路90號","ScheduleTime":"16:52","EstimateTime":"","CarInfo":"","Lon":120.4189627,"Lat":23.3535862,"Turn":2,"DayValue":"六","RecycleDate":""},{"StopId":3343,"StopName":"長安路65-3號","ScheduleTime":"17:07","EstimateTime":"","CarInfo":"","Lon":120.4196124,"Lat":23.3534241,"Turn":3,"DayValue":"六","RecycleDate":""},{"StopId":3344,"StopName":"北勢頭7-11中山路169號","ScheduleTime":"17:15","EstimateTime":"","CarInfo":"","Lon":120.417664,"Lat":23.3528913,"Turn":4,"DayValue":"六","RecycleDate":""},{"StopId":3345,"StopName":"金典幼稚園中山路652號","ScheduleTime":"17:24","EstimateTime":"","CarInfo":"","Lon":120.4235639,"Lat":23.3606956,"Turn":5,"DayValue":"六","RecycleDate":""},{"StopId":3346,"StopName":"內角郵局內角24-1號","ScheduleTime":"17:32","EstimateTime":"","CarInfo":"","Lon":120.4389374,"Lat":23.3983635,"Turn":6,"DayValue":"六","RecycleDate":""},{"StopId":3347,"StopName":"糞箕科內角98-1號","ScheduleTime":"17:38","EstimateTime":"","CarInfo":"","Lon":120.4348402,"Lat":23.401708,"Turn":7,"DayValue":"六","RecycleDate":""},{"StopId":3348,"StopName":"步兵崗路口草店里10-132號","ScheduleTime":"17:42","EstimateTime":"","CarInfo":"","Lon":120.438915,"Lat":23.3960669,"Turn":8,"DayValue":"六","RecycleDate":""},{"StopId":3349,"StopName":"內角營區口草店9-11號","ScheduleTime":"17:48","EstimateTime":"","CarInfo":"","Lon":120.4383774,"Lat":23.3953233,"Turn":9,"DayValue":"六","RecycleDate":""},{"StopId":3350,"StopName":"關帝廟草店135號","ScheduleTime":"17:52","EstimateTime":"","CarInfo":"","Lon":120.4265026,"Lat":23.3962807,"Turn":10,"DayValue":"六","RecycleDate":""},{"StopId":3351,"StopName":"草店里民活動中心草店29-1號","ScheduleTime":"18:02","EstimateTime":"","CarInfo":"","Lon":120.4328137,"Lat":23.3914195,"Turn":11,"DayValue":"六","RecycleDate":""},{"StopId":3352,"StopName":"地磅中山路295號","ScheduleTime":"18:10","EstimateTime":"","CarInfo":"","Lon":120.4191708,"Lat":23.3551098,"Turn":12,"DayValue":"六","RecycleDate":""},{"StopId":3353,"StopName":"中山路圓環中山路198號","ScheduleTime":"18:17","EstimateTime":"","CarInfo":"","Lon":120.4174741,"Lat":23.352913,"Turn":13,"DayValue":"六","RecycleDate":""},{"StopId":3354,"StopName":"新興路198號","ScheduleTime":"18:23","EstimateTime":"","CarInfo":"","Lon":120.4241553,"Lat":23.3520174,"Turn":14,"DayValue":"六","RecycleDate":""},{"StopId":3355,"StopName":"榕樹下客庄內50號","ScheduleTime":"18:25","EstimateTime":"","CarInfo":"","Lon":120.4208788,"Lat":23.3523849,"Turn":15,"DayValue":"六","RecycleDate":""},{"StopId":3356,"StopName":"三民路46號","ScheduleTime":"18:29","EstimateTime":"","CarInfo":"","Lon":120.4252801,"Lat":23.3509767,"Turn":16,"DayValue":"六","RecycleDate":""},{"StopId":3357,"StopName":"三民路73號","ScheduleTime":"18:34","EstimateTime":"","CarInfo":"","Lon":120.4232127,"Lat":23.3512875,"Turn":17,"DayValue":"六","RecycleDate":""},{"StopId":3358,"StopName":"三民路206號","ScheduleTime":"18:36","EstimateTime":"","CarInfo":"","Lon":120.4218175,"Lat":23.3512657,"Turn":18,"DayValue":"六","RecycleDate":""},{"StopId":3359,"StopName":"三民路256號","ScheduleTime":"18:40","EstimateTime":"","CarInfo":"","Lon":120.4202797,"Lat":23.3512137,"Turn":19,"DayValue":"六","RecycleDate":""},{"StopId":3360,"StopName":"三民路348號","ScheduleTime":"18:44","EstimateTime":"","CarInfo":"","Lon":120.4181587,"Lat":23.3507796,"Turn":20,"DayValue":"六","RecycleDate":""}],"CarData":[],"RouteId":85,"RouteName":"白河-2-6","RouteInfo":"裕農路167巷12號~三民路348號","IsWork":false}]