[{"StopData":[{"StopId":7440,"StopName":"中華東路三段336巷43弄18號","ScheduleTime":"16:00","EstimateTime":"","CarInfo":"","Lon":120.2205123,"Lat":22.9748769,"Turn":1,"DayValue":"一,二,四,六","RecycleDate":"二,六"},{"StopId":7441,"StopName":"崇明路32號","ScheduleTime":"16:06","EstimateTime":"","CarInfo":"","Lon":120.216259,"Lat":22.981364,"Turn":2,"DayValue":"一,二,四,六","RecycleDate":"二,六"},{"StopId":7442,"StopName":"崇明路68號","ScheduleTime":"16:10","EstimateTime":"","CarInfo":"","Lon":120.216746,"Lat":22.98062,"Turn":3,"DayValue":"一,二,四,六","RecycleDate":"二,六"},{"StopId":7443,"StopName":"崇明路168號","ScheduleTime":"16:14","EstimateTime":"","CarInfo":"","Lon":120.217574,"Lat":22.979611,"Turn":4,"DayValue":"一,二,四,六","RecycleDate":"二,六"},{"StopId":7444,"StopName":"中華東路三段175號{加油站}旁","ScheduleTime":"16:20","EstimateTime":"","CarInfo":"","Lon":120.225814,"Lat":22.976946,"Turn":5,"DayValue":"一,二,四,六","RecycleDate":"二,六"},{"StopId":7445,"StopName":"崇善路232巷35號","ScheduleTime":"16:23","EstimateTime":"","CarInfo":"","Lon":120.226429,"Lat":22.976692,"Turn":6,"DayValue":"一,二,四,六","RecycleDate":"二,六"},{"StopId":7446,"StopName":"崇德五街2巷11弄72號旁","ScheduleTime":"16:28","EstimateTime":"","CarInfo":"","Lon":120.227564,"Lat":22.976619,"Turn":7,"DayValue":"一,二,四,六","RecycleDate":"二,六"},{"StopId":7447,"StopName":"崇善路336號","ScheduleTime":"16:33","EstimateTime":"","CarInfo":"","Lon":120.22841,"Lat":22.976016,"Turn":8,"DayValue":"一,二,四,六","RecycleDate":"二,六"},{"StopId":7448,"StopName":"崇德路543號（崇義市場停車場）","ScheduleTime":"16:40","EstimateTime":"","CarInfo":"","Lon":120.227496,"Lat":22.973558,"Turn":9,"DayValue":"一,二,四,六","RecycleDate":"二,六"},{"StopId":7449,"StopName":"崇德路471之3","ScheduleTime":"16:47","EstimateTime":"","CarInfo":"","Lon":120.2272168,"Lat":22.974191,"Turn":10,"DayValue":"一,二,四,六","RecycleDate":"二,六"},{"StopId":7450,"StopName":"崇德七街20巷口 (崇德公園)","ScheduleTime":"16:54","EstimateTime":"","CarInfo":"","Lon":120.2275211,"Lat":22.9750693,"Turn":11,"DayValue":"一,二,四,六","RecycleDate":"二,六"},{"StopId":7451,"StopName":"崇德七街30巷71號對面","ScheduleTime":"17:00","EstimateTime":"","CarInfo":"","Lon":120.2285813,"Lat":22.9744085,"Turn":12,"DayValue":"一,二,四,六","RecycleDate":"二,六"},{"StopId":7452,"StopName":"崇德九街52號旁{崇德九街口}","ScheduleTime":"17:06","EstimateTime":"","CarInfo":"","Lon":120.228892,"Lat":22.973434,"Turn":13,"DayValue":"一,二,四,六","RecycleDate":"二,六"},{"StopId":7453,"StopName":"崇德十街50號旁{崇德十街口}","ScheduleTime":"17:11","EstimateTime":"","CarInfo":"","Lon":120.2289914,"Lat":22.9731081,"Turn":14,"DayValue":"一,二,四,六","RecycleDate":"二,六"},{"StopId":7454,"StopName":"崇德十一街64號旁{崇德十一街口}","ScheduleTime":"17:16","EstimateTime":"","CarInfo":"","Lon":120.2291285,"Lat":22.9726374,"Turn":15,"DayValue":"一,二,四,六","RecycleDate":"二,六"},{"StopId":7455,"StopName":"崇道路15號前","ScheduleTime":"17:24","EstimateTime":"","CarInfo":"","Lon":120.2259499,"Lat":22.9720647,"Turn":16,"DayValue":"一,二,四,六","RecycleDate":"二,六"},{"StopId":7456,"StopName":"崇明十四街10號前","ScheduleTime":"17:31","EstimateTime":"","CarInfo":"","Lon":120.225424,"Lat":22.973184,"Turn":17,"DayValue":"一,二,四,六","RecycleDate":"二,六"},{"StopId":7457,"StopName":"崇德路508巷58號前","ScheduleTime":"17:37","EstimateTime":"","CarInfo":"","Lon":120.2257079,"Lat":22.9736704,"Turn":18,"DayValue":"一,二,四,六","RecycleDate":"二,六"},{"StopId":7458,"StopName":"崇明十四街62號前","ScheduleTime":"17:42","EstimateTime":"","CarInfo":"","Lon":120.226318,"Lat":22.974259,"Turn":19,"DayValue":"一,二,四,六","RecycleDate":"二,六"},{"StopId":7459,"StopName":"崇明十三街16號前","ScheduleTime":"17:48","EstimateTime":"","CarInfo":"","Lon":120.224525,"Lat":22.97381,"Turn":20,"DayValue":"一,二,四,六","RecycleDate":"二,六"},{"StopId":7460,"StopName":"崇明十三街10巷100號（崇明十三街口）","ScheduleTime":"17:53","EstimateTime":"","CarInfo":"","Lon":120.2254731,"Lat":22.9747912,"Turn":21,"DayValue":"一,二,四,六","RecycleDate":"二,六"},{"StopId":7461,"StopName":"崇明24街57號","ScheduleTime":"18:00","EstimateTime":"","CarInfo":"","Lon":120.227039,"Lat":22.9667261,"Turn":22,"DayValue":"一,二,四,六","RecycleDate":"二,六"},{"StopId":7462,"StopName":"中華東路三段265號（三菱汽車）","ScheduleTime":"19:42","EstimateTime":"","CarInfo":"","Lon":120.224318,"Lat":22.975002,"Turn":23,"DayValue":"一,二,四,六","RecycleDate":"二,六"},{"StopId":7463,"StopName":"崇德路538號(崇德路530號巷口)","ScheduleTime":"19:46","EstimateTime":"","CarInfo":"","Lon":120.227492,"Lat":22.972833,"Turn":24,"DayValue":"一,二,四,六","RecycleDate":"二,六"},{"StopId":7464,"StopName":"崇道路102號（美國華府）","ScheduleTime":"19:51","EstimateTime":"","CarInfo":"","Lon":120.228529,"Lat":22.97196,"Turn":25,"DayValue":"一,二,四,六","RecycleDate":"二,六"},{"StopId":7465,"StopName":"崇德12街76巷1號對面（荷蘭家鄉）","ScheduleTime":"19:56","EstimateTime":"","CarInfo":"","Lon":120.229528,"Lat":22.9715054,"Turn":26,"DayValue":"一,二,四,六","RecycleDate":"二,六"},{"StopId":7466,"StopName":"崇德12街57之暗號(文化香榭)","ScheduleTime":"20:01","EstimateTime":"","CarInfo":"","Lon":120.2286537,"Lat":22.9715925,"Turn":27,"DayValue":"一,二,四,六","RecycleDate":"二,六"},{"StopId":7467,"StopName":"崇德十三街24號前","ScheduleTime":"20:06","EstimateTime":"","CarInfo":"","Lon":120.228573,"Lat":22.9710786,"Turn":28,"DayValue":"一,二,四,六","RecycleDate":"二,六"},{"StopId":7468,"StopName":"崇德十四街69號前","ScheduleTime":"20:10","EstimateTime":"","CarInfo":"","Lon":120.2297824,"Lat":22.9706474,"Turn":29,"DayValue":"一,二,四,六","RecycleDate":"二,六"},{"StopId":7469,"StopName":"崇德十四街29號前","ScheduleTime":"20:14","EstimateTime":"","CarInfo":"","Lon":120.2283223,"Lat":22.9705849,"Turn":30,"DayValue":"一,二,四,六","RecycleDate":"二,六"},{"StopId":7470,"StopName":"崇善路572號（崇德十五街口）","ScheduleTime":"20:18","EstimateTime":"","CarInfo":"","Lon":120.2304984,"Lat":22.9702792,"Turn":31,"DayValue":"一,二,四,六","RecycleDate":"二,六"},{"StopId":7471,"StopName":"崇德路650號前","ScheduleTime":"20:24","EstimateTime":"","CarInfo":"","Lon":120.227385,"Lat":22.969633,"Turn":32,"DayValue":"一,二,四,六","RecycleDate":"二,六"},{"StopId":7472,"StopName":"崇德路678號旁（崇德郵局）","ScheduleTime":"20:29","EstimateTime":"","CarInfo":"","Lon":120.227419,"Lat":22.967448,"Turn":33,"DayValue":"一,二,四,六","RecycleDate":"二,六"},{"StopId":7473,"StopName":"崇明23街1-7 2-10號（大樓）","ScheduleTime":"20:33","EstimateTime":"","CarInfo":"","Lon":120.2262834,"Lat":22.9671752,"Turn":34,"DayValue":"一,二,四,六","RecycleDate":"二,六"},{"StopId":7474,"StopName":"崇明路591號前","ScheduleTime":"20:37","EstimateTime":"","CarInfo":"","Lon":120.225825,"Lat":22.967697,"Turn":35,"DayValue":"一,二,四,六","RecycleDate":"二,六"},{"StopId":7475,"StopName":"崇明路589之9號(崇明國中正門對面)","ScheduleTime":"20:42","EstimateTime":"","CarInfo":"","Lon":120.2257347,"Lat":22.969755,"Turn":36,"DayValue":"一,二,四,六","RecycleDate":"二,六"},{"StopId":7476,"StopName":"崇明路553號","ScheduleTime":"20:46","EstimateTime":"","CarInfo":"","Lon":120.2257227,"Lat":22.9712222,"Turn":37,"DayValue":"一,二,四,六","RecycleDate":"二,六"},{"StopId":7477,"StopName":"崇德616號旁(崇明十七街尾)","ScheduleTime":"20:49","EstimateTime":"","CarInfo":"","Lon":120.2274538,"Lat":22.9705962,"Turn":38,"DayValue":"一,二,四,六","RecycleDate":"二,六"},{"StopId":7478,"StopName":"崇明15街51號前","ScheduleTime":"20:54","EstimateTime":"","CarInfo":"","Lon":120.2264783,"Lat":22.9715744,"Turn":39,"DayValue":"一,二,四,六","RecycleDate":"二,六"},{"StopId":7479,"StopName":"崇德五街4號","ScheduleTime":"21:02","EstimateTime":"","CarInfo":"","Lon":120.226233,"Lat":22.975654,"Turn":40,"DayValue":"一,二,四,六","RecycleDate":"二,六"},{"StopId":7480,"StopName":"崇德五街86號","ScheduleTime":"21:08","EstimateTime":"","CarInfo":"","Lon":120.227155,"Lat":22.976928,"Turn":41,"DayValue":"一,二,四,六","RecycleDate":"二,六"},{"StopId":7481,"StopName":"崇德六街49號","ScheduleTime":"21:14","EstimateTime":"","CarInfo":"","Lon":120.227403,"Lat":22.9757037,"Turn":42,"DayValue":"一,二,四,六","RecycleDate":"二,六"},{"StopId":7482,"StopName":"崇德路629號(崇德十三街口)","ScheduleTime":"21:20","EstimateTime":"","CarInfo":"","Lon":120.2275068,"Lat":22.9710627,"Turn":43,"DayValue":"一,二,四,六","RecycleDate":"二,六"}],"CarData":[],"RouteId":182,"RouteName":"東區-16","RouteInfo":"中華東路三段336巷43弄18號~崇德路629號(崇德十三街口)","IsWork":true}]