[{"StopData":[{"StopId":3072,"StopName":"自強路491號","ScheduleTime":"16:35","EstimateTime":"","CarInfo":"","Lon":120.2580441,"Lat":23.0330133,"Turn":1,"DayValue":"一,二,四,六","RecycleDate":"一,四"},{"StopId":3073,"StopName":"中山路101巷2-1號","ScheduleTime":"16:42","EstimateTime":"","CarInfo":"","Lon":120.2558786,"Lat":23.0301818,"Turn":2,"DayValue":"一,二,四,六","RecycleDate":"一,四"},{"StopId":3074,"StopName":"聖龍街53號","ScheduleTime":"16:47","EstimateTime":"","CarInfo":"","Lon":120.2571241,"Lat":23.0299821,"Turn":3,"DayValue":"一,二,四,六","RecycleDate":"一,四"},{"StopId":3075,"StopName":"埔聖街13巷15號","ScheduleTime":"16:53","EstimateTime":"","CarInfo":"","Lon":120.2570255,"Lat":23.0283986,"Turn":4,"DayValue":"一,二,四,六","RecycleDate":"一,四"},{"StopId":3076,"StopName":"中山北路123巷18號","ScheduleTime":"16:58","EstimateTime":"","CarInfo":"","Lon":120.2597838,"Lat":23.0276292,"Turn":5,"DayValue":"一,二,四,六","RecycleDate":"一,四"},{"StopId":3077,"StopName":"聖龍街89號","ScheduleTime":"17:04","EstimateTime":"","CarInfo":"","Lon":120.2587815,"Lat":23.0303764,"Turn":6,"DayValue":"一,二,四,六","RecycleDate":"一,四"},{"StopId":3078,"StopName":"埔園街96號","ScheduleTime":"17:09","EstimateTime":"","CarInfo":"","Lon":120.258496,"Lat":23.032257,"Turn":7,"DayValue":"一,二,四,六","RecycleDate":"一,四"},{"StopId":3079,"StopName":"埔園街147巷1號","ScheduleTime":"17:13","EstimateTime":"","CarInfo":"","Lon":120.2572886,"Lat":23.0334325,"Turn":8,"DayValue":"一,二,四,六","RecycleDate":"一,四"},{"StopId":3080,"StopName":"埔東街12號","ScheduleTime":"17:17","EstimateTime":"","CarInfo":"","Lon":120.25661,"Lat":23.032295,"Turn":9,"DayValue":"一,二,四,六","RecycleDate":"一,四"},{"StopId":3081,"StopName":"龍埔街470號","ScheduleTime":"17:24","EstimateTime":"","CarInfo":"","Lon":120.2568986,"Lat":23.0349556,"Turn":10,"DayValue":"一,二,四,六","RecycleDate":"一,四"},{"StopId":3082,"StopName":"龍埔街283巷46號","ScheduleTime":"17:29","EstimateTime":"","CarInfo":"","Lon":120.2586908,"Lat":23.0338589,"Turn":11,"DayValue":"一,二,四,六","RecycleDate":"一,四"},{"StopId":3083,"StopName":"八德街181巷11號","ScheduleTime":"18:07","EstimateTime":"","CarInfo":"","Lon":120.2571132,"Lat":23.0361268,"Turn":12,"DayValue":"一,二,四,六","RecycleDate":"一,四"},{"StopId":3084,"StopName":"中山路233巷5號","ScheduleTime":"18:12","EstimateTime":"","CarInfo":"","Lon":120.254712,"Lat":23.0330906,"Turn":13,"DayValue":"一,二,四,六","RecycleDate":"一,四"},{"StopId":3085,"StopName":"埔園街273號","ScheduleTime":"18:16","EstimateTime":"","CarInfo":"","Lon":120.2530832,"Lat":23.0333412,"Turn":14,"DayValue":"一,二,四,六","RecycleDate":"一,四"},{"StopId":3086,"StopName":"四維街58巷2號","ScheduleTime":"18:19","EstimateTime":"","CarInfo":"","Lon":120.252795,"Lat":23.0324757,"Turn":15,"DayValue":"一,二,四,六","RecycleDate":"一,四"},{"StopId":3087,"StopName":"中山路171巷14號","ScheduleTime":"18:22","EstimateTime":"","CarInfo":"","Lon":120.2551369,"Lat":23.0316308,"Turn":16,"DayValue":"一,二,四,六","RecycleDate":"一,四"},{"StopId":3088,"StopName":"龍埔街519號","ScheduleTime":"18:30","EstimateTime":"","CarInfo":"","Lon":120.252108,"Lat":23.03516,"Turn":17,"DayValue":"一,二,四,六","RecycleDate":"一,四"},{"StopId":3089,"StopName":"八德街436號","ScheduleTime":"18:39","EstimateTime":"","CarInfo":"","Lon":120.251767,"Lat":23.036548,"Turn":18,"DayValue":"一,二,四,六","RecycleDate":"一,四"},{"StopId":3090,"StopName":"中山北路264巷41號","ScheduleTime":"19:15","EstimateTime":"","CarInfo":"","Lon":120.265459,"Lat":23.027065,"Turn":19,"DayValue":"一,二,四,六","RecycleDate":"一,四"},{"StopId":3091,"StopName":"永平街168號","ScheduleTime":"19:32","EstimateTime":"","CarInfo":"","Lon":120.264193,"Lat":23.022132,"Turn":20,"DayValue":"一,二,四,六","RecycleDate":"一,四"},{"StopId":3092,"StopName":"永明街340號","ScheduleTime":"20:02","EstimateTime":"","CarInfo":"","Lon":120.2642442,"Lat":23.0246196,"Turn":21,"DayValue":"一,二,四,六","RecycleDate":"一,四"},{"StopId":3093,"StopName":"永埔街116巷9弄2號","ScheduleTime":"20:07","EstimateTime":"","CarInfo":"","Lon":120.2589387,"Lat":23.0290069,"Turn":22,"DayValue":"一,二,四,六","RecycleDate":"一,四"}],"CarData":[{"CarNo":"219-UW","Angle":345,"Lon":120.2583,"Lat":23.028717}],"RouteId":71,"RouteName":"永康-夜間32","RouteInfo":"自強路491號~永埔街116巷9弄2號","IsWork":true}]