[{"StopData":[{"StopId":14025,"StopName":"慶平路88號","ScheduleTime":"13:05","EstimateTime":"","CarInfo":"","Lon":120.1819391,"Lat":22.996993,"Turn":1,"DayValue":"一,二,四,六","RecycleDate":"一,四"},{"StopId":14026,"StopName":"億載金城","ScheduleTime":"13:13","EstimateTime":"","CarInfo":"","Lon":120.1597378,"Lat":22.9882089,"Turn":2,"DayValue":"一,二,四,六","RecycleDate":"一,四"},{"StopId":14027,"StopName":"漁光里和(海上漂流物)","ScheduleTime":"13:17","EstimateTime":"","CarInfo":"","Lon":120.1545142,"Lat":22.9876753,"Turn":3,"DayValue":"一,二,四,六","RecycleDate":"一,四"},{"StopId":14028,"StopName":"健康二街20號","ScheduleTime":"13:42","EstimateTime":"","CarInfo":"","Lon":120.172581,"Lat":22.984631,"Turn":4,"DayValue":"一,二,四,六","RecycleDate":"一,四"},{"StopId":14029,"StopName":"台南市地方法院","ScheduleTime":"13:44","EstimateTime":"","CarInfo":"","Lon":120.1716886,"Lat":22.9841617,"Turn":5,"DayValue":"一,二,四,六","RecycleDate":"一,四"},{"StopId":14030,"StopName":"建平十七街235號(至尊天下)","ScheduleTime":"14:14","EstimateTime":"","CarInfo":"","Lon":120.176121,"Lat":22.997262,"Turn":6,"DayValue":"一,二,四,六","RecycleDate":"一,四"},{"StopId":14031,"StopName":"永華六街206巷公寓(太古廣場)","ScheduleTime":"14:19","EstimateTime":"","CarInfo":"","Lon":120.1773591,"Lat":22.9963821,"Turn":7,"DayValue":"一,二,四,六","RecycleDate":"一,四"},{"StopId":14032,"StopName":"建平十七街121號(賓士皇宮)","ScheduleTime":"14:22","EstimateTime":"","CarInfo":"","Lon":120.179875,"Lat":22.997469,"Turn":8,"DayValue":"一,二,四,六","RecycleDate":"一,四"},{"StopId":14033,"StopName":"建平十七街43號(御品天廈)","ScheduleTime":"14:25","EstimateTime":"","CarInfo":"","Lon":120.182536,"Lat":22.997341,"Turn":9,"DayValue":"一,二,四,六","RecycleDate":"一,四"},{"StopId":14034,"StopName":"市政府","ScheduleTime":"14:29","EstimateTime":"","CarInfo":"","Lon":120.184997,"Lat":22.991722,"Turn":10,"DayValue":"一,二,四,六","RecycleDate":"一,四"},{"StopId":14035,"StopName":"怡平路75號","ScheduleTime":"14:35","EstimateTime":"","CarInfo":"","Lon":120.1808614,"Lat":22.9929429,"Turn":11,"DayValue":"一,二,四,六","RecycleDate":"一,四"},{"StopId":14036,"StopName":"怡平路140巷27弄7號","ScheduleTime":"14:36","EstimateTime":"","CarInfo":"","Lon":120.1791772,"Lat":22.9940595,"Turn":12,"DayValue":"一,二,四,六","RecycleDate":"一,四"},{"StopId":14037,"StopName":"萬客隆(台南市安平區育平九街22巷5號)","ScheduleTime":"14:40","EstimateTime":"","CarInfo":"","Lon":120.1750059,"Lat":22.9950036,"Turn":13,"DayValue":"一,二,四,六","RecycleDate":"一,四"},{"StopId":14038,"StopName":"國平路591巷60號前(富碧公園)","ScheduleTime":"14:44","EstimateTime":"","CarInfo":"","Lon":120.1703066,"Lat":22.9965165,"Turn":14,"DayValue":"一,二,四,六","RecycleDate":"一,四"},{"StopId":14039,"StopName":"育平九街245號前(府城大第)","ScheduleTime":"14:47","EstimateTime":"","CarInfo":"","Lon":120.1697979,"Lat":22.9953888,"Turn":15,"DayValue":"一,二,四,六","RecycleDate":"一,四"},{"StopId":14040,"StopName":"平通路580巷49號前(荷蘭芳鄰)","ScheduleTime":"14:49","EstimateTime":"","CarInfo":"","Lon":120.1704592,"Lat":22.9951524,"Turn":16,"DayValue":"一,二,四,六","RecycleDate":"一,四"},{"StopId":14041,"StopName":"健康三街460巷62號(大隆世紀觀二期公寓)","ScheduleTime":"14:51","EstimateTime":"","CarInfo":"","Lon":120.1705807,"Lat":22.9942509,"Turn":17,"DayValue":"一,二,四,六","RecycleDate":"一,四"},{"StopId":14042,"StopName":"國平路387號(大隆世紀觀二期公寓)","ScheduleTime":"14:55","EstimateTime":"","CarInfo":"","Lon":120.1714554,"Lat":22.9938501,"Turn":18,"DayValue":"一,二,四,六","RecycleDate":"一,四"},{"StopId":14043,"StopName":"永華六街66號","ScheduleTime":"15:00","EstimateTime":"","CarInfo":"","Lon":120.176837,"Lat":22.992389,"Turn":19,"DayValue":"一,二,四,六","RecycleDate":"一,四"},{"StopId":14044,"StopName":"長青公寓(台南市安平區建平路2號)","ScheduleTime":"15:06","EstimateTime":"","CarInfo":"","Lon":120.181512,"Lat":22.983073,"Turn":20,"DayValue":"一,二,四,六","RecycleDate":"一,四"},{"StopId":14045,"StopName":"建平三街65巷20號(世紀名園)(台邦天地)","ScheduleTime":"15:08","EstimateTime":"","CarInfo":"","Lon":120.178246,"Lat":22.985055,"Turn":21,"DayValue":"一,二,四,六","RecycleDate":"一,四"},{"StopId":14046,"StopName":"建平五街184巷8號（歡喜樓公寓）","ScheduleTime":"15:12","EstimateTime":"","CarInfo":"","Lon":120.176683,"Lat":22.988203,"Turn":22,"DayValue":"一,二,四,六","RecycleDate":"一,四"},{"StopId":14047,"StopName":"府平路364號(大隆新香港公寓)","ScheduleTime":"15:18","EstimateTime":"","CarInfo":"","Lon":120.1677092,"Lat":22.9870438,"Turn":23,"DayValue":"一,二,四,六","RecycleDate":"一,四"},{"StopId":14048,"StopName":"光州二街150號(親愛寶貝大樓)","ScheduleTime":"15:21","EstimateTime":"","CarInfo":"","Lon":120.165438,"Lat":22.986701,"Turn":24,"DayValue":"一,二,四,六","RecycleDate":"一,四"},{"StopId":14049,"StopName":"育平二街45號對面及健康三街12巷1號（荷蘭公寓）","ScheduleTime":"15:24","EstimateTime":"","CarInfo":"","Lon":120.168897,"Lat":22.985525,"Turn":25,"DayValue":"一,二,四,六","RecycleDate":"一,四"},{"StopId":14050,"StopName":"建平七街677號（富貴龍門公寓）","ScheduleTime":"15:31","EstimateTime":"","CarInfo":"","Lon":120.169491,"Lat":22.989967,"Turn":26,"DayValue":"一,二,四,六","RecycleDate":"一,四"}],"CarData":[],"RouteId":333,"RouteName":"安平區-2(下午)","RouteInfo":"慶平路88號~建平七街677號（富貴龍門公寓）","IsWork":true}]