[{"StopData":[{"StopId":16599,"StopName":"台南市玉井區沙田15號","ScheduleTime":"17:47","EstimateTime":"","CarInfo":"","Lon":120.4704805,"Lat":23.1112175,"Turn":1,"DayValue":"一,二,四,六","RecycleDate":"一,四"},{"StopId":16600,"StopName":"台南市玉井區三埔66號","ScheduleTime":"18:01","EstimateTime":"","CarInfo":"","Lon":120.47868,"Lat":23.08859,"Turn":2,"DayValue":"一,二,四,六","RecycleDate":"一,四"},{"StopId":16601,"StopName":"台南市玉井區三埔83-1號","ScheduleTime":"18:08","EstimateTime":"","CarInfo":"","Lon":120.49128,"Lat":23.09422,"Turn":3,"DayValue":"一,二,四,六","RecycleDate":"一,四"},{"StopId":16602,"StopName":"台南市玉井區三埔16號","ScheduleTime":"18:10","EstimateTime":"","CarInfo":"","Lon":120.4832543,"Lat":23.1004933,"Turn":4,"DayValue":"一,二,四,六","RecycleDate":"一,四"},{"StopId":16603,"StopName":"台南市玉井區沙田33-6號","ScheduleTime":"18:16","EstimateTime":"","CarInfo":"","Lon":120.479805,"Lat":23.110265,"Turn":5,"DayValue":"一,二,四,六","RecycleDate":"一,四"},{"StopId":16604,"StopName":"台南市玉井區沙田24號","ScheduleTime":"18:26","EstimateTime":"","CarInfo":"","Lon":120.4783576,"Lat":23.1156108,"Turn":6,"DayValue":"一,二,四,六","RecycleDate":"一,四"},{"StopId":16605,"StopName":"台南市玉井區中正120-3號","ScheduleTime":"18:34","EstimateTime":"","CarInfo":"","Lon":120.4672328,"Lat":23.1449149,"Turn":7,"DayValue":"一,二,四,六","RecycleDate":"一,四"},{"StopId":16606,"StopName":"台南市玉井區中正123號","ScheduleTime":"18:56","EstimateTime":"","CarInfo":"","Lon":120.4612588,"Lat":23.1498274,"Turn":8,"DayValue":"一,二,四,六","RecycleDate":"一,四"},{"StopId":16607,"StopName":"台南市玉井區層林185號","ScheduleTime":"19:07","EstimateTime":"","CarInfo":"","Lon":120.4277144,"Lat":23.0834417,"Turn":9,"DayValue":"一,二,四,六","RecycleDate":"一,四"},{"StopId":16608,"StopName":"台南市玉井區層林100號","ScheduleTime":"19:14","EstimateTime":"","CarInfo":"","Lon":120.4295371,"Lat":23.0760569,"Turn":10,"DayValue":"一,二,四,六","RecycleDate":"一,四"}],"CarData":[],"RouteId":80,"RouteName":"玉井-3","RouteInfo":"台南市玉井區沙田15號~台南市玉井區層林100號","IsWork":true}]