[{"StopData":[{"StopId":157,"StopName":"忠孝路203號","ScheduleTime":"17:04","EstimateTime":"","CarInfo":"","Lon":120.267137,"Lat":23.311448,"Turn":1,"DayValue":"一,二,四,六","RecycleDate":"二,六"},{"StopId":158,"StopName":"南門路201巷71號福南宮","ScheduleTime":"17:12","EstimateTime":"","CarInfo":"","Lon":120.2717293,"Lat":23.3114143,"Turn":2,"DayValue":"一,二,四,六","RecycleDate":"二,六"},{"StopId":159,"StopName":"忠孝路138號益三薑母鴨","ScheduleTime":"17:17","EstimateTime":"","CarInfo":"","Lon":120.2703576,"Lat":23.311227,"Turn":3,"DayValue":"一,二,四,六","RecycleDate":"二,六"},{"StopId":160,"StopName":"月津路71號信博釣具行","ScheduleTime":"17:24","EstimateTime":"","CarInfo":"","Lon":120.2659231,"Lat":23.3142079,"Turn":4,"DayValue":"一,二,四,六","RecycleDate":"二,六"},{"StopId":161,"StopName":"康樂路18號","ScheduleTime":"17:27","EstimateTime":"","CarInfo":"","Lon":120.2682324,"Lat":23.3183072,"Turn":5,"DayValue":"一,二,四,六","RecycleDate":"二,六"},{"StopId":162,"StopName":"中山路2-10號北華宮","ScheduleTime":"17:30","EstimateTime":"","CarInfo":"","Lon":120.2684154,"Lat":23.3195999,"Turn":6,"DayValue":"一,二,四,六","RecycleDate":"二,六"},{"StopId":163,"StopName":"後厝50號祥哥彩卷行","ScheduleTime":"17:37","EstimateTime":"","CarInfo":"","Lon":120.2649239,"Lat":23.3125854,"Turn":7,"DayValue":"一,二,四,六","RecycleDate":"二,六"},{"StopId":164,"StopName":"清?路22號廣仙香舖","ScheduleTime":"17:40","EstimateTime":"","CarInfo":"","Lon":120.271909,"Lat":23.323195,"Turn":8,"DayValue":"一,二,四,六","RecycleDate":"二,六"},{"StopId":165,"StopName":"後厝71-1號冠鑫洗車場","ScheduleTime":"17:48","EstimateTime":"","CarInfo":"","Lon":120.270994,"Lat":23.318984,"Turn":9,"DayValue":"一,二,四,六","RecycleDate":"二,六"},{"StopId":166,"StopName":"康樂路173號","ScheduleTime":"17:56","EstimateTime":"","CarInfo":"","Lon":120.270047,"Lat":23.321059,"Turn":10,"DayValue":"一,二,四,六","RecycleDate":"二,六"},{"StopId":167,"StopName":"過港25~28號","ScheduleTime":"18:00","EstimateTime":"","CarInfo":"","Lon":120.2701628,"Lat":23.3173005,"Turn":11,"DayValue":"一,二,四,六","RecycleDate":"二,六"},{"StopId":168,"StopName":"西門路14號","ScheduleTime":"18:03","EstimateTime":"","CarInfo":"","Lon":120.2663701,"Lat":23.3183492,"Turn":12,"DayValue":"一,二,四,六","RecycleDate":"二,六"},{"StopId":169,"StopName":"武廟路18號中國時報社","ScheduleTime":"18:09","EstimateTime":"","CarInfo":"","Lon":120.2657645,"Lat":23.3212894,"Turn":13,"DayValue":"一,二,四,六","RecycleDate":"二,六"},{"StopId":170,"StopName":"文武街72巷21號孟娟婚紗","ScheduleTime":"18:17","EstimateTime":"","CarInfo":"","Lon":120.267075,"Lat":23.322967,"Turn":14,"DayValue":"一,二,四,六","RecycleDate":"二,六"},{"StopId":171,"StopName":"武廟路73號","ScheduleTime":"18:22","EstimateTime":"","CarInfo":"","Lon":120.2655629,"Lat":23.3229755,"Turn":15,"DayValue":"一,二,四,六","RecycleDate":"二,六"},{"StopId":172,"StopName":"武廟路6號大眾廟","ScheduleTime":"18:24","EstimateTime":"","CarInfo":"","Lon":120.2657284,"Lat":23.3205053,"Turn":16,"DayValue":"一,二,四,六","RecycleDate":"二,六"},{"StopId":173,"StopName":"月津路12巷8號","ScheduleTime":"18:32","EstimateTime":"","CarInfo":"","Lon":120.2663826,"Lat":23.316559,"Turn":17,"DayValue":"一,二,四,六","RecycleDate":"二,六"},{"StopId":174,"StopName":"朝琴路192號允成學府","ScheduleTime":"18:42","EstimateTime":"","CarInfo":"","Lon":120.273624,"Lat":23.324144,"Turn":18,"DayValue":"一,二,四,六","RecycleDate":"二,六"},{"StopId":175,"StopName":"溪州寮2-7號天祥輪胎","ScheduleTime":"18:47","EstimateTime":"","CarInfo":"","Lon":120.288834,"Lat":23.329574,"Turn":19,"DayValue":"一,二,四,六","RecycleDate":"二,六"},{"StopId":176,"StopName":"溪州寮2-1號","ScheduleTime":"18:54","EstimateTime":"","CarInfo":"","Lon":120.279784,"Lat":23.343461,"Turn":20,"DayValue":"一,二,四,六","RecycleDate":"二,六"},{"StopId":177,"StopName":"土庫路2-37號麗園山莊","ScheduleTime":"19:01","EstimateTime":"","CarInfo":"","Lon":120.27518,"Lat":23.322487,"Turn":21,"DayValue":"一,二,四,六","RecycleDate":"二,六"},{"StopId":178,"StopName":"土庫路69~17號","ScheduleTime":"19:15","EstimateTime":"","CarInfo":"","Lon":120.276011,"Lat":23.322341,"Turn":22,"DayValue":"一,二,四,六","RecycleDate":"二,六"},{"StopId":179,"StopName":"土庫路74-21號53將軍廟","ScheduleTime":"19:24","EstimateTime":"","CarInfo":"","Lon":120.271904,"Lat":23.322892,"Turn":23,"DayValue":"一,二,四,六","RecycleDate":"二,六"}],"CarData":[],"RouteId":316,"RouteName":"鹽水-4","RouteInfo":"忠孝路203號~土庫路74-21號53將軍廟","IsWork":true}]