[{"StopData":[{"StopId":15471,"StopName":"長榮路二段32巷175號前","ScheduleTime":"15:15","EstimateTime":"","CarInfo":"","Lon":120.221058,"Lat":22.988544,"Turn":1,"DayValue":"一,二,四,六","RecycleDate":"一,四"},{"StopId":15472,"StopName":"長榮路1段與光華街口","ScheduleTime":"15:24","EstimateTime":"","CarInfo":"","Lon":120.218297,"Lat":22.984829,"Turn":2,"DayValue":"一,二,四,六","RecycleDate":"一,四"},{"StopId":15473,"StopName":"光華街117號","ScheduleTime":"15:28","EstimateTime":"","CarInfo":"","Lon":120.217418,"Lat":22.985091,"Turn":3,"DayValue":"一,二,四,六","RecycleDate":"一,四"},{"StopId":15474,"StopName":"樹林街一段110號","ScheduleTime":"15:33","EstimateTime":"","CarInfo":"","Lon":120.21382,"Lat":22.986788,"Turn":4,"DayValue":"一,二,四,六","RecycleDate":"一,四"},{"StopId":15475,"StopName":"府連路234(地下道上方轉角)","ScheduleTime":"15:38","EstimateTime":"","CarInfo":"","Lon":120.213716,"Lat":22.985303,"Turn":5,"DayValue":"一,二,四,六","RecycleDate":"一,四"},{"StopId":15476,"StopName":"府連路368號前(路口)","ScheduleTime":"15:43","EstimateTime":"","CarInfo":"","Lon":120.216583,"Lat":22.984659,"Turn":6,"DayValue":"一,二,四,六","RecycleDate":"一,四"},{"StopId":15477,"StopName":"大同路一段175巷111號","ScheduleTime":"15:50","EstimateTime":"","CarInfo":"","Lon":120.214074,"Lat":22.982754,"Turn":7,"DayValue":"一,二,四,六","RecycleDate":"一,四"},{"StopId":15478,"StopName":"大同路一段175巷132弄口","ScheduleTime":"15:55","EstimateTime":"","CarInfo":"","Lon":120.21376,"Lat":22.983194,"Turn":8,"DayValue":"一,二,四,六","RecycleDate":"一,四"},{"StopId":15479,"StopName":"府東街272之1號","ScheduleTime":"16:03","EstimateTime":"","CarInfo":"","Lon":120.2121,"Lat":22.987617,"Turn":9,"DayValue":"一,二,四,六","RecycleDate":"一,四"},{"StopId":15480,"StopName":"大同路一段45巷口","ScheduleTime":"16:07","EstimateTime":"","CarInfo":"","Lon":120.211587,"Lat":22.988067,"Turn":10,"DayValue":"一,二,四,六","RecycleDate":"一,四"},{"StopId":15481,"StopName":"北門路一段284號鐵公路局入口","ScheduleTime":"16:15","EstimateTime":"","CarInfo":"","Lon":120.211899,"Lat":22.995534,"Turn":11,"DayValue":"一,二,四,六","RecycleDate":"一,四"},{"StopId":15482,"StopName":"北門路2段18號","ScheduleTime":"16:21","EstimateTime":"","CarInfo":"","Lon":120.212757,"Lat":22.999848,"Turn":12,"DayValue":"一,二,四,六","RecycleDate":"一,四"},{"StopId":15483,"StopName":"育樂街57巷口","ScheduleTime":"16:28","EstimateTime":"","CarInfo":"","Lon":120.216333,"Lat":22.995591,"Turn":13,"DayValue":"一,二,四,六","RecycleDate":"一,四"},{"StopId":15484,"StopName":"育樂街58號(成大活動中心前)","ScheduleTime":"16:31","EstimateTime":"","CarInfo":"","Lon":120.216642,"Lat":22.995553,"Turn":14,"DayValue":"一,二,四,六","RecycleDate":"一,四"},{"StopId":15485,"StopName":"育樂街148巷17巷口","ScheduleTime":"16:37","EstimateTime":"","CarInfo":"","Lon":120.214167,"Lat":22.995798,"Turn":15,"DayValue":"一,二,四,六","RecycleDate":"一,四"},{"StopId":15486,"StopName":"東成街131巷12弄9號","ScheduleTime":"18:15","EstimateTime":"","CarInfo":"","Lon":120.236737,"Lat":22.980818,"Turn":16,"DayValue":"一,二,四,六","RecycleDate":"一,四"},{"StopId":15487,"StopName":"富農街一段232巷1號","ScheduleTime":"18:21","EstimateTime":"","CarInfo":"","Lon":120.23514,"Lat":22.982795,"Turn":17,"DayValue":"一,二,四,六","RecycleDate":"一,四"},{"StopId":15488,"StopName":"富農街一段232巷23號","ScheduleTime":"18:24","EstimateTime":"","CarInfo":"","Lon":120.235995,"Lat":22.982834,"Turn":18,"DayValue":"一,二,四,六","RecycleDate":"一,四"},{"StopId":15489,"StopName":"富農街一段218巷底37弄口","ScheduleTime":"18:28","EstimateTime":"","CarInfo":"","Lon":120.236024,"Lat":22.98254,"Turn":19,"DayValue":"一,二,四,六","RecycleDate":"一,四"},{"StopId":15490,"StopName":"裕學路185巷136號路口","ScheduleTime":"18:33","EstimateTime":"","CarInfo":"","Lon":120.236416,"Lat":22.983192,"Turn":20,"DayValue":"一,二,四,六","RecycleDate":"一,四"},{"StopId":15491,"StopName":"富農街一段188巷152號路口","ScheduleTime":"18:38","EstimateTime":"","CarInfo":"","Lon":120.236565,"Lat":22.981765,"Turn":21,"DayValue":"一,二,四,六","RecycleDate":"一,四"},{"StopId":15492,"StopName":"富農街一段188巷143號","ScheduleTime":"18:42","EstimateTime":"","CarInfo":"","Lon":120.236634,"Lat":22.981266,"Turn":22,"DayValue":"一,二,四,六","RecycleDate":"一,四"},{"StopId":15493,"StopName":"東成街201巷32號","ScheduleTime":"18:46","EstimateTime":"","CarInfo":"","Lon":120.237711,"Lat":22.981056,"Turn":23,"DayValue":"一,二,四,六","RecycleDate":"一,四"},{"StopId":15494,"StopName":"東成街219巷口","ScheduleTime":"18:49","EstimateTime":"","CarInfo":"","Lon":120.238335,"Lat":22.980357,"Turn":24,"DayValue":"一,二,四,六","RecycleDate":"一,四"},{"StopId":15495,"StopName":"富農街一段188巷114號","ScheduleTime":"18:52","EstimateTime":"","CarInfo":"","Lon":120.23587,"Lat":22.982209,"Turn":25,"DayValue":"一,二,四,六","RecycleDate":"一,四"},{"StopId":15496,"StopName":"大同路二段19巷口","ScheduleTime":"19:09","EstimateTime":"","CarInfo":"","Lon":120.212778,"Lat":22.980553,"Turn":26,"DayValue":"一,二,四,六","RecycleDate":"一,四"},{"StopId":15497,"StopName":"林森路一段62號前","ScheduleTime":"19:13","EstimateTime":"","CarInfo":"","Lon":120.213011,"Lat":22.981079,"Turn":27,"DayValue":"一,二,四,六","RecycleDate":"一,四"},{"StopId":15498,"StopName":"林森路一段136號","ScheduleTime":"19:17","EstimateTime":"","CarInfo":"","Lon":120.214427,"Lat":22.980807,"Turn":28,"DayValue":"一,二,四,六","RecycleDate":"一,四"},{"StopId":15499,"StopName":"大同路二段61巷115號路口","ScheduleTime":"19:20","EstimateTime":"","CarInfo":"","Lon":120.213984,"Lat":22.980819,"Turn":29,"DayValue":"一,二,四,六","RecycleDate":"一,四"},{"StopId":15500,"StopName":"大同路二段61巷146號","ScheduleTime":"19:23","EstimateTime":"","CarInfo":"","Lon":120.214196,"Lat":22.980265,"Turn":30,"DayValue":"一,二,四,六","RecycleDate":"一,四"},{"StopId":15501,"StopName":"大同路二段61巷136弄口","ScheduleTime":"19:26","EstimateTime":"","CarInfo":"","Lon":120.214099,"Lat":22.979544,"Turn":31,"DayValue":"一,二,四,六","RecycleDate":"一,四"},{"StopId":15502,"StopName":"大同路二段61巷23號之1巷口","ScheduleTime":"19:29","EstimateTime":"","CarInfo":"","Lon":120.213096,"Lat":22.979586,"Turn":32,"DayValue":"一,二,四,六","RecycleDate":"一,四"},{"StopId":15503,"StopName":"大同路二段61巷1弄路口","ScheduleTime":"19:32","EstimateTime":"","CarInfo":"","Lon":120.213096,"Lat":22.979586,"Turn":33,"DayValue":"一,二,四,六","RecycleDate":"一,四"},{"StopId":15504,"StopName":"長榮路三段66巷25號路口","ScheduleTime":"19:44","EstimateTime":"","CarInfo":"","Lon":120.222705,"Lat":22.99364,"Turn":34,"DayValue":"一,二,四,六","RecycleDate":"一,四"},{"StopId":15505,"StopName":"大學路18巷30號路口","ScheduleTime":"19:49","EstimateTime":"","CarInfo":"","Lon":120.221014,"Lat":22.993772,"Turn":35,"DayValue":"一,二,四,六","RecycleDate":"一,四"},{"StopId":15506,"StopName":"大學路22巷14-1號十字路口","ScheduleTime":"19:56","EstimateTime":"","CarInfo":"","Lon":120.221265,"Lat":22.995063,"Turn":36,"DayValue":"一,二,四,六","RecycleDate":"一,四"},{"StopId":15507,"StopName":"大學路12巷9號","ScheduleTime":"20:03","EstimateTime":"","CarInfo":"","Lon":120.220334,"Lat":22.994939,"Turn":37,"DayValue":"一,二,四,六","RecycleDate":"一,四"},{"StopId":15508,"StopName":"東寧路3巷口","ScheduleTime":"20:10","EstimateTime":"","CarInfo":"","Lon":120.219436,"Lat":22.992252,"Turn":38,"DayValue":"一,二,四,六","RecycleDate":"一,四"}],"CarData":[],"RouteId":164,"RouteName":"東區-01","RouteInfo":"長榮路二段32巷175號前~東寧路3巷口","IsWork":true}]