[{"StopData":[{"StopId":16073,"StopName":"東門路三段53號","ScheduleTime":"16:00","EstimateTime":"","CarInfo":"","Lon":120.230962,"Lat":22.980054,"Turn":1,"DayValue":"一,二,四,六","RecycleDate":"二,六"},{"StopId":16074,"StopName":"東門路三段37巷口","ScheduleTime":"16:02","EstimateTime":"","CarInfo":"","Lon":120.231271,"Lat":22.980195,"Turn":2,"DayValue":"一,二,四,六","RecycleDate":"二,六"},{"StopId":16075,"StopName":"東門路三段37巷6弄口","ScheduleTime":"16:06","EstimateTime":"","CarInfo":"","Lon":120.231732,"Lat":22.980252,"Turn":3,"DayValue":"一,二,四,六","RecycleDate":"二,六"},{"StopId":16076,"StopName":"東門路三段37巷6弄49號","ScheduleTime":"16:10","EstimateTime":"","CarInfo":"","Lon":120.232797,"Lat":22.980316,"Turn":4,"DayValue":"一,二,四,六","RecycleDate":"二,六"},{"StopId":16077,"StopName":"東門路三段37巷12弄與富農街一段89巷底","ScheduleTime":"16:19","EstimateTime":"","CarInfo":"","Lon":120.233627,"Lat":22.980864,"Turn":5,"DayValue":"一,二,四,六","RecycleDate":"二,六"},{"StopId":16078,"StopName":"東門路三段37巷63弄與12弄口","ScheduleTime":"16:23","EstimateTime":"","CarInfo":"","Lon":120.231799,"Lat":22.980776,"Turn":6,"DayValue":"一,二,四,六","RecycleDate":"二,六"},{"StopId":16079,"StopName":"東門路三段11巷12號(大樓)富強教會","ScheduleTime":"16:26","EstimateTime":"","CarInfo":"","Lon":120.230571,"Lat":22.981303,"Turn":7,"DayValue":"一,二,四,六","RecycleDate":"二,六"},{"StopId":16080,"StopName":"中華東路二段339號","ScheduleTime":"16:30","EstimateTime":"","CarInfo":"","Lon":120.229938,"Lat":22.981586,"Turn":8,"DayValue":"一,二,四,六","RecycleDate":"二,六"},{"StopId":16081,"StopName":"中華東路二段295巷41號前正揚機車","ScheduleTime":"16:38","EstimateTime":"","CarInfo":"","Lon":120.232002,"Lat":22.981815,"Turn":9,"DayValue":"一,二,四,六","RecycleDate":"二,六"},{"StopId":16082,"StopName":"富農街一段131巷42弄7號前","ScheduleTime":"16:45","EstimateTime":"","CarInfo":"","Lon":120.233287,"Lat":22.982271,"Turn":10,"DayValue":"一,二,四,六","RecycleDate":"二,六"},{"StopId":16083,"StopName":"富農街一段131巷26號(路口)三陽機車","ScheduleTime":"16:49","EstimateTime":"","CarInfo":"","Lon":120.233867,"Lat":22.981967,"Turn":11,"DayValue":"一,二,四,六","RecycleDate":"二,六"},{"StopId":16084,"StopName":"富農街一段153巷口","ScheduleTime":"16:55","EstimateTime":"","CarInfo":"","Lon":120.234715,"Lat":22.982311,"Turn":12,"DayValue":"一,二,四,六","RecycleDate":"二,六"},{"StopId":16085,"StopName":"中華東路二段243巷37號","ScheduleTime":"16:58","EstimateTime":"","CarInfo":"","Lon":120.233021,"Lat":22.982732,"Turn":13,"DayValue":"一,二,四,六","RecycleDate":"二,六"},{"StopId":16086,"StopName":"中華東路二段203巷19弄與富農街一段199巷口","ScheduleTime":"17:03","EstimateTime":"","CarInfo":"","Lon":120.234781,"Lat":22.983247,"Turn":14,"DayValue":"一,二,四,六","RecycleDate":"二,六"},{"StopId":16087,"StopName":"富農街一段199巷2號","ScheduleTime":"17:06","EstimateTime":"","CarInfo":"","Lon":120.233659,"Lat":22.983238,"Turn":15,"DayValue":"一,二,四,六","RecycleDate":"二,六"},{"StopId":16088,"StopName":"中華東路二段73巷2號(擎天大樓)","ScheduleTime":"17:09","EstimateTime":"","CarInfo":"","Lon":120.233966,"Lat":22.986751,"Turn":16,"DayValue":"一,二,四,六","RecycleDate":"二,六"},{"StopId":16089,"StopName":"中華東路二段73巷7號","ScheduleTime":"17:14","EstimateTime":"","CarInfo":"","Lon":120.233978,"Lat":22.986987,"Turn":17,"DayValue":"一,二,四,六","RecycleDate":"二,六"},{"StopId":16090,"StopName":"富農街二段132巷口","ScheduleTime":"19:00","EstimateTime":"","CarInfo":"","Lon":120.23564,"Lat":22.987948,"Turn":18,"DayValue":"一,二,四,六","RecycleDate":"二,六"},{"StopId":16091,"StopName":"富農街一段191巷10號","ScheduleTime":"19:04","EstimateTime":"","CarInfo":"","Lon":120.234481,"Lat":22.982829,"Turn":19,"DayValue":"一,二,四,六","RecycleDate":"二,六"},{"StopId":16092,"StopName":"富農路一段191巷與中華東路二段243巷口","ScheduleTime":"19:12","EstimateTime":"","CarInfo":"","Lon":120.233809,"Lat":22.982786,"Turn":20,"DayValue":"一,二,四,六","RecycleDate":"二,六"},{"StopId":16093,"StopName":"中華東路二段243巷24弄及13弄口","ScheduleTime":"19:16","EstimateTime":"","CarInfo":"","Lon":120.232217,"Lat":22.982859,"Turn":21,"DayValue":"一,二,四,六","RecycleDate":"二,六"},{"StopId":16094,"StopName":"中華東路二段243巷口","ScheduleTime":"19:19","EstimateTime":"","CarInfo":"","Lon":120.231601,"Lat":22.983333,"Turn":22,"DayValue":"一,二,四,六","RecycleDate":"二,六"},{"StopId":16095,"StopName":"中華東路二段203巷17弄2號","ScheduleTime":"19:23","EstimateTime":"","CarInfo":"","Lon":120.232458,"Lat":22.983484,"Turn":23,"DayValue":"一,二,四,六","RecycleDate":"二,六"},{"StopId":16096,"StopName":"中華東路二段133巷72號(環保局大門口)","ScheduleTime":"19:28","EstimateTime":"","CarInfo":"","Lon":120.235189,"Lat":22.984829,"Turn":24,"DayValue":"一,二,四,六","RecycleDate":"二,六"},{"StopId":16097,"StopName":"中華東路二段133巷70弄39號前","ScheduleTime":"19:36","EstimateTime":"","CarInfo":"","Lon":120.234553,"Lat":22.984266,"Turn":25,"DayValue":"一,二,四,六","RecycleDate":"二,六"},{"StopId":16098,"StopName":"中華東路二段185巷及133巷4弄口","ScheduleTime":"19:39","EstimateTime":"","CarInfo":"","Lon":120.233253,"Lat":22.98465,"Turn":26,"DayValue":"一,二,四,六","RecycleDate":"二,六"},{"StopId":16099,"StopName":"中華東路二段133巷57弄34號","ScheduleTime":"19:44","EstimateTime":"","CarInfo":"","Lon":120.23484,"Lat":22.986061,"Turn":27,"DayValue":"一,二,四,六","RecycleDate":"二,六"},{"StopId":16100,"StopName":"富農街二段43巷口","ScheduleTime":"19:50","EstimateTime":"","CarInfo":"","Lon":120.235515,"Lat":22.986206,"Turn":28,"DayValue":"一,二,四,六","RecycleDate":"二,六"},{"StopId":16101,"StopName":"中華東路二段41巷45號前","ScheduleTime":"19:55","EstimateTime":"","CarInfo":"","Lon":120.235032,"Lat":22.987403,"Turn":29,"DayValue":"一,二,四,六","RecycleDate":"二,六"},{"StopId":16102,"StopName":"中華東路二段7巷13弄22號前","ScheduleTime":"20:00","EstimateTime":"","CarInfo":"","Lon":120.234597,"Lat":22.987932,"Turn":30,"DayValue":"一,二,四,六","RecycleDate":"二,六"},{"StopId":16103,"StopName":"裕農路574號前","ScheduleTime":"20:05","EstimateTime":"","CarInfo":"","Lon":120.234353,"Lat":22.988476,"Turn":31,"DayValue":"一,二,四,六","RecycleDate":"二,六"},{"StopId":16104,"StopName":"裕農路594號前(富田診所)","ScheduleTime":"20:09","EstimateTime":"","CarInfo":"","Lon":120.234613,"Lat":22.988493,"Turn":32,"DayValue":"一,二,四,六","RecycleDate":"二,六"},{"StopId":16105,"StopName":"中華東路二段133巷39弄口","ScheduleTime":"20:12","EstimateTime":"","CarInfo":"","Lon":120.234273,"Lat":22.985105,"Turn":33,"DayValue":"一,二,四,六","RecycleDate":"二,六"},{"StopId":16106,"StopName":"中華東路二段25號","ScheduleTime":"20:15","EstimateTime":"","CarInfo":"","Lon":120.233605,"Lat":22.98789,"Turn":34,"DayValue":"一,二,四,六","RecycleDate":"二,六"}],"CarData":[],"RouteId":180,"RouteName":"東區-14","RouteInfo":"東門路三段53號~中華東路二段25號","IsWork":true}]