[{"StopData":[{"StopId":7837,"StopName":"明興路721號前","ScheduleTime":"16:50","EstimateTime":"","CarInfo":"","Lon":120.181058,"Lat":22.93708,"Turn":1,"DayValue":"一,二,四,六","RecycleDate":"一,四"},{"StopId":7838,"StopName":"明興路655巷口","ScheduleTime":"16:55","EstimateTime":"","CarInfo":"","Lon":120.181042,"Lat":22.938774,"Turn":2,"DayValue":"一,二,四,六","RecycleDate":"一,四"},{"StopId":7839,"StopName":"明興路629之2號","ScheduleTime":"16:59","EstimateTime":"","CarInfo":"","Lon":120.181457,"Lat":22.940071,"Turn":3,"DayValue":"一,二,四,六","RecycleDate":"一,四"},{"StopId":7840,"StopName":"明興路611巷口","ScheduleTime":"17:03","EstimateTime":"","CarInfo":"","Lon":120.181771,"Lat":22.941134,"Turn":4,"DayValue":"一,二,四,六","RecycleDate":"一,四"},{"StopId":7841,"StopName":"明興路415巷口","ScheduleTime":"17:08","EstimateTime":"","CarInfo":"","Lon":120.184065,"Lat":22.948728,"Turn":5,"DayValue":"一,二,四,六","RecycleDate":"一,四"},{"StopId":7842,"StopName":"明興路371巷口","ScheduleTime":"17:12","EstimateTime":"","CarInfo":"","Lon":120.184311,"Lat":22.949569,"Turn":6,"DayValue":"一,二,四,六","RecycleDate":"一,四"},{"StopId":7843,"StopName":"明興路321巷口","ScheduleTime":"17:18","EstimateTime":"","CarInfo":"","Lon":120.184643,"Lat":22.95067,"Turn":7,"DayValue":"一,二,四,六","RecycleDate":"一,四"},{"StopId":7844,"StopName":"金華路一段130號邊空地","ScheduleTime":"17:24","EstimateTime":"","CarInfo":"","Lon":120.189728,"Lat":22.964476,"Turn":8,"DayValue":"一,二,四,六","RecycleDate":"一,四"},{"StopId":7845,"StopName":"金華路一段200巷口","ScheduleTime":"17:28","EstimateTime":"","CarInfo":"","Lon":120.189998,"Lat":22.966311,"Turn":9,"DayValue":"一,二,四,六","RecycleDate":"一,四"},{"StopId":7846,"StopName":"金華路一段230巷口","ScheduleTime":"17:33","EstimateTime":"","CarInfo":"","Lon":120.190093,"Lat":22.966937,"Turn":10,"DayValue":"一,二,四,六","RecycleDate":"一,四"},{"StopId":7847,"StopName":"金華路一段530巷口","ScheduleTime":"17:38","EstimateTime":"","CarInfo":"","Lon":120.190863,"Lat":22.974167,"Turn":11,"DayValue":"一,二,四,六","RecycleDate":"一,四"},{"StopId":7848,"StopName":"大成路二段223巷口","ScheduleTime":"17:43","EstimateTime":"","CarInfo":"","Lon":120.191775,"Lat":22.974873,"Turn":12,"DayValue":"一,二,四,六","RecycleDate":"一,四"},{"StopId":7849,"StopName":"大成路二段143巷口","ScheduleTime":"17:47","EstimateTime":"","CarInfo":"","Lon":120.193568,"Lat":22.974891,"Turn":13,"DayValue":"一,二,四,六","RecycleDate":"一,四"},{"StopId":7850,"StopName":"大成路二段81巷口","ScheduleTime":"17:50","EstimateTime":"","CarInfo":"","Lon":120.194911,"Lat":22.974913,"Turn":14,"DayValue":"一,二,四,六","RecycleDate":"一,四"},{"StopId":7851,"StopName":"永成路三段461巷口邊府南公園","ScheduleTime":"17:55","EstimateTime":"","CarInfo":"","Lon":120.195318,"Lat":22.972883,"Turn":15,"DayValue":"一,二,四,六","RecycleDate":"一,四"},{"StopId":7852,"StopName":"永成路三段347巷口","ScheduleTime":"17:59","EstimateTime":"","CarInfo":"","Lon":120.195328,"Lat":22.970578,"Turn":16,"DayValue":"一,二,四,六","RecycleDate":"一,四"},{"StopId":7853,"StopName":"永成路三段267號","ScheduleTime":"18:03","EstimateTime":"","CarInfo":"","Lon":120.195322,"Lat":22.969162,"Turn":17,"DayValue":"一,二,四,六","RecycleDate":"一,四"},{"StopId":7854,"StopName":"新都路353巷口","ScheduleTime":"18:09","EstimateTime":"","CarInfo":"","Lon":120.196034,"Lat":22.966905,"Turn":18,"DayValue":"一,二,四,六","RecycleDate":"一,四"},{"StopId":7855,"StopName":"永成路三段372巷51弄6號","ScheduleTime":"18:14","EstimateTime":"","CarInfo":"","Lon":120.196702,"Lat":22.968486,"Turn":19,"DayValue":"一,二,四,六","RecycleDate":"一,四"},{"StopId":7856,"StopName":"永成路三段398巷42號","ScheduleTime":"18:17","EstimateTime":"","CarInfo":"","Lon":120.196483,"Lat":22.968738,"Turn":20,"DayValue":"一,二,四,六","RecycleDate":"一,四"},{"StopId":7857,"StopName":"永成路三段372巷3號","ScheduleTime":"18:20","EstimateTime":"","CarInfo":"","Lon":120.195786,"Lat":22.968191,"Turn":21,"DayValue":"一,二,四,六","RecycleDate":"一,四"},{"StopId":7858,"StopName":"永成路三段430號","ScheduleTime":"18:24","EstimateTime":"","CarInfo":"","Lon":120.195545,"Lat":22.96914,"Turn":22,"DayValue":"一,二,四,六","RecycleDate":"一,四"},{"StopId":7859,"StopName":"永成路三段546號","ScheduleTime":"18:28","EstimateTime":"","CarInfo":"","Lon":120.195482,"Lat":22.970961,"Turn":23,"DayValue":"一,二,四,六","RecycleDate":"一,四"},{"StopId":7860,"StopName":"大成路二段31號","ScheduleTime":"18:33","EstimateTime":"","CarInfo":"","Lon":120.196351,"Lat":22.974951,"Turn":24,"DayValue":"一,二,四,六","RecycleDate":"一,四"},{"StopId":7861,"StopName":"西門路一段173巷口","ScheduleTime":"18:37","EstimateTime":"","CarInfo":"","Lon":120.197658,"Lat":22.973385,"Turn":25,"DayValue":"一,二,四,六","RecycleDate":"一,四"},{"StopId":7862,"StopName":"永成路三段157巷邊空地","ScheduleTime":"20:30","EstimateTime":"","CarInfo":"","Lon":120.195341,"Lat":22.966459,"Turn":26,"DayValue":"一,二,四,六","RecycleDate":"一,四"},{"StopId":7863,"StopName":"永成路三段111號","ScheduleTime":"20:35","EstimateTime":"","CarInfo":"","Lon":120.195378,"Lat":22.965363,"Turn":27,"DayValue":"一,二,四,六","RecycleDate":"一,四"},{"StopId":7864,"StopName":"永成路三段與永興三街巷口","ScheduleTime":"20:38","EstimateTime":"","CarInfo":"","Lon":120.195356,"Lat":22.96472,"Turn":28,"DayValue":"一,二,四,六","RecycleDate":"一,四"},{"StopId":7865,"StopName":"中華南路二段134號","ScheduleTime":"20:42","EstimateTime":"","CarInfo":"","Lon":120.191991,"Lat":22.961751,"Turn":29,"DayValue":"一,二,四,六","RecycleDate":"一,四"},{"StopId":7866,"StopName":"中華南路二段218號邊","ScheduleTime":"20:46","EstimateTime":"","CarInfo":"","Lon":120.190124,"Lat":22.961365,"Turn":30,"DayValue":"一,二,四,六","RecycleDate":"一,四"},{"StopId":7867,"StopName":"新都路483號","ScheduleTime":"20:51","EstimateTime":"","CarInfo":"","Lon":120.191778,"Lat":22.967169,"Turn":31,"DayValue":"一,二,四,六","RecycleDate":"一,四"},{"StopId":7868,"StopName":"德興路18號前","ScheduleTime":"20:55","EstimateTime":"","CarInfo":"","Lon":120.192194,"Lat":22.966792,"Turn":32,"DayValue":"一,二,四,六","RecycleDate":"一,四"},{"StopId":7869,"StopName":"德興路40號前","ScheduleTime":"20:59","EstimateTime":"","CarInfo":"","Lon":120.192156,"Lat":22.966102,"Turn":33,"DayValue":"一,二,四,六","RecycleDate":"一,四"},{"StopId":7870,"StopName":"德興路90號","ScheduleTime":"21:02","EstimateTime":"","CarInfo":"","Lon":120.192494,"Lat":22.964657,"Turn":34,"DayValue":"一,二,四,六","RecycleDate":"一,四"},{"StopId":7871,"StopName":"德興路158號邊空地","ScheduleTime":"21:05","EstimateTime":"","CarInfo":"","Lon":120.192487,"Lat":22.96266,"Turn":35,"DayValue":"一,二,四,六","RecycleDate":"一,四"},{"StopId":7872,"StopName":"明興路338巷口","ScheduleTime":"21:10","EstimateTime":"","CarInfo":"","Lon":120.184251,"Lat":22.95,"Turn":36,"DayValue":"一,二,四,六","RecycleDate":"一,四"},{"StopId":7873,"StopName":"明興路404巷口","ScheduleTime":"21:13","EstimateTime":"","CarInfo":"","Lon":120.183892,"Lat":22.948778,"Turn":37,"DayValue":"一,二,四,六","RecycleDate":"一,四"},{"StopId":7874,"StopName":"明興路796號","ScheduleTime":"21:18","EstimateTime":"","CarInfo":"","Lon":120.180821,"Lat":22.938338,"Turn":38,"DayValue":"一,二,四,六","RecycleDate":"一,四"}],"CarData":[{"CarNo":"460-N3","Angle":9,"Lon":120.181068,"Lat":22.938947}],"RouteId":190,"RouteName":"南區-01","RouteInfo":"明興路721號前~明興路796號","IsWork":true}]