[{"StopData":[{"StopId":6165,"StopName":"海中街138巷口","ScheduleTime":"14:00","EstimateTime":"","CarInfo":"","Lon":120.1847374,"Lat":23.042185,"Turn":1,"DayValue":"一,二,四,六","RecycleDate":"一,四"},{"StopId":6166,"StopName":"海中街215號邊","ScheduleTime":"14:03","EstimateTime":"","CarInfo":"","Lon":120.1831028,"Lat":23.042523,"Turn":2,"DayValue":"一,二,四,六","RecycleDate":"一,四"},{"StopId":6167,"StopName":"海環街437巷口","ScheduleTime":"14:06","EstimateTime":"","CarInfo":"","Lon":120.1761602,"Lat":23.0410513,"Turn":3,"DayValue":"一,二,四,六","RecycleDate":"一,四"},{"StopId":6168,"StopName":"海環街437巷33弄口","ScheduleTime":"14:09","EstimateTime":"","CarInfo":"","Lon":120.1804037,"Lat":23.0408361,"Turn":4,"DayValue":"一,二,四,六","RecycleDate":"一,四"},{"StopId":6169,"StopName":"海中街169巷口","ScheduleTime":"14:12","EstimateTime":"","CarInfo":"","Lon":120.1828183,"Lat":23.0411775,"Turn":5,"DayValue":"一,二,四,六","RecycleDate":"一,四"},{"StopId":6170,"StopName":"海中街121巷41號","ScheduleTime":"14:15","EstimateTime":"","CarInfo":"","Lon":120.1832431,"Lat":23.0404636,"Turn":6,"DayValue":"一,二,四,六","RecycleDate":"一,四"},{"StopId":6171,"StopName":"海環街365巷口","ScheduleTime":"14:18","EstimateTime":"","CarInfo":"","Lon":120.1810203,"Lat":23.0395321,"Turn":7,"DayValue":"一,二,四,六","RecycleDate":"一,四"},{"StopId":6172,"StopName":"海環街320巷口","ScheduleTime":"14:21","EstimateTime":"","CarInfo":"","Lon":120.1816585,"Lat":23.0394382,"Turn":8,"DayValue":"一,二,四,六","RecycleDate":"一,四"},{"StopId":6173,"StopName":"海環街101巷56號","ScheduleTime":"14:24","EstimateTime":"","CarInfo":"","Lon":120.186375,"Lat":23.0389782,"Turn":9,"DayValue":"一,二,四,六","RecycleDate":"一,四"},{"StopId":6174,"StopName":"海環街101巷22號(朝皇宮大廟)","ScheduleTime":"14:27","EstimateTime":"","CarInfo":"","Lon":120.1870522,"Lat":23.0393458,"Turn":10,"DayValue":"一,二,四,六","RecycleDate":"一,四"},{"StopId":6175,"StopName":"海環街281巷21號至311號至安通路6段","ScheduleTime":"14:30","EstimateTime":"","CarInfo":"","Lon":120.1814486,"Lat":23.0364478,"Turn":11,"DayValue":"一,二,四,六","RecycleDate":"一,四"},{"StopId":6176,"StopName":"安通路五段230巷160號至110之1號","ScheduleTime":"14:43","EstimateTime":"","CarInfo":"","Lon":120.19793,"Lat":23.03202,"Turn":12,"DayValue":"一,二,四,六","RecycleDate":"一,四"},{"StopId":6177,"StopName":"四草大道1179號","ScheduleTime":"15:20","EstimateTime":"","CarInfo":"","Lon":120.132791,"Lat":23.022798,"Turn":13,"DayValue":"一,二,四,六","RecycleDate":"一,四"},{"StopId":6178,"StopName":"大眾1街3號","ScheduleTime":"15:25","EstimateTime":"","CarInfo":"","Lon":120.135128,"Lat":23.019934,"Turn":14,"DayValue":"一,二,四,六","RecycleDate":"一,四"},{"StopId":6179,"StopName":"大眾六街126巷49號","ScheduleTime":"15:28","EstimateTime":"","CarInfo":"","Lon":120.1276954,"Lat":23.0196387,"Turn":15,"DayValue":"一,二,四,六","RecycleDate":"一,四"},{"StopId":6180,"StopName":"大眾六街148巷11號","ScheduleTime":"15:32","EstimateTime":"","CarInfo":"","Lon":120.126765,"Lat":23.019538,"Turn":16,"DayValue":"一,二,四,六","RecycleDate":"一,四"},{"StopId":6181,"StopName":"大眾六街6號至222號","ScheduleTime":"15:36","EstimateTime":"","CarInfo":"","Lon":120.128219,"Lat":23.017099,"Turn":17,"DayValue":"一,二,四,六","RecycleDate":"一,四"},{"StopId":6182,"StopName":"大眾六街181巷口至大眾路656號活動中心","ScheduleTime":"15:43","EstimateTime":"","CarInfo":"","Lon":120.124761,"Lat":23.020038,"Turn":18,"DayValue":"一,二,四,六","RecycleDate":"一,四"},{"StopId":6183,"StopName":"大眾路634巷750號","ScheduleTime":"15:47","EstimateTime":"","CarInfo":"","Lon":120.128224,"Lat":23.017441,"Turn":19,"DayValue":"一,二,四,六","RecycleDate":"一,四"},{"StopId":6184,"StopName":"北汕尾1路89號","ScheduleTime":"15:52","EstimateTime":"","CarInfo":"","Lon":120.1283281,"Lat":23.0307431,"Turn":20,"DayValue":"一,二,四,六","RecycleDate":"一,四"},{"StopId":6185,"StopName":"北汕尾1路96巷59號","ScheduleTime":"15:56","EstimateTime":"","CarInfo":"","Lon":120.1273552,"Lat":23.0314738,"Turn":21,"DayValue":"一,二,四,六","RecycleDate":"一,四"},{"StopId":6186,"StopName":"大眾5街40號","ScheduleTime":"16:02","EstimateTime":"","CarInfo":"","Lon":120.129332,"Lat":23.01579,"Turn":22,"DayValue":"一,二,四,六","RecycleDate":"一,四"},{"StopId":6187,"StopName":"四草大道80巷180號","ScheduleTime":"16:10","EstimateTime":"","CarInfo":"","Lon":120.1389125,"Lat":23.0000339,"Turn":23,"DayValue":"一,二,四,六","RecycleDate":"一,四"},{"StopId":6188,"StopName":"四草大道138之8號、438、486號686巷口、706號","ScheduleTime":"16:15","EstimateTime":"","CarInfo":"","Lon":120.1325168,"Lat":23.0147224,"Turn":24,"DayValue":"一,二,四,六","RecycleDate":"一,四"},{"StopId":6189,"StopName":"大眾街402號(四草大眾廟)","ScheduleTime":"16:22","EstimateTime":"","CarInfo":"","Lon":120.132396,"Lat":23.018464,"Turn":25,"DayValue":"一,二,四,六","RecycleDate":"一,四"},{"StopId":6190,"StopName":"北汕尾1路439巷72弄656號","ScheduleTime":"16:28","EstimateTime":"","CarInfo":"","Lon":120.141783,"Lat":23.0577131,"Turn":26,"DayValue":"一,二,四,六","RecycleDate":"一,四"},{"StopId":6191,"StopName":"媽祖宮1街345巷420號(鎮門宮)","ScheduleTime":"16:35","EstimateTime":"","CarInfo":"","Lon":120.1101368,"Lat":23.0208648,"Turn":27,"DayValue":"一,二,四,六","RecycleDate":"一,四"},{"StopId":6192,"StopName":"媽祖宮5街12號","ScheduleTime":"16:41","EstimateTime":"","CarInfo":"","Lon":120.124271,"Lat":23.037015,"Turn":28,"DayValue":"一,二,四,六","RecycleDate":"一,四"},{"StopId":6193,"StopName":"媽祖宮5街12號至138號","ScheduleTime":"16:46","EstimateTime":"","CarInfo":"","Lon":120.1243206,"Lat":23.0379231,"Turn":29,"DayValue":"一,二,四,六","RecycleDate":"一,四"},{"StopId":6194,"StopName":"媽祖宮2街186巷8號","ScheduleTime":"16:52","EstimateTime":"","CarInfo":"","Lon":120.1261751,"Lat":23.0390218,"Turn":30,"DayValue":"一,二,四,六","RecycleDate":"一,四"},{"StopId":6195,"StopName":"媽祖宮2街170號、152巷148號","ScheduleTime":"16:54","EstimateTime":"","CarInfo":"","Lon":120.1254339,"Lat":23.0380554,"Turn":31,"DayValue":"一,二,四,六","RecycleDate":"一,四"},{"StopId":6196,"StopName":"媽祖宮2街126巷6號","ScheduleTime":"16:57","EstimateTime":"","CarInfo":"","Lon":120.1261751,"Lat":23.0390218,"Turn":32,"DayValue":"一,二,四,六","RecycleDate":"一,四"},{"StopId":6197,"StopName":"媽祖宮1街10號","ScheduleTime":"17:02","EstimateTime":"","CarInfo":"","Lon":120.1240082,"Lat":23.0367453,"Turn":33,"DayValue":"一,二,四,六","RecycleDate":"一,四"},{"StopId":6198,"StopName":"媽祖宮2街口","ScheduleTime":"17:04","EstimateTime":"","CarInfo":"","Lon":120.1268426,"Lat":23.0389114,"Turn":34,"DayValue":"一,二,四,六","RecycleDate":"一,四"},{"StopId":6199,"StopName":"媽祖宮路231號","ScheduleTime":"17:07","EstimateTime":"","CarInfo":"","Lon":120.125232,"Lat":23.037175,"Turn":35,"DayValue":"一,二,四,六","RecycleDate":"一,四"},{"StopId":6200,"StopName":"媽祖宮路211號","ScheduleTime":"17:09","EstimateTime":"","CarInfo":"","Lon":120.126281,"Lat":23.037834,"Turn":36,"DayValue":"一,二,四,六","RecycleDate":"一,四"},{"StopId":6201,"StopName":"媽祖宮路188號","ScheduleTime":"17:12","EstimateTime":"","CarInfo":"","Lon":120.126724,"Lat":23.038357,"Turn":37,"DayValue":"一,二,四,六","RecycleDate":"一,四"},{"StopId":6202,"StopName":"媽祖宮路50號","ScheduleTime":"17:15","EstimateTime":"","CarInfo":"","Lon":120.12981,"Lat":23.039945,"Turn":38,"DayValue":"一,二,四,六","RecycleDate":"一,四"},{"StopId":6203,"StopName":"大眾1街69號","ScheduleTime":"18:16","EstimateTime":"","CarInfo":"","Lon":120.132075,"Lat":23.016377,"Turn":39,"DayValue":"一,二,四,六","RecycleDate":"一,四"},{"StopId":6204,"StopName":"四草大道681巷127之6號","ScheduleTime":"18:18","EstimateTime":"","CarInfo":"","Lon":120.1310796,"Lat":23.0143674,"Turn":40,"DayValue":"一,二,四,六","RecycleDate":"一,四"},{"StopId":6205,"StopName":"四草大道81巷2號","ScheduleTime":"18:22","EstimateTime":"","CarInfo":"","Lon":120.13549,"Lat":23.002235,"Turn":41,"DayValue":"一,二,四,六","RecycleDate":"一,四"},{"StopId":6206,"StopName":"四草大道81巷417號","ScheduleTime":"18:25","EstimateTime":"","CarInfo":"","Lon":120.135572,"Lat":23.002196,"Turn":42,"DayValue":"一,二,四,六","RecycleDate":"一,四"},{"StopId":6207,"StopName":"四草大道456號","ScheduleTime":"18:29","EstimateTime":"","CarInfo":"","Lon":120.13278,"Lat":23.022788,"Turn":43,"DayValue":"一,二,四,六","RecycleDate":"一,四"},{"StopId":6208,"StopName":"北汕尾1路83巷216號","ScheduleTime":"18:30","EstimateTime":"","CarInfo":"","Lon":120.127119,"Lat":23.007773,"Turn":44,"DayValue":"一,二,四,六","RecycleDate":"一,四"},{"StopId":6209,"StopName":"北汕尾1路240巷口","ScheduleTime":"18:33","EstimateTime":"","CarInfo":"","Lon":120.127315,"Lat":23.014835,"Turn":45,"DayValue":"一,二,四,六","RecycleDate":"一,四"},{"StopId":6210,"StopName":"大眾路780號","ScheduleTime":"18:35","EstimateTime":"","CarInfo":"","Lon":120.125738,"Lat":23.014253,"Turn":46,"DayValue":"一,二,四,六","RecycleDate":"一,四"},{"StopId":6211,"StopName":"大眾路809號","ScheduleTime":"18:38","EstimateTime":"","CarInfo":"","Lon":120.12523,"Lat":23.013519,"Turn":47,"DayValue":"一,二,四,六","RecycleDate":"一,四"},{"StopId":6212,"StopName":"北汕尾1路439巷47號","ScheduleTime":"18:42","EstimateTime":"","CarInfo":"","Lon":120.122289,"Lat":23.017832,"Turn":48,"DayValue":"一,二,四,六","RecycleDate":"一,四"},{"StopId":6213,"StopName":"大眾6街218號","ScheduleTime":"18:47","EstimateTime":"","CarInfo":"","Lon":120.12476,"Lat":23.020277,"Turn":49,"DayValue":"一,二,四,六","RecycleDate":"一,四"},{"StopId":6214,"StopName":"大眾3街口","ScheduleTime":"18:52","EstimateTime":"","CarInfo":"","Lon":120.128759,"Lat":23.017133,"Turn":50,"DayValue":"一,二,四,六","RecycleDate":"一,四"},{"StopId":6215,"StopName":"大眾1街口","ScheduleTime":"18:56","EstimateTime":"","CarInfo":"","Lon":120.131015,"Lat":23.01804,"Turn":51,"DayValue":"一,二,四,六","RecycleDate":"一,四"},{"StopId":6216,"StopName":"北汕尾1路550巷19之1號","ScheduleTime":"19:03","EstimateTime":"","CarInfo":"","Lon":120.122487,"Lat":23.0218,"Turn":52,"DayValue":"一,二,四,六","RecycleDate":"一,四"},{"StopId":6217,"StopName":"北汕尾1路800巷9弄53號","ScheduleTime":"19:07","EstimateTime":"","CarInfo":"","Lon":120.12924,"Lat":23.036708,"Turn":53,"DayValue":"一,二,四,六","RecycleDate":"一,四"},{"StopId":6218,"StopName":"媽祖宮路2號~252號","ScheduleTime":"19:12","EstimateTime":"","CarInfo":"","Lon":120.129848,"Lat":23.039892,"Turn":54,"DayValue":"一,二,四,六","RecycleDate":"一,四"},{"StopId":6219,"StopName":"媽祖宮1街136號(媽祖宮天后宮)","ScheduleTime":"19:17","EstimateTime":"","CarInfo":"","Lon":120.124457,"Lat":23.037207,"Turn":55,"DayValue":"一,二,四,六","RecycleDate":"一,四"}],"CarData":[],"RouteId":138,"RouteName":"安南21線","RouteInfo":"海中街138巷口~媽祖宮1街136號(媽祖宮天后宮)","IsWork":true}]