[{"StopData":[{"StopId":13289,"StopName":"聖和宮","ScheduleTime":"17:31","EstimateTime":"","CarInfo":"","Lon":120.177903,"Lat":23.238367,"Turn":1,"DayValue":"一,三,五,六","RecycleDate":"三,五"},{"StopId":13290,"StopName":"三民路濟生路路口","ScheduleTime":"17:35","EstimateTime":"","CarInfo":"","Lon":120.177272,"Lat":23.235252,"Turn":2,"DayValue":"一,三,五,六","RecycleDate":"三,五"},{"StopId":13291,"StopName":"重信路和平路路口","ScheduleTime":"17:43","EstimateTime":"","CarInfo":"","Lon":120.179447,"Lat":23.235488,"Turn":3,"DayValue":"一,三,五,六","RecycleDate":"三,五"},{"StopId":13292,"StopName":"和平路濟生路路口","ScheduleTime":"17:49","EstimateTime":"","CarInfo":"","Lon":120.178939,"Lat":23.233232,"Turn":4,"DayValue":"一,三,五,六","RecycleDate":"三,五"},{"StopId":13293,"StopName":"江家便當","ScheduleTime":"17:52","EstimateTime":"","CarInfo":"","Lon":120.177722,"Lat":23.231931,"Turn":5,"DayValue":"一,三,五,六","RecycleDate":"三,五"},{"StopId":13294,"StopName":"林園洗衣店","ScheduleTime":"17:57","EstimateTime":"","CarInfo":"","Lon":120.176769,"Lat":23.233896,"Turn":6,"DayValue":"一,三,五,六","RecycleDate":"三,五"},{"StopId":13295,"StopName":"全成電機前","ScheduleTime":"18:02","EstimateTime":"","CarInfo":"","Lon":120.177178,"Lat":23.234755,"Turn":7,"DayValue":"一,三,五,六","RecycleDate":"三,五"},{"StopId":13296,"StopName":"宮西路中正路路口","ScheduleTime":"18:05","EstimateTime":"","CarInfo":"","Lon":120.180122,"Lat":23.233835,"Turn":8,"DayValue":"一,三,五,六","RecycleDate":"三,五"},{"StopId":13297,"StopName":"華宗路中正路路口","ScheduleTime":"18:10","EstimateTime":"","CarInfo":"","Lon":120.183458,"Lat":23.238185,"Turn":9,"DayValue":"一,三,五,六","RecycleDate":"三,五"},{"StopId":13298,"StopName":"中正路新生路路口","ScheduleTime":"18:13","EstimateTime":"","CarInfo":"","Lon":120.181527,"Lat":23.236479,"Turn":10,"DayValue":"一,三,五,六","RecycleDate":"三,五"},{"StopId":13299,"StopName":"八二三超市","ScheduleTime":"18:17","EstimateTime":"","CarInfo":"","Lon":120.179647,"Lat":23.234836,"Turn":11,"DayValue":"一,三,五,六","RecycleDate":"三,五"},{"StopId":13300,"StopName":"中正路中山路路口","ScheduleTime":"18:20","EstimateTime":"","CarInfo":"","Lon":120.180534,"Lat":23.234577,"Turn":12,"DayValue":"一,三,五,六","RecycleDate":"三,五"},{"StopId":13301,"StopName":"中正路濟生路路口","ScheduleTime":"18:23","EstimateTime":"","CarInfo":"","Lon":120.17998299999999,"Lat":23.233031,"Turn":13,"DayValue":"一,三,五,六","RecycleDate":"三,五"},{"StopId":13302,"StopName":"中正路民權路路口","ScheduleTime":"18:26","EstimateTime":"","CarInfo":"","Lon":120.179672,"Lat":23.231474,"Turn":14,"DayValue":"一,三,五,六","RecycleDate":"三,五"},{"StopId":13303,"StopName":"綿和路成功路路口","ScheduleTime":"18:30","EstimateTime":"","CarInfo":"","Lon":120.181053,"Lat":23.233648,"Turn":15,"DayValue":"一,三,五,六","RecycleDate":"三,五"},{"StopId":13304,"StopName":"民生路濟生路路口","ScheduleTime":"18:38","EstimateTime":"","CarInfo":"","Lon":120.183879,"Lat":23.232271,"Turn":16,"DayValue":"一,三,五,六","RecycleDate":"三,五"},{"StopId":13305,"StopName":"南亞當舖(中華路三段23號)","ScheduleTime":"18:55","EstimateTime":"","CarInfo":"","Lon":120.18606,"Lat":23.237429,"Turn":17,"DayValue":"一,三,五,六","RecycleDate":"三,五"},{"StopId":13306,"StopName":"普濟宮前","ScheduleTime":"19:00","EstimateTime":"","CarInfo":"","Lon":120.185797,"Lat":23.23533,"Turn":18,"DayValue":"一,三,五,六","RecycleDate":"三,五"},{"StopId":13307,"StopName":"中山路華宗路路口","ScheduleTime":"19:05","EstimateTime":"","CarInfo":"","Lon":120.182653,"Lat":23.234224,"Turn":19,"DayValue":"一,三,五,六","RecycleDate":"三,五"},{"StopId":13308,"StopName":"華宗路新生路路口","ScheduleTime":"19:08","EstimateTime":"","CarInfo":"","Lon":120.182942,"Lat":23.235568,"Turn":20,"DayValue":"一,三,五,六","RecycleDate":"三,五"},{"StopId":13309,"StopName":"中學路16巷巷口","ScheduleTime":"19:20","EstimateTime":"","CarInfo":"","Lon":120.185631,"Lat":23.236332,"Turn":21,"DayValue":"一,三,五,六","RecycleDate":"三,五"},{"StopId":13310,"StopName":"大順路202號","ScheduleTime":"19:25","EstimateTime":"","CarInfo":"","Lon":120.190192,"Lat":23.241935,"Turn":22,"DayValue":"一,三,五,六","RecycleDate":"三,五"},{"StopId":13311,"StopName":"德安寮9之2號","ScheduleTime":"19:30","EstimateTime":"","CarInfo":"","Lon":120.190483,"Lat":23.249187,"Turn":23,"DayValue":"一,三,五,六","RecycleDate":"三,五"},{"StopId":13312,"StopName":"豐德汽車","ScheduleTime":"19:40","EstimateTime":"","CarInfo":"","Lon":120.184568,"Lat":23.239302,"Turn":24,"DayValue":"一,三,五,六","RecycleDate":"三,五"}],"CarData":[],"RouteId":287,"RouteName":"學甲-2(夜間)","RouteInfo":"聖和宮~豐德汽車","IsWork":false}]