[{"StopData":[{"StopId":6466,"StopName":"隆田里公有市場(中山路一段98號)","ScheduleTime":"16:55","EstimateTime":"","CarInfo":"","Lon":120.317011,"Lat":23.192801,"Turn":1,"DayValue":"一,二,四,六","RecycleDate":"二,六"},{"StopId":6467,"StopName":"仁愛街36號","ScheduleTime":"16:58","EstimateTime":"","CarInfo":"","Lon":120.316297,"Lat":23.19387,"Turn":2,"DayValue":"一,二,四,六","RecycleDate":"二,六"},{"StopId":6468,"StopName":"文化街42號","ScheduleTime":"17:00","EstimateTime":"","CarInfo":"","Lon":120.318238,"Lat":23.193826,"Turn":3,"DayValue":"一,二,四,六","RecycleDate":"二,六"},{"StopId":6469,"StopName":"新生街126-1號","ScheduleTime":"17:02","EstimateTime":"","CarInfo":"","Lon":120.3183333,"Lat":23.192531,"Turn":4,"DayValue":"一,二,四,六","RecycleDate":"二,六"},{"StopId":6470,"StopName":"中山路一段142號","ScheduleTime":"17:07","EstimateTime":"","CarInfo":"","Lon":120.31482,"Lat":23.192875,"Turn":5,"DayValue":"一,二,四,六","RecycleDate":"二,六"},{"StopId":6471,"StopName":"勝利路145號","ScheduleTime":"17:11","EstimateTime":"","CarInfo":"","Lon":120.3181139,"Lat":23.1961896,"Turn":6,"DayValue":"一,二,四,六","RecycleDate":"二,六"},{"StopId":6472,"StopName":"文化街78號","ScheduleTime":"17:14","EstimateTime":"","CarInfo":"","Lon":120.318229,"Lat":23.194733,"Turn":7,"DayValue":"一,二,四,六","RecycleDate":"二,六"},{"StopId":6473,"StopName":"四維街58號","ScheduleTime":"17:16","EstimateTime":"","CarInfo":"","Lon":120.31908,"Lat":23.195091,"Turn":8,"DayValue":"一,二,四,六","RecycleDate":"二,六"},{"StopId":6474,"StopName":"文化街97號","ScheduleTime":"17:17","EstimateTime":"","CarInfo":"","Lon":120.318281,"Lat":23.19548,"Turn":9,"DayValue":"一,二,四,六","RecycleDate":"二,六"},{"StopId":6475,"StopName":"忠孝街153號","ScheduleTime":"17:25","EstimateTime":"","CarInfo":"","Lon":120.315943,"Lat":23.19871,"Turn":10,"DayValue":"一,二,四,六","RecycleDate":"二,六"},{"StopId":6476,"StopName":"復興街208號","ScheduleTime":"17:31","EstimateTime":"","CarInfo":"","Lon":120.312835,"Lat":23.198101,"Turn":11,"DayValue":"一,二,四,六","RecycleDate":"二,六"},{"StopId":6477,"StopName":"興隆街280號","ScheduleTime":"17:34","EstimateTime":"","CarInfo":"","Lon":120.311293,"Lat":23.19763,"Turn":12,"DayValue":"一,二,四,六","RecycleDate":"二,六"},{"StopId":6478,"StopName":"興隆街15號","ScheduleTime":"17:39","EstimateTime":"","CarInfo":"","Lon":120.316537,"Lat":23.198218,"Turn":13,"DayValue":"一,二,四,六","RecycleDate":"二,六"},{"StopId":6479,"StopName":"勝利路176號","ScheduleTime":"17:42","EstimateTime":"","CarInfo":"","Lon":120.31815,"Lat":23.196417,"Turn":14,"DayValue":"一,二,四,六","RecycleDate":"二,六"},{"StopId":6480,"StopName":"中華路二段108巷31弄56號","ScheduleTime":"17:50","EstimateTime":"","CarInfo":"","Lon":120.316795,"Lat":23.199312,"Turn":15,"DayValue":"一,二,四,六","RecycleDate":"二,六"},{"StopId":6481,"StopName":"中華路二段190號","ScheduleTime":"17:54","EstimateTime":"","CarInfo":"","Lon":120.314527,"Lat":23.202638,"Turn":16,"DayValue":"一,二,四,六","RecycleDate":"二,六"},{"StopId":6482,"StopName":"中華路二段15巷16號","ScheduleTime":"17:59","EstimateTime":"","CarInfo":"","Lon":120.315827,"Lat":23.199159,"Turn":17,"DayValue":"一,二,四,六","RecycleDate":"二,六"},{"StopId":6483,"StopName":"勝利路48巷22號","ScheduleTime":"18:05","EstimateTime":"","CarInfo":"","Lon":120.315688,"Lat":23.19405,"Turn":18,"DayValue":"一,二,四,六","RecycleDate":"二,六"},{"StopId":6484,"StopName":"興隆街280號","ScheduleTime":"18:10","EstimateTime":"","CarInfo":"","Lon":120.311215,"Lat":23.197632,"Turn":19,"DayValue":"一,二,四,六","RecycleDate":"二,六"},{"StopId":6485,"StopName":"中山路二段60號","ScheduleTime":"18:15","EstimateTime":"","CarInfo":"","Lon":120.306746,"Lat":23.194437,"Turn":20,"DayValue":"一,二,四,六","RecycleDate":"二,六"},{"StopId":6486,"StopName":"中山路二段348號","ScheduleTime":"18:20","EstimateTime":"","CarInfo":"","Lon":120.297042,"Lat":23.198409,"Turn":21,"DayValue":"一,二,四,六","RecycleDate":"二,六"},{"StopId":6487,"StopName":"信義街一段90號","ScheduleTime":"18:30","EstimateTime":"","CarInfo":"","Lon":120.312681,"Lat":23.191845,"Turn":22,"DayValue":"一,二,四,六","RecycleDate":"二,六"},{"StopId":6488,"StopName":"中華路二段83巷3號","ScheduleTime":"18:35","EstimateTime":"","CarInfo":"","Lon":120.314319,"Lat":23.201439,"Turn":23,"DayValue":"一,二,四,六","RecycleDate":"二,六"},{"StopId":6489,"StopName":"官田里223-18號","ScheduleTime":"18:40","EstimateTime":"","CarInfo":"","Lon":120.334557,"Lat":23.183856,"Turn":24,"DayValue":"一,二,四,六","RecycleDate":"二,六"},{"StopId":6490,"StopName":"渡頭235號","ScheduleTime":"18:50","EstimateTime":"","CarInfo":"","Lon":120.338295,"Lat":23.174411,"Turn":25,"DayValue":"一,二,四,六","RecycleDate":"二,六"}],"CarData":[{"CarNo":"277-RK","Angle":265,"Lon":120.317054,"Lat":23.192846}],"RouteId":156,"RouteName":"官田-1","RouteInfo":"隆田里公有市場(中山路一段98號)~渡頭235號","IsWork":true}]