[{"StopData":[{"StopId":397,"StopName":"頂安里333號前福安里長(垃圾不落地)","ScheduleTime":"07:10","EstimateTime":"","CarInfo":"","Lon":120.349975,"Lat":23.347635,"Turn":1,"DayValue":"四","RecycleDate":""},{"StopId":398,"StopName":"嘉苳里47-1號本協部落(1-3號)(垃圾不落地)","ScheduleTime":"07:38","EstimateTime":"","CarInfo":"","Lon":120.38237,"Lat":23.354559,"Turn":2,"DayValue":"四","RecycleDate":""},{"StopId":399,"StopName":"土溝里53-1號無竹圍部落(垃圾不落地)","ScheduleTime":"07:53","EstimateTime":"","CarInfo":"","Lon":120.386197,"Lat":23.36679,"Turn":3,"DayValue":"四","RecycleDate":""},{"StopId":400,"StopName":"福安里16+8-8號安溪市場(垃圾不落地)","ScheduleTime":"08:38","EstimateTime":"","CarInfo":"","Lon":120.353748,"Lat":23.330362,"Turn":4,"DayValue":"四","RecycleDate":""},{"StopId":401,"StopName":"侯伯里156-1號尾厝部落(垃圾不落地)","ScheduleTime":"09:11","EstimateTime":"","CarInfo":"","Lon":120.359147,"Lat":23.369439,"Turn":5,"DayValue":"四","RecycleDate":""},{"StopId":402,"StopName":"菁寮里43號菁寮市場","ScheduleTime":"09:21","EstimateTime":"","CarInfo":"","Lon":120.335912,"Lat":23.378402,"Turn":6,"DayValue":"四","RecycleDate":""},{"StopId":403,"StopName":"竹新里9-60號新厝部落(高速公路旁住戶)(垃圾不落地)","ScheduleTime":"10:10","EstimateTime":"","CarInfo":"","Lon":120.3122,"Lat":23.334473,"Turn":7,"DayValue":"四","RecycleDate":""}],"CarData":[],"RouteId":216,"RouteName":"後壁-5-3(日間輔助點每週四)","RouteInfo":"頂安里333號前福安里長(垃圾不落地)~竹新里9-60號新厝部落(高速公路旁住戶)(垃圾不落地)","IsWork":false}]