[{"StopData":[{"StopId":3404,"StopName":"麗玉桶子雞河東里81-9號","ScheduleTime":"15:32","EstimateTime":"","CarInfo":"","Lon":120.4444504,"Lat":23.3468608,"Turn":1,"DayValue":"五","RecycleDate":""},{"StopId":3405,"StopName":"7-11仙草里6-30號","ScheduleTime":"15:40","EstimateTime":"","CarInfo":"","Lon":120.4722547,"Lat":23.3471804,"Turn":2,"DayValue":"五","RecycleDate":""},{"StopId":3406,"StopName":"和興石灰仙草里66-13號","ScheduleTime":"15:50","EstimateTime":"","CarInfo":"","Lon":120.4806411,"Lat":23.3416352,"Turn":3,"DayValue":"五","RecycleDate":""},{"StopId":3407,"StopName":"粗坑86-1號","ScheduleTime":"15:55","EstimateTime":"","CarInfo":"","Lon":120.5000463,"Lat":23.3402004,"Turn":4,"DayValue":"五","RecycleDate":""},{"StopId":3408,"StopName":"火王爺24之8號","ScheduleTime":"16:05","EstimateTime":"","CarInfo":"","Lon":120.504708,"Lat":23.3383511,"Turn":5,"DayValue":"五","RecycleDate":""},{"StopId":3409,"StopName":"慈雲宮53之5號","ScheduleTime":"16:15","EstimateTime":"","CarInfo":"","Lon":120.5048788,"Lat":23.3338591,"Turn":6,"DayValue":"五","RecycleDate":""},{"StopId":3410,"StopName":"關嶺66-3號","ScheduleTime":"16:25","EstimateTime":"","CarInfo":"","Lon":120.5030564,"Lat":23.3334234,"Turn":7,"DayValue":"五","RecycleDate":""},{"StopId":3411,"StopName":"仙草里130號","ScheduleTime":"16:35","EstimateTime":"","CarInfo":"","Lon":120.4740489,"Lat":23.3449661,"Turn":8,"DayValue":"五","RecycleDate":""},{"StopId":3412,"StopName":"龍安府仙草里24-17號","ScheduleTime":"16:40","EstimateTime":"","CarInfo":"","Lon":120.4756947,"Lat":23.3451907,"Turn":9,"DayValue":"五","RecycleDate":""},{"StopId":3413,"StopName":"7-11仙草里6-30號","ScheduleTime":"16:45","EstimateTime":"","CarInfo":"","Lon":120.4722579,"Lat":23.3471873,"Turn":10,"DayValue":"五","RecycleDate":""},{"StopId":3414,"StopName":"虎山里68-3號","ScheduleTime":"16:50","EstimateTime":"","CarInfo":"","Lon":120.4638136,"Lat":23.3524245,"Turn":11,"DayValue":"五","RecycleDate":""},{"StopId":3415,"StopName":"虎山里1-23號","ScheduleTime":"16:56","EstimateTime":"","CarInfo":"","Lon":120.4476451,"Lat":23.3490782,"Turn":12,"DayValue":"五","RecycleDate":""},{"StopId":3416,"StopName":"虎山里46-3號","ScheduleTime":"17:10","EstimateTime":"","CarInfo":"","Lon":120.4550051,"Lat":23.355331,"Turn":13,"DayValue":"五","RecycleDate":""},{"StopId":3417,"StopName":"河東國小河東里83-1號","ScheduleTime":"17:15","EstimateTime":"","CarInfo":"","Lon":120.437986,"Lat":23.3441811,"Turn":14,"DayValue":"五","RecycleDate":""},{"StopId":3418,"StopName":"河東里60號","ScheduleTime":"17:20","EstimateTime":"","CarInfo":"","Lon":120.4343494,"Lat":23.3433062,"Turn":15,"DayValue":"五","RecycleDate":""},{"StopId":3419,"StopName":"河東里122-14號","ScheduleTime":"17:25","EstimateTime":"","CarInfo":"","Lon":120.428265,"Lat":23.3449135,"Turn":16,"DayValue":"五","RecycleDate":""},{"StopId":3420,"StopName":"東昌傢俱河東里141-10號","ScheduleTime":"17:30","EstimateTime":"","CarInfo":"","Lon":120.4234611,"Lat":23.3459068,"Turn":17,"DayValue":"五","RecycleDate":""},{"StopId":3421,"StopName":"河東里36-12號","ScheduleTime":"17:35","EstimateTime":"","CarInfo":"","Lon":120.430086,"Lat":23.344147,"Turn":18,"DayValue":"五","RecycleDate":""},{"StopId":3422,"StopName":"河東里2鄰18號","ScheduleTime":"17:40","EstimateTime":"","CarInfo":"","Lon":120.4342203,"Lat":23.3413939,"Turn":19,"DayValue":"五","RecycleDate":""},{"StopId":3423,"StopName":"河東派出所河東里3號","ScheduleTime":"17:50","EstimateTime":"","CarInfo":"","Lon":120.4356266,"Lat":23.3426496,"Turn":20,"DayValue":"五","RecycleDate":""}],"CarData":[],"RouteId":88,"RouteName":"白河-3-5","RouteInfo":"麗玉桶子雞河東里81-9號~河東派出所河東里3號","IsWork":false}]