[{"StopData":[{"StopId":6379,"StopName":"忠孝路373號","ScheduleTime":"18:04","EstimateTime":"","CarInfo":"","Lon":120.170548,"Lat":23.169394,"Turn":1,"DayValue":"一,三,五,六","RecycleDate":"三,六"},{"StopId":6380,"StopName":"忠孝路203號","ScheduleTime":"18:08","EstimateTime":"","CarInfo":"","Lon":120.172737,"Lat":23.167867,"Turn":2,"DayValue":"一,三,五,六","RecycleDate":"三,六"},{"StopId":6381,"StopName":"忠孝路85號","ScheduleTime":"18:12","EstimateTime":"","CarInfo":"","Lon":120.174586,"Lat":23.165879,"Turn":3,"DayValue":"一,三,五,六","RecycleDate":"三,六"},{"StopId":6382,"StopName":"忠孝路5號（公所）","ScheduleTime":"18:16","EstimateTime":"","CarInfo":"","Lon":120.177049,"Lat":23.165417,"Turn":4,"DayValue":"一,三,五,六","RecycleDate":"三,六"},{"StopId":6383,"StopName":"忠孝路東路19號","ScheduleTime":"18:19","EstimateTime":"","CarInfo":"","Lon":120.180279,"Lat":23.164503,"Turn":5,"DayValue":"一,三,五,六","RecycleDate":"三,六"},{"StopId":6384,"StopName":"進學路170號","ScheduleTime":"18:22","EstimateTime":"","CarInfo":"","Lon":120.17927,"Lat":23.164088,"Turn":6,"DayValue":"一,三,五,六","RecycleDate":"三,六"},{"StopId":6385,"StopName":"進學路300號","ScheduleTime":"18:26","EstimateTime":"","CarInfo":"","Lon":120.174433,"Lat":23.164175,"Turn":7,"DayValue":"一,三,五,六","RecycleDate":"三,六"},{"StopId":6386,"StopName":"進學路169號","ScheduleTime":"18:29","EstimateTime":"","CarInfo":"","Lon":120.176997,"Lat":23.164018,"Turn":8,"DayValue":"一,三,五,六","RecycleDate":"三,六"},{"StopId":6387,"StopName":"文化路132號","ScheduleTime":"18:32","EstimateTime":"","CarInfo":"","Lon":120.179342,"Lat":23.16319,"Turn":9,"DayValue":"一,三,五,六","RecycleDate":"三,六"},{"StopId":6388,"StopName":"文化路250號","ScheduleTime":"18:34","EstimateTime":"","CarInfo":"","Lon":120.175898,"Lat":23.163158,"Turn":10,"DayValue":"一,三,五,六","RecycleDate":"三,六"},{"StopId":6389,"StopName":"文化路349號","ScheduleTime":"18:36","EstimateTime":"","CarInfo":"","Lon":120.17295,"Lat":23.163081,"Turn":11,"DayValue":"一,三,五,六","RecycleDate":"三,六"},{"StopId":6390,"StopName":"文化路225號","ScheduleTime":"18:38","EstimateTime":"","CarInfo":"","Lon":120.176632,"Lat":23.163061,"Turn":12,"DayValue":"一,三,五,六","RecycleDate":"三,六"},{"StopId":6391,"StopName":"文化路93號","ScheduleTime":"18:42","EstimateTime":"","CarInfo":"","Lon":120.180435,"Lat":23.163109,"Turn":13,"DayValue":"一,三,五,六","RecycleDate":"三,六"},{"StopId":6392,"StopName":"和平街42號","ScheduleTime":"18:44","EstimateTime":"","CarInfo":"","Lon":120.179353,"Lat":23.162545,"Turn":14,"DayValue":"一,三,五,六","RecycleDate":"三,六"},{"StopId":6393,"StopName":"和平街210號","ScheduleTime":"18:46","EstimateTime":"","CarInfo":"","Lon":120.174098,"Lat":23.16216,"Turn":15,"DayValue":"一,三,五,六","RecycleDate":"三,六"},{"StopId":6394,"StopName":"義民街249號","ScheduleTime":"18:50","EstimateTime":"","CarInfo":"","Lon":120.174145,"Lat":23.161293,"Turn":16,"DayValue":"一,三,五,六","RecycleDate":"三,六"},{"StopId":6395,"StopName":"義民街49號","ScheduleTime":"18:56","EstimateTime":"","CarInfo":"","Lon":120.17996,"Lat":23.161763,"Turn":17,"DayValue":"一,三,五,六","RecycleDate":"三,六"},{"StopId":6396,"StopName":"佳東路523號","ScheduleTime":"19:04","EstimateTime":"","CarInfo":"","Lon":120.182101,"Lat":23.165913,"Turn":18,"DayValue":"一,三,五,六","RecycleDate":"三,六"},{"StopId":6397,"StopName":"青年街30號","ScheduleTime":"19:14","EstimateTime":"","CarInfo":"","Lon":120.181214,"Lat":23.166879,"Turn":19,"DayValue":"一,三,五,六","RecycleDate":"三,六"},{"StopId":6398,"StopName":"六安街141號","ScheduleTime":"19:28","EstimateTime":"","CarInfo":"","Lon":120.17953,"Lat":23.169483,"Turn":20,"DayValue":"一,三,五,六","RecycleDate":"三,六"},{"StopId":6399,"StopName":"林園街124號","ScheduleTime":"19:40","EstimateTime":"","CarInfo":"","Lon":120.177163,"Lat":23.1658,"Turn":21,"DayValue":"一,三,五,六","RecycleDate":"三,六"},{"StopId":6400,"StopName":"林園街212號（名人大廈）","ScheduleTime":"19:44","EstimateTime":"","CarInfo":"","Lon":120.174823,"Lat":23.166231,"Turn":22,"DayValue":"一,三,五,六","RecycleDate":"三,六"},{"StopId":6401,"StopName":"忠孝路166號","ScheduleTime":"19:58","EstimateTime":"","CarInfo":"","Lon":120.171331,"Lat":23.168969,"Turn":23,"DayValue":"一,三,五,六","RecycleDate":"三,六"},{"StopId":6402,"StopName":"佳北路419號","ScheduleTime":"20:02","EstimateTime":"","CarInfo":"","Lon":120.171783,"Lat":23.170261,"Turn":24,"DayValue":"一,三,五,六","RecycleDate":"三,六"},{"StopId":6403,"StopName":"忠孝路296巷口","ScheduleTime":"20:06","EstimateTime":"","CarInfo":"","Lon":120.16872,"Lat":23.170749,"Turn":25,"DayValue":"一,三,五,六","RecycleDate":"三,六"}],"CarData":[],"RouteId":152,"RouteName":"佳里-5(夜 )","RouteInfo":"忠孝路373號~忠孝路296巷口","IsWork":false}]