[{"StopData":[{"StopId":14841,"StopName":"明興路721號前","ScheduleTime":"16:50","EstimateTime":"","CarInfo":"","Lon":120.181058,"Lat":22.93708,"Turn":1,"DayValue":"一,二,四,六","RecycleDate":"一,四"},{"StopId":14842,"StopName":"明興路655巷口","ScheduleTime":"16:53","EstimateTime":"","CarInfo":"","Lon":120.181042,"Lat":22.938774,"Turn":2,"DayValue":"一,二,四,六","RecycleDate":"一,四"},{"StopId":14843,"StopName":"明興路629之2號","ScheduleTime":"16:56","EstimateTime":"","CarInfo":"","Lon":120.181457,"Lat":22.940071,"Turn":3,"DayValue":"一,二,四,六","RecycleDate":"一,四"},{"StopId":14844,"StopName":"明興路611巷口","ScheduleTime":"16:59","EstimateTime":"","CarInfo":"","Lon":120.181771,"Lat":22.941134,"Turn":4,"DayValue":"一,二,四,六","RecycleDate":"一,四"},{"StopId":14845,"StopName":"明興路415巷口","ScheduleTime":"17:03","EstimateTime":"","CarInfo":"","Lon":120.184065,"Lat":22.948728,"Turn":5,"DayValue":"一,二,四,六","RecycleDate":"一,四"},{"StopId":14846,"StopName":"明興路371巷口","ScheduleTime":"17:06","EstimateTime":"","CarInfo":"","Lon":120.184311,"Lat":22.949569,"Turn":6,"DayValue":"一,二,四,六","RecycleDate":"一,四"},{"StopId":14847,"StopName":"明興路321巷口","ScheduleTime":"17:09","EstimateTime":"","CarInfo":"","Lon":120.184643,"Lat":22.95067,"Turn":7,"DayValue":"一,二,四,六","RecycleDate":"一,四"},{"StopId":14848,"StopName":"金華路一段100巷口邊橋上","ScheduleTime":"17:15","EstimateTime":"","CarInfo":"","Lon":120.192531,"Lat":22.963902,"Turn":8,"DayValue":"一,二,四,六","RecycleDate":"一,四"},{"StopId":14849,"StopName":"金華路一段號130號邊空地","ScheduleTime":"17:18","EstimateTime":"","CarInfo":"","Lon":120.189728,"Lat":22.964476,"Turn":9,"DayValue":"一,二,四,六","RecycleDate":"一,四"},{"StopId":14850,"StopName":"金華路一段200巷口","ScheduleTime":"17:22","EstimateTime":"","CarInfo":"","Lon":120.189998,"Lat":22.966311,"Turn":10,"DayValue":"一,二,四,六","RecycleDate":"一,四"},{"StopId":14851,"StopName":"金華路一段230巷口","ScheduleTime":"17:26","EstimateTime":"","CarInfo":"","Lon":120.190093,"Lat":22.966937,"Turn":11,"DayValue":"一,二,四,六","RecycleDate":"一,四"},{"StopId":14852,"StopName":"金華路一段530巷口","ScheduleTime":"17:30","EstimateTime":"","CarInfo":"","Lon":120.190863,"Lat":22.974167,"Turn":12,"DayValue":"一,二,四,六","RecycleDate":"一,四"},{"StopId":14853,"StopName":"大成路二段223巷口","ScheduleTime":"17:34","EstimateTime":"","CarInfo":"","Lon":120.191775,"Lat":22.974873,"Turn":13,"DayValue":"一,二,四,六","RecycleDate":"一,四"},{"StopId":14854,"StopName":"大成路二段143巷口","ScheduleTime":"17:37","EstimateTime":"","CarInfo":"","Lon":120.193568,"Lat":22.974891,"Turn":14,"DayValue":"一,二,四,六","RecycleDate":"一,四"},{"StopId":14855,"StopName":"大成路二段81巷口","ScheduleTime":"17:41","EstimateTime":"","CarInfo":"","Lon":120.194911,"Lat":22.974913,"Turn":15,"DayValue":"一,二,四,六","RecycleDate":"一,四"},{"StopId":14856,"StopName":"永成路三段459號","ScheduleTime":"17:45","EstimateTime":"","CarInfo":"","Lon":120.19535,"Lat":22.973164,"Turn":16,"DayValue":"一,二,四,六","RecycleDate":"一,四"},{"StopId":14857,"StopName":"永成路三段347巷口","ScheduleTime":"17:49","EstimateTime":"","CarInfo":"","Lon":120.195328,"Lat":22.970578,"Turn":17,"DayValue":"一,二,四,六","RecycleDate":"一,四"},{"StopId":14858,"StopName":"永成路三段267號","ScheduleTime":"17:52","EstimateTime":"","CarInfo":"","Lon":120.195322,"Lat":22.969162,"Turn":18,"DayValue":"一,二,四,六","RecycleDate":"一,四"},{"StopId":14859,"StopName":"新都路353巷口","ScheduleTime":"17:56","EstimateTime":"","CarInfo":"","Lon":120.196034,"Lat":22.966905,"Turn":19,"DayValue":"一,二,四,六","RecycleDate":"一,四"},{"StopId":14860,"StopName":"永成路三段372巷51弄6號","ScheduleTime":"18:01","EstimateTime":"","CarInfo":"","Lon":120.196702,"Lat":22.968486,"Turn":20,"DayValue":"一,二,四,六","RecycleDate":"一,四"},{"StopId":14861,"StopName":"永成路三段398巷42號","ScheduleTime":"18:03","EstimateTime":"","CarInfo":"","Lon":120.196483,"Lat":22.968738,"Turn":21,"DayValue":"一,二,四,六","RecycleDate":"一,四"},{"StopId":14862,"StopName":"永成路三段432巷31號","ScheduleTime":"18:05","EstimateTime":"","CarInfo":"","Lon":120.196189,"Lat":22.969644,"Turn":22,"DayValue":"一,二,四,六","RecycleDate":"一,四"},{"StopId":14863,"StopName":"永成路三段372巷3號","ScheduleTime":"18:08","EstimateTime":"","CarInfo":"","Lon":120.195786,"Lat":22.968191,"Turn":23,"DayValue":"一,二,四,六","RecycleDate":"一,四"},{"StopId":14864,"StopName":"永成路三段430號","ScheduleTime":"18:12","EstimateTime":"","CarInfo":"","Lon":120.195545,"Lat":22.96914,"Turn":24,"DayValue":"一,二,四,六","RecycleDate":"一,四"},{"StopId":14865,"StopName":"永成路三段546號","ScheduleTime":"18:16","EstimateTime":"","CarInfo":"","Lon":120.195482,"Lat":22.970961,"Turn":25,"DayValue":"一,二,四,六","RecycleDate":"一,四"},{"StopId":14866,"StopName":"大成路二段31號","ScheduleTime":"18:20","EstimateTime":"","CarInfo":"","Lon":120.196351,"Lat":22.974951,"Turn":26,"DayValue":"一,二,四,六","RecycleDate":"一,四"},{"StopId":14867,"StopName":"西門路一段173巷口","ScheduleTime":"18:24","EstimateTime":"","CarInfo":"","Lon":120.197658,"Lat":22.973385,"Turn":27,"DayValue":"一,二,四,六","RecycleDate":"一,四"},{"StopId":14868,"StopName":"永成路三段157巷邊空地","ScheduleTime":"20:25","EstimateTime":"","CarInfo":"","Lon":120.195341,"Lat":22.966459,"Turn":28,"DayValue":"一,二,四,六","RecycleDate":"一,四"},{"StopId":14869,"StopName":"永成路三段111號","ScheduleTime":"20:29","EstimateTime":"","CarInfo":"","Lon":120.195378,"Lat":22.965363,"Turn":29,"DayValue":"一,二,四,六","RecycleDate":"一,四"},{"StopId":14870,"StopName":"永成路三段與永興三街巷口","ScheduleTime":"20:32","EstimateTime":"","CarInfo":"","Lon":120.195356,"Lat":22.96472,"Turn":30,"DayValue":"一,二,四,六","RecycleDate":"一,四"},{"StopId":14871,"StopName":"永成路三段至善橋頭","ScheduleTime":"20:34","EstimateTime":"","CarInfo":"","Lon":120.195332,"Lat":22.964135,"Turn":31,"DayValue":"一,二,四,六","RecycleDate":"一,四"},{"StopId":14872,"StopName":"中華南路二段54號","ScheduleTime":"20:39","EstimateTime":"","CarInfo":"","Lon":120.194211,"Lat":22.962179,"Turn":32,"DayValue":"一,二,四,六","RecycleDate":"一,四"},{"StopId":14873,"StopName":"中華南路二段134號","ScheduleTime":"20:41","EstimateTime":"","CarInfo":"","Lon":120.191991,"Lat":22.961751,"Turn":33,"DayValue":"一,二,四,六","RecycleDate":"一,四"},{"StopId":14874,"StopName":"中華南路二段218號邊","ScheduleTime":"20:44","EstimateTime":"","CarInfo":"","Lon":120.190124,"Lat":22.961365,"Turn":34,"DayValue":"一,二,四,六","RecycleDate":"一,四"},{"StopId":14875,"StopName":"新都路483號","ScheduleTime":"20:47","EstimateTime":"","CarInfo":"","Lon":120.191778,"Lat":22.967169,"Turn":35,"DayValue":"一,二,四,六","RecycleDate":"一,四"},{"StopId":14876,"StopName":"德興路18號前","ScheduleTime":"20:51","EstimateTime":"","CarInfo":"","Lon":120.192194,"Lat":22.966792,"Turn":36,"DayValue":"一,二,四,六","RecycleDate":"一,四"},{"StopId":14877,"StopName":"德興路40號前","ScheduleTime":"20:55","EstimateTime":"","CarInfo":"","Lon":120.192156,"Lat":22.966102,"Turn":37,"DayValue":"一,二,四,六","RecycleDate":"一,四"},{"StopId":14878,"StopName":"德興路90號","ScheduleTime":"20:58","EstimateTime":"","CarInfo":"","Lon":120.192494,"Lat":22.964657,"Turn":38,"DayValue":"一,二,四,六","RecycleDate":"一,四"},{"StopId":14879,"StopName":"德興路130巷口","ScheduleTime":"21:00","EstimateTime":"","CarInfo":"","Lon":120.192509,"Lat":22.963351,"Turn":39,"DayValue":"一,二,四,六","RecycleDate":"一,四"},{"StopId":14880,"StopName":"德興路158號邊空地","ScheduleTime":"21:04","EstimateTime":"","CarInfo":"","Lon":120.192487,"Lat":22.96266,"Turn":40,"DayValue":"一,二,四,六","RecycleDate":"一,四"}],"CarData":[],"RouteId":190,"RouteName":"南區-01","RouteInfo":"明興路721號前~德興路158號邊空地","IsWork":true}]