[{"StopData":[{"StopId":12915,"StopName":"忠孝路203號諸山軒佛店","ScheduleTime":"17:04","EstimateTime":"","CarInfo":"","Lon":120.270187,"Lat":23.311057,"Turn":1,"DayValue":"一,二,四,六","RecycleDate":"二,六"},{"StopId":12916,"StopName":"南門路201巷71號福南宮","ScheduleTime":"17:12","EstimateTime":"","CarInfo":"","Lon":120.272516,"Lat":23.311325,"Turn":2,"DayValue":"一,二,四,六","RecycleDate":"二,六"},{"StopId":12917,"StopName":"忠孝路138號益三薑母鴨","ScheduleTime":"17:17","EstimateTime":"","CarInfo":"","Lon":120.270358,"Lat":23.311227,"Turn":3,"DayValue":"一,二,四,六","RecycleDate":"二,六"},{"StopId":12918,"StopName":"月津路71號(信博釣具行)","ScheduleTime":"17:24","EstimateTime":"","CarInfo":"","Lon":120.265923,"Lat":23.314208,"Turn":4,"DayValue":"一,二,四,六","RecycleDate":"二,六"},{"StopId":12919,"StopName":"康樂路18號","ScheduleTime":"17:27","EstimateTime":"","CarInfo":"","Lon":120.268232,"Lat":23.318307,"Turn":5,"DayValue":"一,二,四,六","RecycleDate":"二,六"},{"StopId":12920,"StopName":"中山路2-10號(北華宮)","ScheduleTime":"17:30","EstimateTime":"","CarInfo":"","Lon":120.268415,"Lat":23.3196,"Turn":6,"DayValue":"一,二,四,六","RecycleDate":"二,六"},{"StopId":12921,"StopName":"後厝50號(祥哥彩卷行)","ScheduleTime":"17:37","EstimateTime":"","CarInfo":"","Lon":120.27042899999999,"Lat":23.321005,"Turn":7,"DayValue":"一,二,四,六","RecycleDate":"二,六"},{"StopId":12922,"StopName":"後厝71-1號(冠鑫洗車場)","ScheduleTime":"17:48","EstimateTime":"","CarInfo":"","Lon":120.270613,"Lat":23.320641,"Turn":9,"DayValue":"一,二,四,六","RecycleDate":"二,六"},{"StopId":12923,"StopName":"康樂路173號對面","ScheduleTime":"17:56","EstimateTime":"","CarInfo":"","Lon":120.270069,"Lat":23.321108,"Turn":10,"DayValue":"一,二,四,六","RecycleDate":"二,六"},{"StopId":12924,"StopName":"過港25~28號","ScheduleTime":"18:00","EstimateTime":"","CarInfo":"","Lon":120.270163,"Lat":23.3173,"Turn":11,"DayValue":"一,二,四,六","RecycleDate":"二,六"},{"StopId":12925,"StopName":"西門路14號","ScheduleTime":"18:03","EstimateTime":"","CarInfo":"","Lon":120.26637,"Lat":23.318349,"Turn":12,"DayValue":"一,二,四,六","RecycleDate":"二,六"},{"StopId":12926,"StopName":"武廟路18號(中國時報社)","ScheduleTime":"18:09","EstimateTime":"","CarInfo":"","Lon":120.265764,"Lat":23.321289,"Turn":13,"DayValue":"一,二,四,六","RecycleDate":"二,六"},{"StopId":12927,"StopName":"文武街72巷21號(孟娟婚紗)","ScheduleTime":"18:17","EstimateTime":"","CarInfo":"","Lon":120.266932,"Lat":23.322995,"Turn":14,"DayValue":"一,二,四,六","RecycleDate":"二,六"},{"StopId":12928,"StopName":"武廟路73號","ScheduleTime":"18:22","EstimateTime":"","CarInfo":"","Lon":120.265563,"Lat":23.322976,"Turn":15,"DayValue":"一,二,四,六","RecycleDate":"二,六"},{"StopId":12929,"StopName":"武廟路6號(大眾廟)","ScheduleTime":"18:24","EstimateTime":"","CarInfo":"","Lon":120.265728,"Lat":23.320505,"Turn":16,"DayValue":"一,二,四,六","RecycleDate":"二,六"},{"StopId":12930,"StopName":"月津路12巷8號","ScheduleTime":"18:32","EstimateTime":"","CarInfo":"","Lon":120.266383,"Lat":23.316559,"Turn":17,"DayValue":"一,二,四,六","RecycleDate":"二,六"},{"StopId":12931,"StopName":"朝琴路192號(允成學府)","ScheduleTime":"18:42","EstimateTime":"","CarInfo":"","Lon":120.273603,"Lat":23.324175,"Turn":18,"DayValue":"一,二,四,六","RecycleDate":"二,六"},{"StopId":12932,"StopName":"汫水里溪洲寮2之7號(天祥輪胎)","ScheduleTime":"18:47","EstimateTime":"","CarInfo":"","Lon":120.2814319,"Lat":23.3271936,"Turn":19,"DayValue":"一,二,四,六","RecycleDate":"二,六"},{"StopId":12933,"StopName":"汫水里溪洲寮2-1號(鄰長家)","ScheduleTime":"18:54","EstimateTime":"","CarInfo":"","Lon":120.289027,"Lat":23.329528,"Turn":20,"DayValue":"一,二,四,六","RecycleDate":"二,六"},{"StopId":12934,"StopName":"土庫路2-37號(麗園山莊)","ScheduleTime":"19:01","EstimateTime":"","CarInfo":"","Lon":120.275665,"Lat":23.322913,"Turn":21,"DayValue":"一,二,四,六","RecycleDate":"二,六"},{"StopId":12935,"StopName":"土庫路69~17號","ScheduleTime":"19:15","EstimateTime":"","CarInfo":"","Lon":120.276011,"Lat":23.32237,"Turn":22,"DayValue":"一,二,四,六","RecycleDate":"二,六"},{"StopId":12936,"StopName":"土庫路74-21號(53將軍廟前)","ScheduleTime":"19:24","EstimateTime":"","CarInfo":"","Lon":120.276056,"Lat":23.32238,"Turn":23,"DayValue":"一,二,四,六","RecycleDate":"二,六"},{"StopId":13837,"StopName":"清?路22號(廣仙香舖)","ScheduleTime":"17:40","EstimateTime":"","CarInfo":"","Lon":120.268381,"Lat":23.323303,"Turn":8,"DayValue":"一,二,四,六","RecycleDate":"二,六"}],"CarData":[],"RouteId":316,"RouteName":"鹽水-4","RouteInfo":"忠孝路203號諸山軒佛店~土庫路74-21號(53將軍廟前)","IsWork":true}]