[{"StopData":[{"StopId":10348,"StopName":"台南市中西區西和路140號旁巷口","ScheduleTime":"14:40","EstimateTime":"","CarInfo":"","Lon":120.190081,"Lat":23.001167,"Turn":1,"DayValue":"一,二,四,六","RecycleDate":"一,四"},{"StopId":10349,"StopName":"台南市中西區和善街與永和街口","ScheduleTime":"14:44","EstimateTime":"","CarInfo":"","Lon":120.190933,"Lat":23.001007,"Turn":2,"DayValue":"一,二,四,六","RecycleDate":"一,四"},{"StopId":10350,"StopName":"台南市中西區協和街82號與和善街口","ScheduleTime":"14:47","EstimateTime":"","CarInfo":"","Lon":120.191487,"Lat":23.000426,"Turn":3,"DayValue":"一,二,四,六","RecycleDate":"一,四"},{"StopId":10351,"StopName":"台南市中西區臨安路一段121號旁巷口","ScheduleTime":"14:51","EstimateTime":"","CarInfo":"","Lon":120.191305,"Lat":22.999795,"Turn":4,"DayValue":"一,二,四,六","RecycleDate":"一,四"},{"StopId":10352,"StopName":"台南市中西區中和街36號","ScheduleTime":"14:55","EstimateTime":"","CarInfo":"","Lon":120.190742,"Lat":23.000393,"Turn":5,"DayValue":"一,二,四,六","RecycleDate":"一,四"},{"StopId":10353,"StopName":"台南市中西區中和街70號","ScheduleTime":"14:58","EstimateTime":"","CarInfo":"","Lon":120.191129,"Lat":23.000712,"Turn":6,"DayValue":"一,二,四,六","RecycleDate":"一,四"},{"StopId":10354,"StopName":"台南市中西區民族路三段295號","ScheduleTime":"15:02","EstimateTime":"","CarInfo":"","Lon":120.192196,"Lat":23.00008,"Turn":7,"DayValue":"一,二,四,六","RecycleDate":"一,四"},{"StopId":10355,"StopName":"台南市中西區民族路三段259號旁空地","ScheduleTime":"15:05","EstimateTime":"","CarInfo":"","Lon":120.193085,"Lat":22.999772,"Turn":8,"DayValue":"一,二,四,六","RecycleDate":"一,四"},{"StopId":10356,"StopName":"台南市中西區民族路三段225號","ScheduleTime":"15:08","EstimateTime":"","CarInfo":"","Lon":120.19391,"Lat":22.999488,"Turn":9,"DayValue":"一,二,四,六","RecycleDate":"一,四"},{"StopId":10357,"StopName":"台南市中西區金華路四段69號旁巷口","ScheduleTime":"15:12","EstimateTime":"","CarInfo":"","Lon":120.194882,"Lat":22.998786,"Turn":10,"DayValue":"一,二,四,六","RecycleDate":"一,四"},{"StopId":10358,"StopName":"台南市中西區金華路四段47巷口","ScheduleTime":"15:15","EstimateTime":"","CarInfo":"","Lon":120.194687,"Lat":22.998303,"Turn":11,"DayValue":"一,二,四,六","RecycleDate":"一,四"},{"StopId":10359,"StopName":"台南市中西區民權路三段234巷4號","ScheduleTime":"15:20","EstimateTime":"","CarInfo":"","Lon":120.193468,"Lat":22.998336,"Turn":12,"DayValue":"一,二,四,六","RecycleDate":"一,四"},{"StopId":10360,"StopName":"台南市中西區民權路三段與大新街22巷尾","ScheduleTime":"15:23","EstimateTime":"","CarInfo":"","Lon":120.192446,"Lat":22.998372,"Turn":13,"DayValue":"一,二,四,六","RecycleDate":"一,四"},{"StopId":10361,"StopName":"台南市中西區民權路三段320巷、大新街口","ScheduleTime":"15:26","EstimateTime":"","CarInfo":"","Lon":120.19143,"Lat":22.998095,"Turn":14,"DayValue":"一,二,四,六","RecycleDate":"一,四"},{"StopId":10362,"StopName":"台南市中西區民權路三段370號旁","ScheduleTime":"15:30","EstimateTime":"","CarInfo":"","Lon":120.189568,"Lat":22.998637,"Turn":15,"DayValue":"一,二,四,六","RecycleDate":"一,四"},{"StopId":10363,"StopName":"台南市中西區民權路三段418號公寓前","ScheduleTime":"15:33","EstimateTime":"","CarInfo":"","Lon":120.188357,"Lat":22.999056,"Turn":16,"DayValue":"一,二,四,六","RecycleDate":"一,四"},{"StopId":10364,"StopName":"台南市中西區西和路26號","ScheduleTime":"15:36","EstimateTime":"","CarInfo":"","Lon":120.187865,"Lat":22.999256,"Turn":17,"DayValue":"一,二,四,六","RecycleDate":"一,四"},{"StopId":10365,"StopName":"台南市中西區西和路98號與美麗街口","ScheduleTime":"15:39","EstimateTime":"","CarInfo":"","Lon":120.188864,"Lat":23.000352,"Turn":18,"DayValue":"一,二,四,六","RecycleDate":"一,四"},{"StopId":10366,"StopName":"台南市中西區和真街53號(明華園對面)","ScheduleTime":"15:42","EstimateTime":"","CarInfo":"","Lon":120.18957,"Lat":23.000389,"Turn":19,"DayValue":"一,二,四,六","RecycleDate":"一,四"},{"StopId":10367,"StopName":"台南市中西區和真街與永和街口","ScheduleTime":"15:44","EstimateTime":"","CarInfo":"","Lon":120.189745,"Lat":23.0002,"Turn":20,"DayValue":"一,二,四,六","RecycleDate":"一,四"},{"StopId":10368,"StopName":"台南市中西區和真街7號旁","ScheduleTime":"15:47","EstimateTime":"","CarInfo":"","Lon":120.19041,"Lat":22.999509,"Turn":21,"DayValue":"一,二,四,六","RecycleDate":"一,四"},{"StopId":10369,"StopName":"台南市中西區臨安路一段63號","ScheduleTime":"15:51","EstimateTime":"","CarInfo":"","Lon":120.190237,"Lat":22.998914,"Turn":22,"DayValue":"一,二,四,六","RecycleDate":"一,四"},{"StopId":10370,"StopName":"台南市中西區  臨安路一段與大新街7巷口","ScheduleTime":"15:55","EstimateTime":"","CarInfo":"","Lon":120.190332,"Lat":22.998759,"Turn":23,"DayValue":"一,二,四,六","RecycleDate":"一,四"},{"StopId":10371,"StopName":"台南市中西區臨安路一段與大新街21巷口","ScheduleTime":"15:57","EstimateTime":"","CarInfo":"","Lon":120.190827,"Lat":22.999122,"Turn":24,"DayValue":"一,二,四,六","RecycleDate":"一,四"},{"StopId":10372,"StopName":"台南市中西區臨安路一段與大新街47巷口","ScheduleTime":"15:59","EstimateTime":"","CarInfo":"","Lon":120.191245,"Lat":22.999508,"Turn":25,"DayValue":"一,二,四,六","RecycleDate":"一,四"},{"StopId":10373,"StopName":"台南市中西區大新街71、72巷口","ScheduleTime":"16:02","EstimateTime":"","CarInfo":"","Lon":120.192133,"Lat":22.999586999999998,"Turn":26,"DayValue":"一,二,四,六","RecycleDate":"一,四"},{"StopId":10374,"StopName":"台南市中西區大新街47、48巷口","ScheduleTime":"16:05","EstimateTime":"","CarInfo":"","Lon":120.191928,"Lat":22.999088,"Turn":27,"DayValue":"一,二,四,六","RecycleDate":"一,四"},{"StopId":10375,"StopName":"台南市中西區大新街21、22巷口","ScheduleTime":"16:08","EstimateTime":"","CarInfo":"","Lon":120.191723,"Lat":22.998588,"Turn":28,"DayValue":"一,二,四,六","RecycleDate":"一,四"},{"StopId":10376,"StopName":"台南市中西區大福街3巷口","ScheduleTime":"16:12","EstimateTime":"","CarInfo":"","Lon":120.193296,"Lat":22.998318,"Turn":29,"DayValue":"一,二,四,六","RecycleDate":"一,四"},{"StopId":10377,"StopName":"台南市中西區大福街24、27巷口","ScheduleTime":"16:15","EstimateTime":"","CarInfo":"","Lon":120.193607,"Lat":22.998824,"Turn":30,"DayValue":"一,二,四,六","RecycleDate":"一,四"},{"StopId":10378,"StopName":"台南市中西區金華路四段15號(協進國小旁)","ScheduleTime":"16:19","EstimateTime":"","CarInfo":"","Lon":120.194051,"Lat":22.996717,"Turn":31,"DayValue":"一,二,四,六","RecycleDate":"一,四"},{"StopId":10379,"StopName":"台南市中西區民生路二段232號(協進館旁)","ScheduleTime":"16:23","EstimateTime":"","CarInfo":"","Lon":120.192543,"Lat":22.996685,"Turn":32,"DayValue":"一,二,四,六","RecycleDate":"一,四"},{"StopId":10380,"StopName":"台南市中西區民生路二段276號、西寧街口","ScheduleTime":"16:26","EstimateTime":"","CarInfo":"","Lon":120.191564,"Lat":22.99699,"Turn":33,"DayValue":"一,二,四,六","RecycleDate":"一,四"},{"StopId":10381,"StopName":"台南市中西區民生路二段306號","ScheduleTime":"16:29","EstimateTime":"","CarInfo":"","Lon":120.190747,"Lat":22.997245,"Turn":34,"DayValue":"一,二,四,六","RecycleDate":"一,四"},{"StopId":10382,"StopName":"台南市中西區民生路二段332號","ScheduleTime":"16:32","EstimateTime":"","CarInfo":"","Lon":120.190145,"Lat":22.997431,"Turn":35,"DayValue":"一,二,四,六","RecycleDate":"一,四"},{"StopId":10383,"StopName":"台南市中西區民生路二段388號","ScheduleTime":"16:35","EstimateTime":"","CarInfo":"","Lon":120.188527,"Lat":22.997685,"Turn":36,"DayValue":"一,二,四,六","RecycleDate":"一,四"},{"StopId":10384,"StopName":"台南市中西區民權路三段389號","ScheduleTime":"16:38","EstimateTime":"","CarInfo":"","Lon":120.189013,"Lat":22.998761,"Turn":37,"DayValue":"一,二,四,六","RecycleDate":"一,四"},{"StopId":10385,"StopName":"台南市中西區臨安路一段33巷口","ScheduleTime":"16:40","EstimateTime":"","CarInfo":"","Lon":120.189562,"Lat":22.99823,"Turn":38,"DayValue":"一,二,四,六","RecycleDate":"一,四"},{"StopId":10386,"StopName":"台南市中西區臨安路一段15巷口","ScheduleTime":"16:42","EstimateTime":"","CarInfo":"","Lon":120.189353,"Lat":22.997928,"Turn":39,"DayValue":"一,二,四,六","RecycleDate":"一,四"},{"StopId":10387,"StopName":"台南市中西區  臨安路一段與西寧街口","ScheduleTime":"16:45","EstimateTime":"","CarInfo":"","Lon":120.189523,"Lat":22.997831,"Turn":40,"DayValue":"一,二,四,六","RecycleDate":"一,四"},{"StopId":10388,"StopName":"台南市中西區臨安路一段與濟生街口","ScheduleTime":"16:47","EstimateTime":"","CarInfo":"","Lon":120.189694,"Lat":22.998106,"Turn":41,"DayValue":"一,二,四,六","RecycleDate":"一,四"},{"StopId":10389,"StopName":"台南市中西區民權路三段347號旁","ScheduleTime":"16:49","EstimateTime":"","CarInfo":"","Lon":120.190343,"Lat":22.998235,"Turn":42,"DayValue":"一,二,四,六","RecycleDate":"一,四"},{"StopId":10390,"StopName":"台南市中西區民權路三段313號","ScheduleTime":"16:52","EstimateTime":"","CarInfo":"","Lon":120.191089,"Lat":22.998043,"Turn":43,"DayValue":"一,二,四,六","RecycleDate":"一,四"},{"StopId":10391,"StopName":"台南市中西區民權路四段240號","ScheduleTime":"16:55","EstimateTime":"","CarInfo":"","Lon":120.179519,"Lat":22.99921,"Turn":44,"DayValue":"一,二,四,六","RecycleDate":"一,四"},{"StopId":10392,"StopName":"台南市中西區西賢一街148巷31號","ScheduleTime":"16:57","EstimateTime":"","CarInfo":"","Lon":120.178807,"Lat":23.002116,"Turn":45,"DayValue":"一,二,四,六","RecycleDate":"一,四"},{"StopId":10393,"StopName":"台南市中西區西賢一街109巷尾","ScheduleTime":"17:00","EstimateTime":"","CarInfo":"","Lon":120.17639,"Lat":23.001993,"Turn":46,"DayValue":"一,二,四,六","RecycleDate":"一,四"},{"StopId":10394,"StopName":"台南市中西區西賢二街139號","ScheduleTime":"17:03","EstimateTime":"","CarInfo":"","Lon":120.17644,"Lat":23.001358,"Turn":47,"DayValue":"一,二,四,六","RecycleDate":"一,四"},{"StopId":10395,"StopName":"台南市中西區西賢二街127巷口","ScheduleTime":"17:04","EstimateTime":"","CarInfo":"","Lon":120.176464,"Lat":23.001024,"Turn":48,"DayValue":"一,二,四,六","RecycleDate":"一,四"},{"StopId":10396,"StopName":"台南市中西區西賢二街109巷口","ScheduleTime":"17:05","EstimateTime":"","CarInfo":"","Lon":120.176491,"Lat":23.000625,"Turn":49,"DayValue":"一,二,四,六","RecycleDate":"一,四"},{"StopId":10397,"StopName":"台南市中西區西賢二街99巷與西賢一街51巷口","ScheduleTime":"17:06","EstimateTime":"","CarInfo":"","Lon":120.17665,"Lat":23.00026,"Turn":50,"DayValue":"一,二,四,六","RecycleDate":"一,四"},{"StopId":10398,"StopName":"台南市中西區西賢一街49號旁","ScheduleTime":"17:08","EstimateTime":"","CarInfo":"","Lon":120.177656,"Lat":23.000277,"Turn":51,"DayValue":"一,二,四,六","RecycleDate":"一,四"},{"StopId":10399,"StopName":"台南市中西區西賢一街27巷26號","ScheduleTime":"17:09","EstimateTime":"","CarInfo":"","Lon":120.177092,"Lat":22.999773,"Turn":52,"DayValue":"一,二,四,六","RecycleDate":"一,四"},{"StopId":10400,"StopName":"台南市中西區華平路810號","ScheduleTime":"17:12","EstimateTime":"","CarInfo":"","Lon":120.175875,"Lat":23.000488,"Turn":53,"DayValue":"一,二,四,六","RecycleDate":"一,四"},{"StopId":10401,"StopName":"台南市中西區華平路850號","ScheduleTime":"17:13","EstimateTime":"","CarInfo":"","Lon":120.175817,"Lat":23.001196,"Turn":54,"DayValue":"一,二,四,六","RecycleDate":"一,四"},{"StopId":10402,"StopName":"台南市中西區民權路四段與湖美二街口","ScheduleTime":"18:40","EstimateTime":"","CarInfo":"","Lon":120.18204,"Lat":22.999223,"Turn":55,"DayValue":"一,二,四,六","RecycleDate":"一,四"},{"StopId":10403,"StopName":"台南市中西區湖美二街14巷口","ScheduleTime":"18:42","EstimateTime":"","CarInfo":"","Lon":120.182019,"Lat":22.999691,"Turn":56,"DayValue":"一,二,四,六","RecycleDate":"一,四"},{"StopId":10404,"StopName":"台南市中西區湖美二街26巷口","ScheduleTime":"18:44","EstimateTime":"","CarInfo":"","Lon":120.182001,"Lat":23.00023,"Turn":57,"DayValue":"一,二,四,六","RecycleDate":"一,四"},{"StopId":10405,"StopName":"台南市中西區湖美一街32巷1號","ScheduleTime":"18:46","EstimateTime":"","CarInfo":"","Lon":120.181991,"Lat":23.000535,"Turn":58,"DayValue":"一,二,四,六","RecycleDate":"一,四"},{"StopId":10406,"StopName":"台南市中西區湖美二街42巷口對面","ScheduleTime":"18:48","EstimateTime":"","CarInfo":"","Lon":120.181972,"Lat":23.001102,"Turn":59,"DayValue":"一,二,四,六","RecycleDate":"一,四"},{"StopId":10407,"StopName":"台南市中西區湖美二街62巷口","ScheduleTime":"18:50","EstimateTime":"","CarInfo":"","Lon":120.181901,"Lat":23.001838,"Turn":60,"DayValue":"一,二,四,六","RecycleDate":"一,四"},{"StopId":10408,"StopName":"台南市中西區湖美二街92巷口","ScheduleTime":"18:52","EstimateTime":"","CarInfo":"","Lon":120.181905,"Lat":23.002317,"Turn":61,"DayValue":"一,二,四,六","RecycleDate":"一,四"},{"StopId":10409,"StopName":"台南市中西區湖美二街100巷口","ScheduleTime":"18:54","EstimateTime":"","CarInfo":"","Lon":120.181915,"Lat":23.002743,"Turn":62,"DayValue":"一,二,四,六","RecycleDate":"一,四"},{"StopId":10410,"StopName":"台南市中西區湖美二街106巷2號","ScheduleTime":"18:56","EstimateTime":"","CarInfo":"","Lon":120.181949,"Lat":23.003133,"Turn":63,"DayValue":"一,二,四,六","RecycleDate":"一,四"},{"StopId":10411,"StopName":"台南市中西區湖美二街與西湖街口","ScheduleTime":"18:58","EstimateTime":"","CarInfo":"","Lon":120.181985,"Lat":23.003803,"Turn":64,"DayValue":"一,二,四,六","RecycleDate":"一,四"},{"StopId":10412,"StopName":"台南市中西區湖美二街142巷口","ScheduleTime":"19:00","EstimateTime":"","CarInfo":"","Lon":120.182025,"Lat":23.004496,"Turn":65,"DayValue":"一,二,四,六","RecycleDate":"一,四"},{"StopId":10413,"StopName":"台南市中西區湖美一街與和緯路口","ScheduleTime":"19:02","EstimateTime":"","CarInfo":"","Lon":120.18118,"Lat":23.004851,"Turn":66,"DayValue":"一,二,四,六","RecycleDate":"一,四"},{"StopId":10414,"StopName":"台南市中西區湖美一街與湖美街138巷口","ScheduleTime":"19:04","EstimateTime":"","CarInfo":"","Lon":120.181149,"Lat":23.004347,"Turn":67,"DayValue":"一,二,四,六","RecycleDate":"一,四"},{"StopId":10415,"StopName":"台南市中西區湖美一街121巷口","ScheduleTime":"19:07","EstimateTime":"","CarInfo":"","Lon":120.181124,"Lat":23.003335,"Turn":68,"DayValue":"一,二,四,六","RecycleDate":"一,四"},{"StopId":10416,"StopName":"台南市中西區湖美一街115巷口","ScheduleTime":"19:10","EstimateTime":"","CarInfo":"","Lon":120.181138,"Lat":23.002932,"Turn":69,"DayValue":"一,二,四,六","RecycleDate":"一,四"},{"StopId":10417,"StopName":"台南市中西區湖美一街109巷口","ScheduleTime":"19:13","EstimateTime":"","CarInfo":"","Lon":120.181151,"Lat":23.002569,"Turn":70,"DayValue":"一,二,四,六","RecycleDate":"一,四"},{"StopId":10418,"StopName":"台南市中西區湖美一街103巷與92巷口","ScheduleTime":"19:15","EstimateTime":"","CarInfo":"","Lon":120.181164,"Lat":23.00219,"Turn":71,"DayValue":"一,二,四,六","RecycleDate":"一,四"},{"StopId":10419,"StopName":"台南市中西區湖美一街49巷口","ScheduleTime":"19:18","EstimateTime":"","CarInfo":"","Lon":120.181203,"Lat":23.001031,"Turn":72,"DayValue":"一,二,四,六","RecycleDate":"一,四"},{"StopId":10420,"StopName":"台南市中西區湖美一街43巷口","ScheduleTime":"19:20","EstimateTime":"","CarInfo":"","Lon":120.181213,"Lat":23.000731,"Turn":73,"DayValue":"一,二,四,六","RecycleDate":"一,四"},{"StopId":10421,"StopName":"台南市中西區湖美一街33巷口","ScheduleTime":"19:23","EstimateTime":"","CarInfo":"","Lon":120.181229,"Lat":23.000184,"Turn":74,"DayValue":"一,二,四,六","RecycleDate":"一,四"},{"StopId":10422,"StopName":"台南市中西區湖美一街27巷口","ScheduleTime":"19:25","EstimateTime":"","CarInfo":"","Lon":120.18124,"Lat":22.999839,"Turn":75,"DayValue":"一,二,四,六","RecycleDate":"一,四"},{"StopId":10423,"StopName":"台南市中西區湖美一街21巷口","ScheduleTime":"19:27","EstimateTime":"","CarInfo":"","Lon":120.18125,"Lat":22.999515,"Turn":76,"DayValue":"一,二,四,六","RecycleDate":"一,四"},{"StopId":10424,"StopName":"台南市中西區湖美一街與民權路四段路口","ScheduleTime":"19:30","EstimateTime":"","CarInfo":"","Lon":120.181228,"Lat":22.999209,"Turn":77,"DayValue":"一,二,四,六","RecycleDate":"一,四"},{"StopId":10425,"StopName":"台南市中西區湖美街12巷口","ScheduleTime":"19:33","EstimateTime":"","CarInfo":"","Lon":120.180162,"Lat":22.999622,"Turn":78,"DayValue":"一,二,四,六","RecycleDate":"一,四"},{"StopId":10426,"StopName":"台南市中西區湖美街22巷口","ScheduleTime":"19:36","EstimateTime":"","CarInfo":"","Lon":120.18014,"Lat":23.000095,"Turn":79,"DayValue":"一,二,四,六","RecycleDate":"一,四"},{"StopId":10427,"StopName":"台南市中西區湖美街32巷口","ScheduleTime":"19:38","EstimateTime":"","CarInfo":"","Lon":120.180122,"Lat":23.000577,"Turn":80,"DayValue":"一,二,四,六","RecycleDate":"一,四"},{"StopId":10428,"StopName":"台南市中西區湖美街46巷口","ScheduleTime":"19:40","EstimateTime":"","CarInfo":"","Lon":120.18011,"Lat":23.000862,"Turn":81,"DayValue":"一,二,四,六","RecycleDate":"一,四"},{"StopId":10429,"StopName":"台南市中西區湖美街60巷口","ScheduleTime":"19:43","EstimateTime":"","CarInfo":"","Lon":120.180147,"Lat":23.001245,"Turn":82,"DayValue":"一,二,四,六","RecycleDate":"一,四"},{"StopId":10430,"StopName":"台南市中西區湖美活動中心","ScheduleTime":"19:45","EstimateTime":"","CarInfo":"","Lon":120.181076,"Lat":23.001274,"Turn":83,"DayValue":"一,二,四,六","RecycleDate":"一,四"},{"StopId":10431,"StopName":"台南市中西區湖美街70巷6號","ScheduleTime":"19:47","EstimateTime":"","CarInfo":"","Lon":120.180461,"Lat":23.002173,"Turn":84,"DayValue":"一,二,四,六","RecycleDate":"一,四"},{"StopId":10432,"StopName":"台南市中西區湖美街82巷口","ScheduleTime":"19:53","EstimateTime":"","CarInfo":"","Lon":120.180035,"Lat":23.002636,"Turn":85,"DayValue":"一,二,四,六","RecycleDate":"一,四"},{"StopId":10433,"StopName":"台南市中西區湖美街104巷口","ScheduleTime":"19:56","EstimateTime":"","CarInfo":"","Lon":120.180023,"Lat":23.002903,"Turn":86,"DayValue":"一,二,四,六","RecycleDate":"一,四"},{"StopId":10434,"StopName":"台南市中西區湖美街106號（玉宇別墅）","ScheduleTime":"19:58","EstimateTime":"","CarInfo":"","Lon":120.180005,"Lat":23.003338,"Turn":87,"DayValue":"一,二,四,六","RecycleDate":"一,四"},{"StopId":10435,"StopName":"台南市中西區西湖街288號對面","ScheduleTime":"20:02","EstimateTime":"","CarInfo":"","Lon":120.180403,"Lat":23.003692,"Turn":88,"DayValue":"一,二,四,六","RecycleDate":"一,四"},{"StopId":10436,"StopName":"台南市中西區湖美街263巷口","ScheduleTime":"20:06","EstimateTime":"","CarInfo":"","Lon":120.179919,"Lat":23.004549,"Turn":89,"DayValue":"一,二,四,六","RecycleDate":"一,四"},{"StopId":10437,"StopName":"台南市中西區湖美街215巷口","ScheduleTime":"20:08","EstimateTime":"","CarInfo":"","Lon":120.179871,"Lat":23.003696,"Turn":90,"DayValue":"一,二,四,六","RecycleDate":"一,四"},{"StopId":10438,"StopName":"台南市中西區湖美街177巷口","ScheduleTime":"20:10","EstimateTime":"","CarInfo":"","Lon":120.179904,"Lat":23.002887,"Turn":91,"DayValue":"一,二,四,六","RecycleDate":"一,四"},{"StopId":10439,"StopName":"台南市中西區湖美街113巷口","ScheduleTime":"20:12","EstimateTime":"","CarInfo":"","Lon":120.179942,"Lat":23.002023,"Turn":92,"DayValue":"一,二,四,六","RecycleDate":"一,四"},{"StopId":10440,"StopName":"台南市中西區湖美街101巷口","ScheduleTime":"20:14","EstimateTime":"","CarInfo":"","Lon":120.179961,"Lat":23.001592,"Turn":93,"DayValue":"一,二,四,六","RecycleDate":"一,四"},{"StopId":10441,"StopName":"台南市中西區湖美街87巷口","ScheduleTime":"20:16","EstimateTime":"","CarInfo":"","Lon":120.179981,"Lat":23.001127,"Turn":94,"DayValue":"一,二,四,六","RecycleDate":"一,四"},{"StopId":10442,"StopName":"台南市中西區湖美街47巷口","ScheduleTime":"20:18","EstimateTime":"","CarInfo":"","Lon":120.180011,"Lat":23.000441,"Turn":95,"DayValue":"一,二,四,六","RecycleDate":"一,四"},{"StopId":10443,"StopName":"台南市中西區湖美街31巷口","ScheduleTime":"20:20","EstimateTime":"","CarInfo":"","Lon":120.180034,"Lat":22.999905,"Turn":96,"DayValue":"一,二,四,六","RecycleDate":"一,四"},{"StopId":10444,"StopName":"台南市中西區湖美街15巷9號旁","ScheduleTime":"20:22","EstimateTime":"","CarInfo":"","Lon":120.179739,"Lat":22.999492,"Turn":97,"DayValue":"一,二,四,六","RecycleDate":"一,四"},{"StopId":10445,"StopName":"台南市中西區西賢街與西賢一街56巷尾","ScheduleTime":"20:23","EstimateTime":"","CarInfo":"","Lon":120.178955,"Lat":23.000407,"Turn":98,"DayValue":"一,二,四,六","RecycleDate":"一,四"},{"StopId":10446,"StopName":"台南市中西區西賢街73號旁","ScheduleTime":"20:24","EstimateTime":"","CarInfo":"","Lon":120.178921,"Lat":23.001246,"Turn":99,"DayValue":"一,二,四,六","RecycleDate":"一,四"},{"StopId":10447,"StopName":"台南市中西區西賢一街148巷31號對面","ScheduleTime":"20:26","EstimateTime":"","CarInfo":"","Lon":120.178794,"Lat":23.002031,"Turn":100,"DayValue":"一,二,四,六","RecycleDate":"一,四"},{"StopId":10448,"StopName":"台南市中西區西賢一街182巷口","ScheduleTime":"20:27","EstimateTime":"","CarInfo":"","Lon":120.178859,"Lat":23.002677,"Turn":101,"DayValue":"一,二,四,六","RecycleDate":"一,四"},{"StopId":10449,"StopName":"台南市中西區西賢一街212巷口","ScheduleTime":"20:30","EstimateTime":"","CarInfo":"","Lon":120.17883,"Lat":23.003286,"Turn":102,"DayValue":"一,二,四,六","RecycleDate":"一,四"},{"StopId":10450,"StopName":"台南市中西區西賢街與西賢一街230巷尾","ScheduleTime":"20:32","EstimateTime":"","CarInfo":"","Lon":120.178823,"Lat":23.003884,"Turn":103,"DayValue":"一,二,四,六","RecycleDate":"一,四"},{"StopId":10451,"StopName":"台南市中西區西賢街與西賢一街258巷50號對面","ScheduleTime":"20:35","EstimateTime":"","CarInfo":"","Lon":120.178843,"Lat":23.004365,"Turn":104,"DayValue":"一,二,四,六","RecycleDate":"一,四"},{"StopId":10452,"StopName":"台南市中西區西賢一街187巷120號對面","ScheduleTime":"20:38","EstimateTime":"","CarInfo":"","Lon":120.176955,"Lat":23.004557,"Turn":105,"DayValue":"一,二,四,六","RecycleDate":"一,四"},{"StopId":10453,"StopName":"台南市中西區西賢一街187巷156號對面","ScheduleTime":"20:40","EstimateTime":"","CarInfo":"","Lon":120.176272,"Lat":23.00443,"Turn":106,"DayValue":"一,二,四,六","RecycleDate":"一,四"},{"StopId":10454,"StopName":"台南市中西區西賢一街187巷80號對面","ScheduleTime":"20:43","EstimateTime":"","CarInfo":"","Lon":120.176405,"Lat":23.003851,"Turn":107,"DayValue":"一,二,四,六","RecycleDate":"一,四"},{"StopId":10455,"StopName":"台南市中西區西賢一街187巷20號對面","ScheduleTime":"20:46","EstimateTime":"","CarInfo":"","Lon":120.177169,"Lat":23.003825,"Turn":108,"DayValue":"一,二,四,六","RecycleDate":"一,四"},{"StopId":10456,"StopName":"台南市中西區西賢一街157號","ScheduleTime":"20:48","EstimateTime":"","CarInfo":"","Lon":120.177535,"Lat":23.003176,"Turn":109,"DayValue":"一,二,四,六","RecycleDate":"一,四"},{"StopId":10457,"StopName":"台南市中西區西賢一街109巷旁(公園)","ScheduleTime":"20:50","EstimateTime":"","CarInfo":"","Lon":120.177585,"Lat":23.001965,"Turn":110,"DayValue":"一,二,四,六","RecycleDate":"一,四"},{"StopId":10458,"StopName":"台南市中西區西賢一街95巷口","ScheduleTime":"20:53","EstimateTime":"","CarInfo":"","Lon":120.177597,"Lat":23.00166,"Turn":111,"DayValue":"一,二,四,六","RecycleDate":"一,四"},{"StopId":10459,"StopName":"台南市中西區西賢一街85巷口","ScheduleTime":"20:55","EstimateTime":"","CarInfo":"","Lon":120.177607,"Lat":23.001415,"Turn":112,"DayValue":"一,二,四,六","RecycleDate":"一,四"},{"StopId":10460,"StopName":"台南市中西區西賢一街71巷口","ScheduleTime":"20:57","EstimateTime":"","CarInfo":"","Lon":120.177618,"Lat":23.001147,"Turn":113,"DayValue":"一,二,四,六","RecycleDate":"一,四"},{"StopId":10461,"StopName":"台南市中西區西賢一街57巷口","ScheduleTime":"20:59","EstimateTime":"","CarInfo":"","Lon":120.177637,"Lat":23.000493,"Turn":114,"DayValue":"一,二,四,六","RecycleDate":"一,四"},{"StopId":10462,"StopName":"台南市中西區西賢一街27巷口","ScheduleTime":"21:02","EstimateTime":"","CarInfo":"","Lon":120.177667,"Lat":22.999806,"Turn":115,"DayValue":"一,二,四,六","RecycleDate":"一,四"},{"StopId":10463,"StopName":"台南市中西區西賢一街182巷口","ScheduleTime":"21:05","EstimateTime":"","CarInfo":"","Lon":120.177676,"Lat":23.002748,"Turn":116,"DayValue":"一,二,四,六","RecycleDate":"一,四"},{"StopId":10464,"StopName":"台南市中西區西賢一街230巷口","ScheduleTime":"21:07","EstimateTime":"","CarInfo":"","Lon":120.17763,"Lat":23.003948,"Turn":117,"DayValue":"一,二,四,六","RecycleDate":"一,四"},{"StopId":10465,"StopName":"台南市中西區西賢一街260號","ScheduleTime":"21:10","EstimateTime":"","CarInfo":"","Lon":120.177602,"Lat":23.004618,"Turn":118,"DayValue":"一,二,四,六","RecycleDate":"一,四"},{"StopId":10466,"StopName":"台南市中西區和緯路五段287號","ScheduleTime":"21:12","EstimateTime":"","CarInfo":"","Lon":120.179413,"Lat":23.005028,"Turn":119,"DayValue":"一,二,四,六","RecycleDate":"一,四"}],"CarData":[],"RouteId":354,"RouteName":"西區-1","RouteInfo":"台南市中西區西和路140號旁巷口~台南市中西區和緯路五段287號","IsWork":true}]