[{"StopData":[{"StopId":2815,"StopName":"中華路785號","ScheduleTime":"16:45","EstimateTime":"","CarInfo":"","Lon":120.2262987,"Lat":23.0186319,"Turn":1,"DayValue":"一,二,四,六","RecycleDate":"二,六"},{"StopId":2816,"StopName":"中華西街83號","ScheduleTime":"16:51","EstimateTime":"","CarInfo":"","Lon":120.2266755,"Lat":23.0143573,"Turn":2,"DayValue":"一,二,四,六","RecycleDate":"二,六"},{"StopId":2817,"StopName":"中華路605號","ScheduleTime":"17:06","EstimateTime":"","CarInfo":"","Lon":120.23053,"Lat":23.013728,"Turn":3,"DayValue":"一,二,四,六","RecycleDate":"二,六"},{"StopId":2818,"StopName":"中山南路153-1號","ScheduleTime":"17:18","EstimateTime":"","CarInfo":"","Lon":120.22997,"Lat":23.013286,"Turn":4,"DayValue":"一,二,四,六","RecycleDate":"二,六"},{"StopId":2819,"StopName":"中山南路43巷39號","ScheduleTime":"17:29","EstimateTime":"","CarInfo":"","Lon":120.2261764,"Lat":23.0132232,"Turn":5,"DayValue":"一,二,四,六","RecycleDate":"二,六"},{"StopId":2820,"StopName":"中華西街127巷30弄1號","ScheduleTime":"17:40","EstimateTime":"","CarInfo":"","Lon":120.2249212,"Lat":23.0147256,"Turn":6,"DayValue":"一,二,四,六","RecycleDate":"二,六"},{"StopId":2821,"StopName":"大橋一街30號","ScheduleTime":"17:43","EstimateTime":"","CarInfo":"","Lon":120.2251768,"Lat":23.0154913,"Turn":7,"DayValue":"一,二,四,六","RecycleDate":"二,六"},{"StopId":2822,"StopName":"中華西街122巷62號(安康里活動中心)","ScheduleTime":"17:48","EstimateTime":"","CarInfo":"","Lon":120.227937,"Lat":23.015663,"Turn":8,"DayValue":"一,二,四,六","RecycleDate":"二,六"},{"StopId":2823,"StopName":"東橋三橋476號","ScheduleTime":"18:55","EstimateTime":"","CarInfo":"","Lon":120.2323728,"Lat":23.0242137,"Turn":9,"DayValue":"一,二,四,六","RecycleDate":"二,六"},{"StopId":2824,"StopName":"東橋八街23號","ScheduleTime":"19:02","EstimateTime":"","CarInfo":"","Lon":120.232943,"Lat":23.0205174,"Turn":10,"DayValue":"一,二,四,六","RecycleDate":"二,六"},{"StopId":2825,"StopName":"大橋一街31巷63號","ScheduleTime":"19:16","EstimateTime":"","CarInfo":"","Lon":120.2255332,"Lat":23.0175769,"Turn":11,"DayValue":"一,二,四,六","RecycleDate":"二,六"},{"StopId":2826,"StopName":"中華路829號","ScheduleTime":"19:21","EstimateTime":"","CarInfo":"","Lon":120.221281,"Lat":23.021559,"Turn":12,"DayValue":"一,二,四,六","RecycleDate":"二,六"},{"StopId":2827,"StopName":"大橋二街57巷43號","ScheduleTime":"19:27","EstimateTime":"","CarInfo":"","Lon":120.2239908,"Lat":23.0173495,"Turn":13,"DayValue":"一,二,四,六","RecycleDate":"二,六"},{"StopId":2828,"StopName":"大橋一街31巷32號","ScheduleTime":"19:41","EstimateTime":"","CarInfo":"","Lon":120.2251017,"Lat":23.0165335,"Turn":14,"DayValue":"一,二,四,六","RecycleDate":"二,六"},{"StopId":2829,"StopName":"大橋一街106號","ScheduleTime":"19:41","EstimateTime":"","CarInfo":"","Lon":120.2270671,"Lat":23.0165755,"Turn":15,"DayValue":"一,二,四,六","RecycleDate":"二,六"},{"StopId":2830,"StopName":"中華路619巷88弄72號","ScheduleTime":"19:48","EstimateTime":"","CarInfo":"","Lon":120.228963,"Lat":23.014765,"Turn":16,"DayValue":"一,二,四,六","RecycleDate":"二,六"},{"StopId":2831,"StopName":"中山南路123巷23號","ScheduleTime":"19:51","EstimateTime":"","CarInfo":"","Lon":120.228908,"Lat":23.013655,"Turn":17,"DayValue":"一,二,四,六","RecycleDate":"二,六"},{"StopId":2832,"StopName":"中華路661巷18號","ScheduleTime":"20:05","EstimateTime":"","CarInfo":"","Lon":120.2284291,"Lat":23.0152615,"Turn":18,"DayValue":"一,二,四,六","RecycleDate":"二,六"},{"StopId":2833,"StopName":"中華路703巷64號","ScheduleTime":"20:11","EstimateTime":"","CarInfo":"","Lon":120.2269318,"Lat":23.0158368,"Turn":19,"DayValue":"一,二,四,六","RecycleDate":"二,六"}],"CarData":[{"CarNo":"499-SD","Angle":324,"Lon":120.225975,"Lat":23.015617}],"RouteId":60,"RouteName":"永康-夜間12","RouteInfo":"中華路785號~中華路703巷64號","IsWork":true}]