[{"StopData":[{"StopId":3975,"StopName":"新吉高球場：新吉里146-2號","ScheduleTime":"17:50","EstimateTime":"","CarInfo":"","Lon":120.209807,"Lat":23.088501,"Turn":1,"DayValue":"一,三,五,六","RecycleDate":"三,六"},{"StopId":3976,"StopName":"137茶坊：新吉里60-7號","ScheduleTime":"17:52","EstimateTime":"","CarInfo":"","Lon":120.2104369,"Lat":23.0861081,"Turn":2,"DayValue":"一,三,五,六","RecycleDate":"三,六"},{"StopId":3977,"StopName":"新吉里127號","ScheduleTime":"17:54","EstimateTime":"","CarInfo":"","Lon":120.2104101,"Lat":23.0843316,"Turn":3,"DayValue":"一,三,五,六","RecycleDate":"三,六"},{"StopId":3978,"StopName":"幸連髮型坊：新吉里135號","ScheduleTime":"17:56","EstimateTime":"","CarInfo":"","Lon":120.2106354,"Lat":23.0851507,"Turn":4,"DayValue":"一,三,五,六","RecycleDate":"三,六"},{"StopId":3979,"StopName":"合羅殿：新吉里193號","ScheduleTime":"17:59","EstimateTime":"","CarInfo":"","Lon":120.2105067,"Lat":23.0870556,"Turn":5,"DayValue":"一,三,五,六","RecycleDate":"三,六"},{"StopId":3980,"StopName":"新吉里254號","ScheduleTime":"18:00","EstimateTime":"","CarInfo":"","Lon":120.2094552,"Lat":23.0865917,"Turn":6,"DayValue":"一,三,五,六","RecycleDate":"三,六"},{"StopId":3981,"StopName":"正業代書：新吉里59-3號","ScheduleTime":"18:04","EstimateTime":"","CarInfo":"","Lon":120.2104316,"Lat":23.0853481,"Turn":7,"DayValue":"一,三,五,六","RecycleDate":"三,六"},{"StopId":3982,"StopName":"昱城裝潢：新吉里56-15號","ScheduleTime":"18:05","EstimateTime":"","CarInfo":"","Lon":120.2074811,"Lat":23.0844303,"Turn":8,"DayValue":"一,三,五,六","RecycleDate":"三,六"},{"StopId":3983,"StopName":"大銘電器：新吉里56-5號","ScheduleTime":"18:08","EstimateTime":"","CarInfo":"","Lon":120.2061937,"Lat":23.083088,"Turn":9,"DayValue":"一,三,五,六","RecycleDate":"三,六"},{"StopId":3984,"StopName":"華盛頓社區：新吉里56-87號","ScheduleTime":"18:14","EstimateTime":"","CarInfo":"","Lon":120.2044985,"Lat":23.0822095,"Turn":10,"DayValue":"一,三,五,六","RecycleDate":"三,六"},{"StopId":3985,"StopName":"公親寮(週2、4、6)新吉里4-2號","ScheduleTime":"18:18","EstimateTime":"","CarInfo":"","Lon":120.201076,"Lat":23.0782023,"Turn":11,"DayValue":"一,三,五,六","RecycleDate":"三,六"},{"StopId":3986,"StopName":"羅丹小鎮社區內：新吉里51號","ScheduleTime":"18:20","EstimateTime":"","CarInfo":"","Lon":120.2088544,"Lat":23.0852494,"Turn":12,"DayValue":"一,三,五,六","RecycleDate":"三,六"},{"StopId":3987,"StopName":"新吉社區活動中心：新吉里99-10號","ScheduleTime":"18:25","EstimateTime":"","CarInfo":"","Lon":120.2122662,"Lat":23.0848843,"Turn":13,"DayValue":"一,三,五,六","RecycleDate":"三,六"},{"StopId":3988,"StopName":"新吉大廟後：新吉里88-3號","ScheduleTime":"18:30","EstimateTime":"","CarInfo":"","Lon":120.2123735,"Lat":23.0854764,"Turn":14,"DayValue":"一,三,五,六","RecycleDate":"三,六"},{"StopId":3989,"StopName":"榕樹公住宅：新吉里73-11號","ScheduleTime":"18:32","EstimateTime":"","CarInfo":"","Lon":120.2109573,"Lat":23.0854123,"Turn":15,"DayValue":"一,三,五,六","RecycleDate":"三,六"},{"StopId":3990,"StopName":"新吉里73-16號","ScheduleTime":"18:34","EstimateTime":"","CarInfo":"","Lon":120.210909,"Lat":23.0859008,"Turn":16,"DayValue":"一,三,五,六","RecycleDate":"三,六"},{"StopId":3991,"StopName":"王老師畫室：新吉里22-18號","ScheduleTime":"18:37","EstimateTime":"","CarInfo":"","Lon":120.2142939,"Lat":23.0861377,"Turn":17,"DayValue":"一,三,五,六","RecycleDate":"三,六"},{"StopId":3992,"StopName":"大地春回社區：新吉里","ScheduleTime":"18:40","EstimateTime":"","CarInfo":"","Lon":120.2109626,"Lat":23.086799,"Turn":18,"DayValue":"一,三,五,六","RecycleDate":"三,六"},{"StopId":3993,"StopName":"集合住宅：新吉里41-4號","ScheduleTime":"18:43","EstimateTime":"","CarInfo":"","Lon":120.2123359,"Lat":23.0869273,"Turn":19,"DayValue":"一,三,五,六","RecycleDate":"三,六"},{"StopId":3994,"StopName":"集合住宅：新吉里2-11號","ScheduleTime":"18:47","EstimateTime":"","CarInfo":"","Lon":120.213205,"Lat":23.0874553,"Turn":20,"DayValue":"一,三,五,六","RecycleDate":"三,六"},{"StopId":3995,"StopName":"農路住宅(水圳)：新吉里14-1號","ScheduleTime":"18:52","EstimateTime":"","CarInfo":"","Lon":120.2140096,"Lat":23.0875935,"Turn":21,"DayValue":"一,三,五,六","RecycleDate":"三,六"},{"StopId":3996,"StopName":"南安國小邊：南安里24-5號","ScheduleTime":"18:57","EstimateTime":"","CarInfo":"","Lon":120.2240193,"Lat":23.0990711,"Turn":22,"DayValue":"一,三,五,六","RecycleDate":"三,六"},{"StopId":3997,"StopName":"資源回收場(132線)：南安里4-8號","ScheduleTime":"19:02","EstimateTime":"","CarInfo":"","Lon":120.2285469,"Lat":23.1048441,"Turn":23,"DayValue":"一,三,五,六","RecycleDate":"三,六"},{"StopId":3998,"StopName":"南安里大廟：南安里38-15號","ScheduleTime":"19:05","EstimateTime":"","CarInfo":"","Lon":120.2274847,"Lat":23.1024856,"Turn":24,"DayValue":"一,三,五,六","RecycleDate":"三,六"},{"StopId":3999,"StopName":"集合住宅：南安里40-1號","ScheduleTime":"19:09","EstimateTime":"","CarInfo":"","Lon":120.225119,"Lat":23.1003145,"Turn":25,"DayValue":"一,三,五,六","RecycleDate":"三,六"},{"StopId":4000,"StopName":"南安里11-1號","ScheduleTime":"19:13","EstimateTime":"","CarInfo":"","Lon":120.2259666,"Lat":23.1018046,"Turn":26,"DayValue":"一,三,五,六","RecycleDate":"三,六"},{"StopId":4001,"StopName":"南安大廟後8-1號","ScheduleTime":"19:16","EstimateTime":"","CarInfo":"","Lon":120.2270299,"Lat":23.1026767,"Turn":27,"DayValue":"一,三,五,六","RecycleDate":"三,六"},{"StopId":4002,"StopName":"消防隊：南安34號","ScheduleTime":"19:17","EstimateTime":"","CarInfo":"","Lon":120.2273682,"Lat":23.102401,"Turn":28,"DayValue":"一,三,五,六","RecycleDate":"三,六"},{"StopId":4003,"StopName":"港口齒科：港口里244-29號","ScheduleTime":"19:24","EstimateTime":"","CarInfo":"","Lon":120.2361913,"Lat":23.0922727,"Turn":29,"DayValue":"一,三,五,六","RecycleDate":"三,六"},{"StopId":4004,"StopName":"中榮鐵工廠：中榮里1-3號","ScheduleTime":"19:25","EstimateTime":"","CarInfo":"","Lon":120.2387744,"Lat":23.0941561,"Turn":30,"DayValue":"一,三,五,六","RecycleDate":"三,六"},{"StopId":4005,"StopName":"中榮里3-1號","ScheduleTime":"19:26","EstimateTime":"","CarInfo":"","Lon":120.2397722,"Lat":23.0947087,"Turn":31,"DayValue":"一,三,五,六","RecycleDate":"三,六"},{"StopId":4006,"StopName":"中榮里10-10號","ScheduleTime":"19:27","EstimateTime":"","CarInfo":"","Lon":120.2406397,"Lat":23.0945773,"Turn":32,"DayValue":"一,三,五,六","RecycleDate":"三,六"},{"StopId":4007,"StopName":"永龍建設集合住宅：中榮里15-1號","ScheduleTime":"19:28","EstimateTime":"","CarInfo":"","Lon":120.2404159,"Lat":23.0941617,"Turn":33,"DayValue":"一,三,五,六","RecycleDate":"三,六"},{"StopId":4008,"StopName":"中榮里雜貨舖：中榮里55號","ScheduleTime":"19:29","EstimateTime":"","CarInfo":"","Lon":120.2422728,"Lat":23.0944886,"Turn":34,"DayValue":"一,三,五,六","RecycleDate":"三,六"},{"StopId":4009,"StopName":"集合住宅：中榮里12-41號","ScheduleTime":"19:30","EstimateTime":"","CarInfo":"","Lon":120.2427346,"Lat":23.0934077,"Turn":35,"DayValue":"一,三,五,六","RecycleDate":"三,六"},{"StopId":4010,"StopName":"倍幼安幼稚園：中榮里25-9號","ScheduleTime":"19:32","EstimateTime":"","CarInfo":"","Lon":120.2431116,"Lat":23.0928543,"Turn":36,"DayValue":"一,三,五,六","RecycleDate":"三,六"},{"StopId":4011,"StopName":"集合住宅：中榮里23-3號","ScheduleTime":"19:34","EstimateTime":"","CarInfo":"","Lon":120.2440664,"Lat":23.0934954,"Turn":37,"DayValue":"一,三,五,六","RecycleDate":"三,六"},{"StopId":4012,"StopName":"中榮里大廟後：中榮里27-1號","ScheduleTime":"19:37","EstimateTime":"","CarInfo":"","Lon":120.243369,"Lat":23.0945218,"Turn":38,"DayValue":"一,三,五,六","RecycleDate":"三,六"},{"StopId":4013,"StopName":"社區活動中心後：中榮里38-1號","ScheduleTime":"19:39","EstimateTime":"","CarInfo":"","Lon":120.2435192,"Lat":23.0950547,"Turn":39,"DayValue":"一,三,五,六","RecycleDate":"三,六"},{"StopId":4014,"StopName":"高第建設集合住宅：中榮里40號","ScheduleTime":"19:40","EstimateTime":"","CarInfo":"","Lon":120.24284,"Lat":23.0957822,"Turn":40,"DayValue":"一,三,五,六","RecycleDate":"三,六"},{"StopId":4015,"StopName":"利祥商店：中榮里","ScheduleTime":"19:41","EstimateTime":"","CarInfo":"","Lon":120.2419527,"Lat":23.0964494,"Turn":41,"DayValue":"一,三,五,六","RecycleDate":"三,六"},{"StopId":4016,"StopName":"中榮里35-11號","ScheduleTime":"19:45","EstimateTime":"","CarInfo":"","Lon":120.2419012,"Lat":23.0955694,"Turn":42,"DayValue":"一,三,五,六","RecycleDate":"三,六"},{"StopId":4017,"StopName":"中榮里38-5號","ScheduleTime":"19:46","EstimateTime":"","CarInfo":"","Lon":120.2433087,"Lat":23.095743,"Turn":43,"DayValue":"一,三,五,六","RecycleDate":"三,六"},{"StopId":4018,"StopName":"中榮外環道：中榮里77-11號","ScheduleTime":"19:49","EstimateTime":"","CarInfo":"","Lon":120.2435319,"Lat":23.0963293,"Turn":44,"DayValue":"一,三,五,六","RecycleDate":"三,六"},{"StopId":4019,"StopName":"中榮陸橋(週2、4、6)","ScheduleTime":"19:52","EstimateTime":"","CarInfo":"","Lon":120.248112,"Lat":23.1004354,"Turn":45,"DayValue":"一,三,五,六","RecycleDate":"三,六"},{"StopId":4020,"StopName":"渡仔頭：中榮里95-1號","ScheduleTime":"19:53","EstimateTime":"","CarInfo":"","Lon":120.2432098,"Lat":23.0985739,"Turn":46,"DayValue":"一,三,五,六","RecycleDate":"三,六"},{"StopId":4021,"StopName":"渡仔頭：中榮里82-26號","ScheduleTime":"19:54","EstimateTime":"","CarInfo":"","Lon":120.2417506,"Lat":23.0970739,"Turn":47,"DayValue":"一,三,五,六","RecycleDate":"三,六"},{"StopId":4022,"StopName":"輕鋼架：中榮里83號","ScheduleTime":"19:55","EstimateTime":"","CarInfo":"","Lon":120.2412893,"Lat":23.0961857,"Turn":48,"DayValue":"一,三,五,六","RecycleDate":"三,六"},{"StopId":4023,"StopName":"翁稼茶站：中榮里85號","ScheduleTime":"19:56","EstimateTime":"","CarInfo":"","Lon":120.2407743,"Lat":23.0958304,"Turn":49,"DayValue":"一,三,五,六","RecycleDate":"三,六"},{"StopId":4024,"StopName":"中榮里90-6號","ScheduleTime":"19:58","EstimateTime":"","CarInfo":"","Lon":120.2392937,"Lat":23.0946362,"Turn":50,"DayValue":"一,三,五,六","RecycleDate":"三,六"}],"CarData":[],"RouteId":107,"RouteName":"安定-3(夜間)","RouteInfo":"新吉高球場：新吉里146-2號~中榮里90-6號","IsWork":false}]