[{"StopData":[{"StopId":1113,"StopName":"鯤江里984號","ScheduleTime":"17:00","EstimateTime":"","CarInfo":"","Lon":120.1391428,"Lat":23.2854856,"Turn":1,"DayValue":"一,三,五,六","RecycleDate":"五"},{"StopId":1114,"StopName":"鯤江里960號","ScheduleTime":"17:03","EstimateTime":"","CarInfo":"","Lon":120.140704,"Lat":23.286494,"Turn":2,"DayValue":"一,三,五,六","RecycleDate":"五"},{"StopId":1115,"StopName":"鯤江里823號","ScheduleTime":"17:06","EstimateTime":"","CarInfo":"","Lon":120.136535,"Lat":23.285528,"Turn":3,"DayValue":"一,三,五,六","RecycleDate":"五"},{"StopId":1116,"StopName":"東壁里667號","ScheduleTime":"17:12","EstimateTime":"","CarInfo":"","Lon":120.1372749,"Lat":23.2881531,"Turn":4,"DayValue":"一,三,五,六","RecycleDate":"五"},{"StopId":1117,"StopName":"保吉里422號","ScheduleTime":"17:16","EstimateTime":"","CarInfo":"","Lon":120.136068,"Lat":23.287008,"Turn":5,"DayValue":"一,三,五,六","RecycleDate":"五"},{"StopId":1118,"StopName":"保吉里503號之26","ScheduleTime":"17:19","EstimateTime":"","CarInfo":"","Lon":120.134066,"Lat":23.287153,"Turn":6,"DayValue":"一,三,五,六","RecycleDate":"五"},{"StopId":1119,"StopName":"保吉里385號","ScheduleTime":"17:22","EstimateTime":"","CarInfo":"","Lon":120.135269,"Lat":23.286166,"Turn":7,"DayValue":"一,三,五,六","RecycleDate":"五"},{"StopId":1120,"StopName":"保吉里241號","ScheduleTime":"17:26","EstimateTime":"","CarInfo":"","Lon":120.135224,"Lat":23.284937,"Turn":8,"DayValue":"一,三,五,六","RecycleDate":"五"},{"StopId":1121,"StopName":"鯤江里870號","ScheduleTime":"17:29","EstimateTime":"","CarInfo":"","Lon":120.13754,"Lat":23.285903,"Turn":9,"DayValue":"一,三,五,六","RecycleDate":"五"},{"StopId":1122,"StopName":"雙春里5之13號","ScheduleTime":"17:35","EstimateTime":"","CarInfo":"","Lon":120.131947,"Lat":23.301118,"Turn":10,"DayValue":"一,三,五,六","RecycleDate":"五"},{"StopId":1123,"StopName":"雙春里5號之1號","ScheduleTime":"17:40","EstimateTime":"","CarInfo":"","Lon":120.130184,"Lat":23.300238,"Turn":11,"DayValue":"一,三,五,六","RecycleDate":"五"},{"StopId":1124,"StopName":"鯤江里29之1號","ScheduleTime":"17:45","EstimateTime":"","CarInfo":"","Lon":120.149802,"Lat":23.293022,"Turn":12,"DayValue":"一,三,五,六","RecycleDate":"五"},{"StopId":1125,"StopName":"鯤江里18之1號","ScheduleTime":"17:51","EstimateTime":"","CarInfo":"","Lon":120.150896,"Lat":23.292544,"Turn":13,"DayValue":"一,三,五,六","RecycleDate":"五"},{"StopId":1126,"StopName":"錦湖里81之6號","ScheduleTime":"17:55","EstimateTime":"","CarInfo":"","Lon":120.166174,"Lat":23.297158,"Turn":14,"DayValue":"一,三,五,六","RecycleDate":"五"},{"StopId":1127,"StopName":"錦湖里114之1號","ScheduleTime":"18:01","EstimateTime":"","CarInfo":"","Lon":120.169429,"Lat":23.298776,"Turn":15,"DayValue":"一,三,五,六","RecycleDate":"五"},{"StopId":1128,"StopName":"錦湖里92號","ScheduleTime":"18:04","EstimateTime":"","CarInfo":"","Lon":120.168754,"Lat":23.298378,"Turn":16,"DayValue":"一,三,五,六","RecycleDate":"五"},{"StopId":1129,"StopName":"錦湖里7號之1","ScheduleTime":"18:09","EstimateTime":"","CarInfo":"","Lon":120.17087,"Lat":23.2855156,"Turn":17,"DayValue":"一,三,五,六","RecycleDate":"五"},{"StopId":1130,"StopName":"錦湖里16號之4","ScheduleTime":"18:14","EstimateTime":"","CarInfo":"","Lon":120.172707,"Lat":23.285605,"Turn":18,"DayValue":"一,三,五,六","RecycleDate":"五"},{"StopId":1131,"StopName":"錦湖里22號","ScheduleTime":"18:18","EstimateTime":"","CarInfo":"","Lon":120.178393,"Lat":23.290973,"Turn":19,"DayValue":"一,三,五,六","RecycleDate":"五"},{"StopId":1132,"StopName":"錦湖里127之1號","ScheduleTime":"18:25","EstimateTime":"","CarInfo":"","Lon":120.158631,"Lat":23.304435,"Turn":20,"DayValue":"一,三,五,六","RecycleDate":"五"},{"StopId":1133,"StopName":"錦湖里140之6號","ScheduleTime":"18:29","EstimateTime":"","CarInfo":"","Lon":120.156086,"Lat":23.305843,"Turn":21,"DayValue":"一,三,五,六","RecycleDate":"五"}],"CarData":[],"RouteId":24,"RouteName":"北門-1(蚵寮線)","RouteInfo":"鯤江里984號~錦湖里140之6號","IsWork":false}]