[{"StopData":[{"StopId":2085,"StopName":"中山南路20號土地銀行","ScheduleTime":"14:00","EstimateTime":"","CarInfo":"","Lon":120.227329,"Lat":23.012058,"Turn":1,"DayValue":"一,二,四,六","RecycleDate":"一,四"},{"StopId":2086,"StopName":"中山南路22號金太郎","ScheduleTime":"14:05","EstimateTime":"","CarInfo":"","Lon":120.227439,"Lat":23.012105,"Turn":2,"DayValue":"一,二,四,六","RecycleDate":"一,四"},{"StopId":2087,"StopName":"中山南路102號","ScheduleTime":"14:05","EstimateTime":"","CarInfo":"","Lon":120.22928,"Lat":23.012943,"Turn":3,"DayValue":"一,二,四,六","RecycleDate":"一,四"},{"StopId":2088,"StopName":"中山南路116號","ScheduleTime":"14:05","EstimateTime":"","CarInfo":"","Lon":120.230068,"Lat":23.013125,"Turn":4,"DayValue":"一,二,四,六","RecycleDate":"一,四"},{"StopId":2089,"StopName":"中華路597號前菁安藥局","ScheduleTime":"14:10","EstimateTime":"","CarInfo":"","Lon":120.230752,"Lat":23.013264,"Turn":5,"DayValue":"一,二,四,六","RecycleDate":"一,四"},{"StopId":2090,"StopName":"中華路497巷口萬三米糕","ScheduleTime":"14:10","EstimateTime":"","CarInfo":"","Lon":120.231631,"Lat":23.01182,"Turn":6,"DayValue":"一,二,四,六","RecycleDate":"一,四"},{"StopId":2092,"StopName":"中華路405號惠成豬心","ScheduleTime":"14:10","EstimateTime":"","CarInfo":"","Lon":120.233089,"Lat":23.009553,"Turn":8,"DayValue":"一,二,四,六","RecycleDate":"一,四"},{"StopId":2093,"StopName":"中華路381號東北餃子","ScheduleTime":"14:30","EstimateTime":"","CarInfo":"","Lon":120.233293,"Lat":23.00908,"Turn":9,"DayValue":"一,二,四,六","RecycleDate":"一,四"},{"StopId":2094,"StopName":"中華路377號","ScheduleTime":"14:35","EstimateTime":"","CarInfo":"","Lon":120.23348,"Lat":23.008896,"Turn":10,"DayValue":"一,二,四,六","RecycleDate":"一,四"},{"StopId":2095,"StopName":"中華路191號金吉利銀樓","ScheduleTime":"14:40","EstimateTime":"","CarInfo":"","Lon":120.235125,"Lat":23.004516,"Turn":11,"DayValue":"一,二,四,六","RecycleDate":"一,四"},{"StopId":2096,"StopName":"中華路85號","ScheduleTime":"14:45","EstimateTime":"","CarInfo":"","Lon":120.234888,"Lat":23.001439,"Turn":12,"DayValue":"一,二,四,六","RecycleDate":"一,四"},{"StopId":2097,"StopName":"中華路23巷45號","ScheduleTime":"16:25","EstimateTime":"","CarInfo":"","Lon":120.233809,"Lat":22.999317,"Turn":13,"DayValue":"一,二,四,六","RecycleDate":"一,四"},{"StopId":2098,"StopName":"勝利街5號","ScheduleTime":"16:27","EstimateTime":"","CarInfo":"","Lon":120.231756,"Lat":23.000856,"Turn":14,"DayValue":"一,二,四,六","RecycleDate":"一,四"},{"StopId":2099,"StopName":"勝利街1巷與2巷口","ScheduleTime":"16:27","EstimateTime":"","CarInfo":"","Lon":120.23076,"Lat":23.000695,"Turn":15,"DayValue":"一,二,四,六","RecycleDate":"一,四"},{"StopId":2100,"StopName":"勝利街1巷11弄8號","ScheduleTime":"16:27","EstimateTime":"","CarInfo":"","Lon":120.230567,"Lat":23.001161,"Turn":16,"DayValue":"一,二,四,六","RecycleDate":"一,四"},{"StopId":2101,"StopName":"勝學路28號","ScheduleTime":"16:27","EstimateTime":"","CarInfo":"","Lon":120.230971,"Lat":23.001173,"Turn":17,"DayValue":"一,二,四,六","RecycleDate":"一,四"},{"StopId":2102,"StopName":"勝利街2巷92弄15號","ScheduleTime":"16:27","EstimateTime":"","CarInfo":"","Lon":120.229792,"Lat":23.002856,"Turn":18,"DayValue":"一,二,四,六","RecycleDate":"一,四"},{"StopId":2103,"StopName":"勝利街2巷53號","ScheduleTime":"16:27","EstimateTime":"","CarInfo":"","Lon":120.229371,"Lat":23.001839,"Turn":19,"DayValue":"一,二,四,六","RecycleDate":"一,四"},{"StopId":2104,"StopName":"勝學路108巷口公園","ScheduleTime":"16:27","EstimateTime":"","CarInfo":"","Lon":120.231016,"Lat":23.003296,"Turn":20,"DayValue":"一,二,四,六","RecycleDate":"一,四"},{"StopId":2105,"StopName":"勝利街105號","ScheduleTime":"16:27","EstimateTime":"","CarInfo":"","Lon":120.231086,"Lat":23.004074,"Turn":21,"DayValue":"一,二,四,六","RecycleDate":"一,四"},{"StopId":2106,"StopName":"中華一路322號","ScheduleTime":"16:52","EstimateTime":"","CarInfo":"","Lon":120.231533,"Lat":23.004553,"Turn":22,"DayValue":"一,二,四,六","RecycleDate":"一,四"},{"StopId":16624,"StopName":"勝利街197巷35號","ScheduleTime":"16:54","EstimateTime":"","CarInfo":"","Lon":120.23126,"Lat":23.005561,"Turn":23,"DayValue":"一,二,四,六","RecycleDate":"一,四"},{"StopId":16625,"StopName":"中華一路與勝學路路口","ScheduleTime":"16:54","EstimateTime":"","CarInfo":"","Lon":120.230985,"Lat":23.004613,"Turn":24,"DayValue":"一,二,四,六","RecycleDate":"一,四"},{"StopId":16626,"StopName":"勝利街73巷與22巷口","ScheduleTime":"16:54","EstimateTime":"","CarInfo":"","Lon":120.232156,"Lat":23.002051,"Turn":25,"DayValue":"一,二,四,六","RecycleDate":"一,四"},{"StopId":16627,"StopName":"勝利街76號","ScheduleTime":"16:54","EstimateTime":"","CarInfo":"","Lon":120.232838,"Lat":23.002052,"Turn":26,"DayValue":"一,二,四,六","RecycleDate":"一,四"},{"StopId":16628,"StopName":"勝利街90巷4號","ScheduleTime":"16:54","EstimateTime":"","CarInfo":"","Lon":120.233506,"Lat":23.002245,"Turn":27,"DayValue":"一,二,四,六","RecycleDate":"一,四"},{"StopId":16629,"StopName":"中華一路（大時代）","ScheduleTime":"17:07","EstimateTime":"","CarInfo":"","Lon":120.233543,"Lat":23.003903,"Turn":28,"DayValue":"一,二,四,六","RecycleDate":"一,四"},{"StopId":16630,"StopName":"勝利街116巷10號","ScheduleTime":"18:18","EstimateTime":"","CarInfo":"","Lon":120.233209,"Lat":23.0034,"Turn":29,"DayValue":"一,二,四,六","RecycleDate":"一,四"},{"StopId":16631,"StopName":"中華路155巷32號","ScheduleTime":"18:23","EstimateTime":"","CarInfo":"","Lon":120.233565,"Lat":23.002439,"Turn":30,"DayValue":"一,二,四,六","RecycleDate":"一,四"},{"StopId":16632,"StopName":"勝利街77巷與22巷43號","ScheduleTime":"18:23","EstimateTime":"","CarInfo":"","Lon":120.23206,"Lat":23.00183,"Turn":31,"DayValue":"一,二,四,六","RecycleDate":"一,四"},{"StopId":16633,"StopName":"勝利街30巷5號","ScheduleTime":"18:35","EstimateTime":"","CarInfo":"","Lon":120.233913,"Lat":23.000357,"Turn":32,"DayValue":"一,二,四,六","RecycleDate":"一,四"},{"StopId":16634,"StopName":"勝華街37巷40號","ScheduleTime":"18:35","EstimateTime":"","CarInfo":"","Lon":120.233658,"Lat":23.005909,"Turn":33,"DayValue":"一,二,四,六","RecycleDate":"一,四"},{"StopId":16635,"StopName":"勝利街197巷7號(阿波羅)","ScheduleTime":"18:35","EstimateTime":"","CarInfo":"","Lon":120.232522,"Lat":23.005607,"Turn":34,"DayValue":"一,二,四,六","RecycleDate":"一,四"},{"StopId":16636,"StopName":"勝利街195號","ScheduleTime":"18:35","EstimateTime":"","CarInfo":"","Lon":120.232851,"Lat":23.005695,"Turn":35,"DayValue":"一,二,四,六","RecycleDate":"一,四"},{"StopId":16637,"StopName":"勝利街126號(風水龍)","ScheduleTime":"18:35","EstimateTime":"","CarInfo":"","Lon":120.233022,"Lat":23.004686,"Turn":36,"DayValue":"一,二,四,六","RecycleDate":"一,四"},{"StopId":16638,"StopName":"勝學路262號","ScheduleTime":"18:35","EstimateTime":"","CarInfo":"","Lon":120.231294,"Lat":23.00726,"Turn":37,"DayValue":"一,二,四,六","RecycleDate":"一,四"},{"StopId":16639,"StopName":"中華二路264號","ScheduleTime":"19:05","EstimateTime":"","CarInfo":"","Lon":120.233128,"Lat":23.008625,"Turn":38,"DayValue":"一,二,四,六","RecycleDate":"一,四"},{"StopId":16640,"StopName":"六合路48巷50號","ScheduleTime":"19:05","EstimateTime":"","CarInfo":"","Lon":120.232068,"Lat":23.009779,"Turn":39,"DayValue":"一,二,四,六","RecycleDate":"一,四"},{"StopId":16641,"StopName":"中華二路356號前(三商巧福)","ScheduleTime":"19:05","EstimateTime":"","CarInfo":"","Lon":120.230564,"Lat":23.008449,"Turn":40,"DayValue":"一,二,四,六","RecycleDate":"一,四"},{"StopId":16642,"StopName":"六合54巷23號","ScheduleTime":"19:05","EstimateTime":"","CarInfo":"","Lon":120.231772,"Lat":23.010266,"Turn":41,"DayValue":"一,二,四,六","RecycleDate":"一,四"},{"StopId":16643,"StopName":"六合路64號(世新洗衣中心)","ScheduleTime":"19:05","EstimateTime":"","CarInfo":"","Lon":120.231013,"Lat":23.010755,"Turn":42,"DayValue":"一,二,四,六","RecycleDate":"一,四"},{"StopId":16644,"StopName":"六合路68巷38號","ScheduleTime":"19:05","EstimateTime":"","CarInfo":"","Lon":120.231938,"Lat":23.010875,"Turn":43,"DayValue":"一,二,四,六","RecycleDate":"一,四"},{"StopId":16645,"StopName":"六合路83-3號","ScheduleTime":"19:05","EstimateTime":"","CarInfo":"","Lon":120.230842,"Lat":23.011559,"Turn":44,"DayValue":"一,二,四,六","RecycleDate":"一,四"},{"StopId":16646,"StopName":"新興街111號(陽光新加坡)","ScheduleTime":"19:05","EstimateTime":"","CarInfo":"","Lon":120.230398,"Lat":23.012056,"Turn":45,"DayValue":"一,二,四,六","RecycleDate":"一,四"},{"StopId":16647,"StopName":"新興街77巷與34巷口","ScheduleTime":"19:05","EstimateTime":"","CarInfo":"","Lon":120.229717,"Lat":23.011747,"Turn":46,"DayValue":"一,二,四,六","RecycleDate":"一,四"},{"StopId":16648,"StopName":"新興街34巷11弄21號","ScheduleTime":"19:05","EstimateTime":"","CarInfo":"","Lon":120.230433,"Lat":23.011508,"Turn":47,"DayValue":"一,二,四,六","RecycleDate":"一,四"},{"StopId":16649,"StopName":"新興街35巷11號","ScheduleTime":"19:34","EstimateTime":"","CarInfo":"","Lon":120.229021,"Lat":23.012004,"Turn":48,"DayValue":"一,二,四,六","RecycleDate":"一,四"},{"StopId":16650,"StopName":"新興街35巷4號前","ScheduleTime":"19:35","EstimateTime":"","CarInfo":"","Lon":120.228564,"Lat":23.011798,"Turn":49,"DayValue":"一,二,四,六","RecycleDate":"一,四"}],"CarData":[],"RouteId":53,"RouteName":"永康-夜間01","RouteInfo":"中山南路20號土地銀行~新興街35巷4號前","IsWork":true}]