[{"StopData":[{"StopId":153,"StopName":"中正北路360巷(每週一、六收)","ScheduleTime":"16:20","EstimateTime":"","CarInfo":"","Lon":120.2609961,"Lat":23.2419875,"Turn":1,"DayValue":"一,六","RecycleDate":"一,五"},{"StopId":154,"StopName":"友愛街187巷(每週一、六收)","ScheduleTime":"16:25","EstimateTime":"","CarInfo":"","Lon":120.2578712,"Lat":23.2379404,"Turn":2,"DayValue":"一,六","RecycleDate":"一,五"},{"StopId":155,"StopName":"新庄(每週一、六收)大埤里89之1號","ScheduleTime":"16:30","EstimateTime":"","CarInfo":"","Lon":120.2459294,"Lat":23.2203798,"Turn":3,"DayValue":"一,六","RecycleDate":"一,五"},{"StopId":156,"StopName":"西連里西寮13之29號(每週一、六收)","ScheduleTime":"16:35","EstimateTime":"","CarInfo":"","Lon":120.249127,"Lat":23.2097418,"Turn":4,"DayValue":"一,六","RecycleDate":"一,五"},{"StopId":157,"StopName":"宅內街69號巷口","ScheduleTime":"16:40","EstimateTime":"","CarInfo":"","Lon":120.2601037,"Lat":23.2379841,"Turn":5,"DayValue":"一,六","RecycleDate":"一,五"},{"StopId":158,"StopName":"宅內街53號前","ScheduleTime":"16:42","EstimateTime":"","CarInfo":"","Lon":120.2609513,"Lat":23.2380335,"Turn":6,"DayValue":"一,六","RecycleDate":"一,五"},{"StopId":159,"StopName":"中正北路131號","ScheduleTime":"16:44","EstimateTime":"","CarInfo":"","Lon":120.2623792,"Lat":23.235708,"Turn":7,"DayValue":"一,六","RecycleDate":"一,五"},{"StopId":160,"StopName":"民族一街19號前","ScheduleTime":"16:46","EstimateTime":"","CarInfo":"","Lon":120.2617704,"Lat":23.2355164,"Turn":8,"DayValue":"一,六","RecycleDate":"一,五"},{"StopId":161,"StopName":"玄德街廟後玄德街22號","ScheduleTime":"16:48","EstimateTime":"","CarInfo":"","Lon":120.260759,"Lat":23.23546,"Turn":9,"DayValue":"一,六","RecycleDate":"一,五"},{"StopId":162,"StopName":"玄德街45號巷口","ScheduleTime":"16:50","EstimateTime":"","CarInfo":"","Lon":120.260759,"Lat":23.235974,"Turn":10,"DayValue":"一,六","RecycleDate":"一,五"},{"StopId":163,"StopName":"玄德街80號巷口","ScheduleTime":"16:52","EstimateTime":"","CarInfo":"","Lon":120.2610122,"Lat":23.2366864,"Turn":11,"DayValue":"一,六","RecycleDate":"一,五"},{"StopId":164,"StopName":"人和三街71巷22號巷口","ScheduleTime":"16:54","EstimateTime":"","CarInfo":"","Lon":120.2597205,"Lat":23.2362431,"Turn":12,"DayValue":"一,六","RecycleDate":"一,五"},{"StopId":165,"StopName":"民族二街25號巷口","ScheduleTime":"16:55","EstimateTime":"","CarInfo":"","Lon":120.260105,"Lat":23.235029,"Turn":13,"DayValue":"一,六","RecycleDate":"一,五"},{"StopId":166,"StopName":"友愛街149巷11號前","ScheduleTime":"16:57","EstimateTime":"","CarInfo":"","Lon":120.2584499,"Lat":23.2366198,"Turn":14,"DayValue":"一,六","RecycleDate":"一,五"},{"StopId":167,"StopName":"永安街102號巷口","ScheduleTime":"17:00","EstimateTime":"","CarInfo":"","Lon":120.2582863,"Lat":23.2354905,"Turn":15,"DayValue":"一,六","RecycleDate":"一,五"},{"StopId":168,"StopName":"永安街35號12號前巷口","ScheduleTime":"17:01","EstimateTime":"","CarInfo":"","Lon":120.2582254,"Lat":23.2342745,"Turn":16,"DayValue":"一,六","RecycleDate":"一,五"},{"StopId":169,"StopName":"蚵寮街35號巷口","ScheduleTime":"17:03","EstimateTime":"","CarInfo":"","Lon":120.2581418,"Lat":23.2334916,"Turn":17,"DayValue":"一,六","RecycleDate":"一,五"},{"StopId":170,"StopName":"蚵寮街91號巷口","ScheduleTime":"17:05","EstimateTime":"","CarInfo":"","Lon":120.2568141,"Lat":23.2335622,"Turn":18,"DayValue":"一,六","RecycleDate":"一,五"},{"StopId":171,"StopName":"蚵寮街138號巷口","ScheduleTime":"17:07","EstimateTime":"","CarInfo":"","Lon":120.2560447,"Lat":23.2337048,"Turn":19,"DayValue":"一,六","RecycleDate":"一,五"},{"StopId":172,"StopName":"蚵寮街117巷10號前","ScheduleTime":"17:09","EstimateTime":"","CarInfo":"","Lon":120.2549008,"Lat":23.2339656,"Turn":20,"DayValue":"一,六","RecycleDate":"一,五"},{"StopId":173,"StopName":"博愛街209號","ScheduleTime":"17:10","EstimateTime":"","CarInfo":"","Lon":120.2543942,"Lat":23.2339292,"Turn":21,"DayValue":"一,六","RecycleDate":"一,五"},{"StopId":174,"StopName":"博愛街125號巷口","ScheduleTime":"17:11","EstimateTime":"","CarInfo":"","Lon":120.2546383,"Lat":23.235255,"Turn":22,"DayValue":"一,六","RecycleDate":"一,五"},{"StopId":175,"StopName":"博愛街107號巷口","ScheduleTime":"17:12","EstimateTime":"","CarInfo":"","Lon":120.2552391,"Lat":23.235388,"Turn":23,"DayValue":"一,六","RecycleDate":"一,五"},{"StopId":176,"StopName":"永安街67巷88號巷口","ScheduleTime":"17:13","EstimateTime":"","CarInfo":"","Lon":120.2561138,"Lat":23.2353919,"Turn":24,"DayValue":"一,六","RecycleDate":"一,五"},{"StopId":177,"StopName":"永安街67巷82號巷口","ScheduleTime":"17:15","EstimateTime":"","CarInfo":"","Lon":120.2565322,"Lat":23.2353327,"Turn":25,"DayValue":"一,六","RecycleDate":"一,五"},{"StopId":178,"StopName":"永安街67巷9號巷口","ScheduleTime":"17:16","EstimateTime":"","CarInfo":"","Lon":120.2577588,"Lat":23.2353104,"Turn":26,"DayValue":"一,六","RecycleDate":"一,五"},{"StopId":179,"StopName":"蚵寮街10號前","ScheduleTime":"17:18","EstimateTime":"","CarInfo":"","Lon":120.2590692,"Lat":23.2333777,"Turn":27,"DayValue":"一,六","RecycleDate":"一,五"},{"StopId":180,"StopName":"公園路110號前","ScheduleTime":"17:20","EstimateTime":"","CarInfo":"","Lon":120.2589251,"Lat":23.2325942,"Turn":28,"DayValue":"一,六","RecycleDate":"一,五"},{"StopId":181,"StopName":"新菱冷氣前九份街43號","ScheduleTime":"17:21","EstimateTime":"","CarInfo":"","Lon":120.2586812,"Lat":23.2317263,"Turn":29,"DayValue":"一,六","RecycleDate":"一,五"},{"StopId":182,"StopName":"仁興街28號巷口","ScheduleTime":"17:23","EstimateTime":"","CarInfo":"","Lon":120.2592253,"Lat":23.2315702,"Turn":30,"DayValue":"一,六","RecycleDate":"一,五"},{"StopId":183,"StopName":"群英旁巷口仁里街122巷27號","ScheduleTime":"17:25","EstimateTime":"","CarInfo":"","Lon":120.2583201,"Lat":23.2304306,"Turn":31,"DayValue":"一,六","RecycleDate":"一,五"},{"StopId":184,"StopName":"九分街61號巷口","ScheduleTime":"17:28","EstimateTime":"","CarInfo":"","Lon":120.2584935,"Lat":23.2313073,"Turn":32,"DayValue":"一,六","RecycleDate":"一,五"},{"StopId":185,"StopName":"老人活動中心旁巷口仁中街48巷30號","ScheduleTime":"17:31","EstimateTime":"","CarInfo":"","Lon":120.2622434,"Lat":23.2294543,"Turn":33,"DayValue":"一,六","RecycleDate":"一,五"},{"StopId":186,"StopName":"仁中街48巷6號巷口","ScheduleTime":"17:33","EstimateTime":"","CarInfo":"","Lon":120.262344,"Lat":23.228949,"Turn":34,"DayValue":"一,六","RecycleDate":"一,五"},{"StopId":187,"StopName":"仁南街6巷41號巷口","ScheduleTime":"17:35","EstimateTime":"","CarInfo":"","Lon":120.2612017,"Lat":23.2282302,"Turn":35,"DayValue":"一,六","RecycleDate":"一,五"},{"StopId":188,"StopName":"仁中街90號巷口","ScheduleTime":"17:36","EstimateTime":"","CarInfo":"","Lon":120.2606054,"Lat":23.2282753,"Turn":36,"DayValue":"一,六","RecycleDate":"一,五"},{"StopId":189,"StopName":"忠孝街19號巷口","ScheduleTime":"17:38","EstimateTime":"","CarInfo":"","Lon":120.264285,"Lat":23.229143,"Turn":37,"DayValue":"一,六","RecycleDate":"一,五"},{"StopId":190,"StopName":"營前街12號巷口","ScheduleTime":"17:41","EstimateTime":"","CarInfo":"","Lon":120.2637112,"Lat":23.2298691,"Turn":38,"DayValue":"一,六","RecycleDate":"一,五"},{"StopId":191,"StopName":"民權二街15號前","ScheduleTime":"17:43","EstimateTime":"","CarInfo":"","Lon":120.2637049,"Lat":23.2305675,"Turn":39,"DayValue":"一,六","RecycleDate":"一,五"},{"StopId":192,"StopName":"仁愛街13號","ScheduleTime":"17:45","EstimateTime":"","CarInfo":"","Lon":120.2651642,"Lat":23.2313267,"Turn":40,"DayValue":"一,六","RecycleDate":"一,五"},{"StopId":193,"StopName":"中正南路205巷3號巷口","ScheduleTime":"17:47","EstimateTime":"","CarInfo":"","Lon":120.2650312,"Lat":23.2306355,"Turn":41,"DayValue":"一,六","RecycleDate":"一,五"},{"StopId":194,"StopName":"中正南路205巷56號","ScheduleTime":"17:50","EstimateTime":"","CarInfo":"","Lon":120.2659145,"Lat":23.2309413,"Turn":42,"DayValue":"一,六","RecycleDate":"一,五"},{"StopId":195,"StopName":"健康路200巷16號巷口","ScheduleTime":"17:52","EstimateTime":"","CarInfo":"","Lon":120.266636,"Lat":23.231858,"Turn":43,"DayValue":"一,六","RecycleDate":"一,五"},{"StopId":196,"StopName":"中華街40巷62號","ScheduleTime":"17:54","EstimateTime":"","CarInfo":"","Lon":120.2664414,"Lat":23.2335856,"Turn":44,"DayValue":"一,六","RecycleDate":"一,五"},{"StopId":197,"StopName":"復興街19號巷口","ScheduleTime":"17:55","EstimateTime":"","CarInfo":"","Lon":120.2644222,"Lat":23.234413,"Turn":45,"DayValue":"一,六","RecycleDate":"一,五"},{"StopId":198,"StopName":"復興街38號巷口","ScheduleTime":"17:57","EstimateTime":"","CarInfo":"","Lon":120.2634298,"Lat":23.2342552,"Turn":46,"DayValue":"一,六","RecycleDate":"一,五"},{"StopId":199,"StopName":"文明街53號","ScheduleTime":"18:00","EstimateTime":"","CarInfo":"","Lon":120.2639595,"Lat":23.2334862,"Turn":47,"DayValue":"一,六","RecycleDate":"一,五"},{"StopId":200,"StopName":"文明街85號巷口","ScheduleTime":"18:02","EstimateTime":"","CarInfo":"","Lon":120.2626817,"Lat":23.2333693,"Turn":48,"DayValue":"一,六","RecycleDate":"一,五"},{"StopId":201,"StopName":"民權一街36號巷口","ScheduleTime":"18:03","EstimateTime":"","CarInfo":"","Lon":120.262439,"Lat":23.2340162,"Turn":49,"DayValue":"一,六","RecycleDate":"一,五"},{"StopId":202,"StopName":"米店巷口民權一街46號","ScheduleTime":"18:04","EstimateTime":"","CarInfo":"","Lon":120.2622894,"Lat":23.2345333,"Turn":50,"DayValue":"一,六","RecycleDate":"一,五"},{"StopId":203,"StopName":"民權一街59號巷口","ScheduleTime":"18:06","EstimateTime":"","CarInfo":"","Lon":120.2616027,"Lat":23.2361009,"Turn":51,"DayValue":"一,六","RecycleDate":"一,五"},{"StopId":204,"StopName":"大同街52號巷口","ScheduleTime":"18:08","EstimateTime":"","CarInfo":"","Lon":120.2630242,"Lat":23.2364564,"Turn":52,"DayValue":"一,六","RecycleDate":"一,五"},{"StopId":205,"StopName":"大同街19號","ScheduleTime":"18:09","EstimateTime":"","CarInfo":"","Lon":120.2637502,"Lat":23.2366587,"Turn":53,"DayValue":"一,六","RecycleDate":"一,五"},{"StopId":206,"StopName":"和平街46號巷口","ScheduleTime":"18:10","EstimateTime":"","CarInfo":"","Lon":120.2641025,"Lat":23.2368164,"Turn":54,"DayValue":"一,六","RecycleDate":"一,五"},{"StopId":207,"StopName":"人和一街68號前","ScheduleTime":"18:11","EstimateTime":"","CarInfo":"","Lon":120.2656017,"Lat":23.2375333,"Turn":55,"DayValue":"一,六","RecycleDate":"一,五"},{"StopId":208,"StopName":"戶政事務所人和一街25號","ScheduleTime":"18:12","EstimateTime":"","CarInfo":"","Lon":120.2666975,"Lat":23.2376885,"Turn":56,"DayValue":"一,六","RecycleDate":"一,五"},{"StopId":209,"StopName":"六興堂巷口東興一街125巷5號","ScheduleTime":"18:15","EstimateTime":"","CarInfo":"","Lon":120.2659835,"Lat":23.2378886,"Turn":57,"DayValue":"一,六","RecycleDate":"一,五"},{"StopId":210,"StopName":"新北街95號","ScheduleTime":"18:17","EstimateTime":"","CarInfo":"","Lon":120.2676095,"Lat":23.2401353,"Turn":58,"DayValue":"一,六","RecycleDate":"一,五"},{"StopId":211,"StopName":"大忠街60號巷口","ScheduleTime":"18:20","EstimateTime":"","CarInfo":"","Lon":120.2639863,"Lat":23.2397594,"Turn":59,"DayValue":"一,六","RecycleDate":"一,五"},{"StopId":212,"StopName":"大孝街60號巷口前","ScheduleTime":"18:22","EstimateTime":"","CarInfo":"","Lon":120.2626443,"Lat":23.2408769,"Turn":60,"DayValue":"一,六","RecycleDate":"一,五"},{"StopId":213,"StopName":"水池街158號","ScheduleTime":"18:24","EstimateTime":"","CarInfo":"","Lon":120.26189,"Lat":23.240721,"Turn":61,"DayValue":"一,六","RecycleDate":"一,五"},{"StopId":214,"StopName":"下營公園前水池街70號","ScheduleTime":"18:25","EstimateTime":"","CarInfo":"","Lon":120.2619787,"Lat":23.2394506,"Turn":62,"DayValue":"一,六","RecycleDate":"一,五"},{"StopId":215,"StopName":"游泳池前水池街9號","ScheduleTime":"18:26","EstimateTime":"","CarInfo":"","Lon":120.2619867,"Lat":23.2390363,"Turn":63,"DayValue":"一,六","RecycleDate":"一,五"},{"StopId":216,"StopName":"大埤里18-20號","ScheduleTime":"18:31","EstimateTime":"","CarInfo":"","Lon":120.2554351,"Lat":23.2306138,"Turn":64,"DayValue":"一,六","RecycleDate":"一,五"},{"StopId":217,"StopName":"大埤里2-17號前","ScheduleTime":"18:32","EstimateTime":"","CarInfo":"","Lon":120.2537185,"Lat":23.2298843,"Turn":65,"DayValue":"一,六","RecycleDate":"一,五"},{"StopId":218,"StopName":"大埤里18-32號巷口","ScheduleTime":"18:33","EstimateTime":"","CarInfo":"","Lon":120.252238,"Lat":23.2293519,"Turn":66,"DayValue":"一,六","RecycleDate":"一,五"},{"StopId":219,"StopName":"大埤里3之4號前","ScheduleTime":"18:34","EstimateTime":"","CarInfo":"","Lon":120.2495289,"Lat":23.2287455,"Turn":67,"DayValue":"一,六","RecycleDate":"一,五"},{"StopId":220,"StopName":"慶隆宮前大埤里3之15號","ScheduleTime":"18:36","EstimateTime":"","CarInfo":"","Lon":120.2486801,"Lat":23.2280778,"Turn":68,"DayValue":"一,六","RecycleDate":"一,五"},{"StopId":221,"StopName":"大埤公園前巷口大埤里69-1號","ScheduleTime":"18:37","EstimateTime":"","CarInfo":"","Lon":120.2474588,"Lat":23.2274366,"Turn":69,"DayValue":"一,六","RecycleDate":"一,五"},{"StopId":222,"StopName":"梅仔商店巷口大埤里26號","ScheduleTime":"18:38","EstimateTime":"","CarInfo":"","Lon":120.248212,"Lat":23.228642,"Turn":70,"DayValue":"一,六","RecycleDate":"一,五"},{"StopId":223,"StopName":"大埤里31號巷口","ScheduleTime":"18:40","EstimateTime":"","CarInfo":"","Lon":120.2486518,"Lat":23.2291078,"Turn":71,"DayValue":"一,六","RecycleDate":"一,五"},{"StopId":224,"StopName":"大埤里50號巷口","ScheduleTime":"18:42","EstimateTime":"","CarInfo":"","Lon":120.2479357,"Lat":23.2289969,"Turn":72,"DayValue":"一,六","RecycleDate":"一,五"},{"StopId":225,"StopName":"大埤里40之1號","ScheduleTime":"18:43","EstimateTime":"","CarInfo":"","Lon":120.2485902,"Lat":23.2297462,"Turn":73,"DayValue":"一,六","RecycleDate":"一,五"},{"StopId":226,"StopName":"大埤里35-2號巷口","ScheduleTime":"18:44","EstimateTime":"","CarInfo":"","Lon":120.2494122,"Lat":23.2295381,"Turn":74,"DayValue":"一,六","RecycleDate":"一,五"},{"StopId":227,"StopName":"(每週一、六收)大埤里40之11號","ScheduleTime":"18:45","EstimateTime":"","CarInfo":"","Lon":120.2489603,"Lat":23.2306976,"Turn":75,"DayValue":"一,六","RecycleDate":"一,五"},{"StopId":228,"StopName":"高速公路下旁(每週五收)大埤里59之6號","ScheduleTime":"18:46","EstimateTime":"","CarInfo":"","Lon":120.2443633,"Lat":23.2283166,"Turn":76,"DayValue":"一,六","RecycleDate":"一,五"},{"StopId":229,"StopName":"大埤里79之27號巷口","ScheduleTime":"18:48","EstimateTime":"","CarInfo":"","Lon":120.2481047,"Lat":23.2259406,"Turn":77,"DayValue":"一,六","RecycleDate":"一,五"},{"StopId":230,"StopName":"大埤里79-4號","ScheduleTime":"18:50","EstimateTime":"","CarInfo":"","Lon":120.2479974,"Lat":23.2249398,"Turn":78,"DayValue":"一,六","RecycleDate":"一,五"}],"CarData":[],"RouteId":6,"RouteName":"下營-2-1","RouteInfo":"中正北路360巷(每週一、六收)~大埤里79-4號","IsWork":false}]