[{"StopData":[{"StopId":2584,"StopName":"永大路二段1121號(永大路19樓)","ScheduleTime":"06:30","EstimateTime":"","CarInfo":"","Lon":120.2606194,"Lat":23.0270724,"Turn":1,"DayValue":"一,二,四,五,六","RecycleDate":""},{"StopId":2585,"StopName":"國光五街72號(崑山國小)","ScheduleTime":"06:53","EstimateTime":"","CarInfo":"","Lon":120.2582697,"Lat":23.0060881,"Turn":2,"DayValue":"一,二,四,五,六","RecycleDate":""},{"StopId":2586,"StopName":"國光七街332號","ScheduleTime":"07:00","EstimateTime":"","CarInfo":"","Lon":120.261013,"Lat":23.009598,"Turn":3,"DayValue":"一,二,四,五,六","RecycleDate":""},{"StopId":2587,"StopName":"大灣273號(大灣農會)","ScheduleTime":"07:25","EstimateTime":"","CarInfo":"","Lon":120.267394,"Lat":23.006356,"Turn":4,"DayValue":"一,二,四,五,六","RecycleDate":""},{"StopId":2588,"StopName":"富強路一段278號(西勢國小)","ScheduleTime":"07:50","EstimateTime":"","CarInfo":"","Lon":120.27521,"Lat":23.018795,"Turn":5,"DayValue":"一,二,四,五,六","RecycleDate":""},{"StopId":2589,"StopName":"國民路181號","ScheduleTime":"08:10","EstimateTime":"","CarInfo":"","Lon":120.263361,"Lat":23.023238,"Turn":6,"DayValue":"一,二,四,五,六","RecycleDate":""},{"StopId":2590,"StopName":"永大路二段1310巷12號","ScheduleTime":"08:20","EstimateTime":"","CarInfo":"","Lon":120.261956,"Lat":23.02242,"Turn":7,"DayValue":"一,二,四,五,六","RecycleDate":""},{"StopId":2591,"StopName":"大同街773號","ScheduleTime":"08:28","EstimateTime":"","CarInfo":"","Lon":120.2629389,"Lat":23.0221987,"Turn":8,"DayValue":"一,二,四,五,六","RecycleDate":""},{"StopId":2592,"StopName":"永平街56巷1號","ScheduleTime":"08:30","EstimateTime":"","CarInfo":"","Lon":120.2620946,"Lat":23.0212461,"Turn":9,"DayValue":"一,二,四,五,六","RecycleDate":""},{"StopId":2593,"StopName":"中山路10巷10號","ScheduleTime":"08:35","EstimateTime":"","CarInfo":"","Lon":120.257176,"Lat":23.0265438,"Turn":10,"DayValue":"一,二,四,五,六","RecycleDate":""},{"StopId":2594,"StopName":"中山路356號","ScheduleTime":"08:41","EstimateTime":"","CarInfo":"","Lon":120.255009,"Lat":23.034459,"Turn":11,"DayValue":"一,二,四,五,六","RecycleDate":""},{"StopId":2595,"StopName":"大灣路40巷209弄1號","ScheduleTime":"08:54","EstimateTime":"","CarInfo":"","Lon":120.2658252,"Lat":23.0161686,"Turn":12,"DayValue":"一,二,四,五,六","RecycleDate":""},{"StopId":2596,"StopName":"大同街380巷4號","ScheduleTime":"09:00","EstimateTime":"","CarInfo":"","Lon":120.2657577,"Lat":23.0145613,"Turn":13,"DayValue":"一,二,四,五,六","RecycleDate":""},{"StopId":2597,"StopName":"文賢街136巷2號","ScheduleTime":"09:03","EstimateTime":"","CarInfo":"","Lon":120.272214,"Lat":23.009811,"Turn":14,"DayValue":"一,二,四,五,六","RecycleDate":""},{"StopId":2598,"StopName":"富強路一段2巷31弄3號","ScheduleTime":"09:10","EstimateTime":"","CarInfo":"","Lon":120.2733219,"Lat":23.0138718,"Turn":15,"DayValue":"一,二,四,五,六","RecycleDate":""},{"StopId":2599,"StopName":"富強路一段2巷31弄21號","ScheduleTime":"09:15","EstimateTime":"","CarInfo":"","Lon":120.2734796,"Lat":23.0137181,"Turn":16,"DayValue":"一,二,四,五,六","RecycleDate":""},{"StopId":2600,"StopName":"永華路233巷26號","ScheduleTime":"09:22","EstimateTime":"","CarInfo":"","Lon":120.258465,"Lat":23.011705,"Turn":17,"DayValue":"一,二,四,五,六","RecycleDate":""},{"StopId":2601,"StopName":"大灣路942巷388弄25號","ScheduleTime":"09:23","EstimateTime":"","CarInfo":"","Lon":120.2591248,"Lat":23.0090567,"Turn":18,"DayValue":"一,二,四,五,六","RecycleDate":""},{"StopId":2602,"StopName":"永華路212巷12號(華盛頓)","ScheduleTime":"10:15","EstimateTime":"","CarInfo":"","Lon":120.2601803,"Lat":23.0089388,"Turn":19,"DayValue":"一,二,四,五,六","RecycleDate":""},{"StopId":2603,"StopName":"南興路112巷102號","ScheduleTime":"10:15","EstimateTime":"","CarInfo":"","Lon":120.2650834,"Lat":23.0007963,"Turn":20,"DayValue":"一,二,四,五,六","RecycleDate":""},{"StopId":2604,"StopName":"大仁街31巷33號","ScheduleTime":"10:50","EstimateTime":"","CarInfo":"","Lon":120.255821,"Lat":23.001251,"Turn":21,"DayValue":"一,二,四,五,六","RecycleDate":""},{"StopId":2605,"StopName":"復國一路62號(影三華夏)","ScheduleTime":"11:00","EstimateTime":"","CarInfo":"","Lon":120.2459911,"Lat":23.0032571,"Turn":22,"DayValue":"一,二,四,五,六","RecycleDate":""},{"StopId":2606,"StopName":"復華七街23號(陽光華夏)","ScheduleTime":"11:13","EstimateTime":"","CarInfo":"","Lon":120.24498,"Lat":23.0134584,"Turn":23,"DayValue":"一,二,四,五,六","RecycleDate":""},{"StopId":2607,"StopName":"復國二路260號(至真大樓)","ScheduleTime":"11:20","EstimateTime":"","CarInfo":"","Lon":120.2489518,"Lat":23.0140347,"Turn":24,"DayValue":"一,二,四,五,六","RecycleDate":""},{"StopId":2608,"StopName":"復國二路217號(香榭華夏)","ScheduleTime":"11:28","EstimateTime":"","CarInfo":"","Lon":120.24878,"Lat":23.014255,"Turn":25,"DayValue":"一,二,四,五,六","RecycleDate":""},{"StopId":2609,"StopName":"國華街102巷80號(欖翠華夏)","ScheduleTime":"11:38","EstimateTime":"","CarInfo":"","Lon":120.248275,"Lat":23.01516,"Turn":26,"DayValue":"一,二,四,五,六","RecycleDate":""},{"StopId":2610,"StopName":"永二街245巷27-1號(甜蜜家庭)","ScheduleTime":"11:47","EstimateTime":"","CarInfo":"","Lon":120.2521176,"Lat":23.0150174,"Turn":27,"DayValue":"一,二,四,五,六","RecycleDate":""}],"CarData":[],"RouteId":50,"RouteName":"永康-日間4","RouteInfo":"永大路二段1121號(永大路19樓)~永二街245巷27-1號(甜蜜家庭)","IsWork":true}]