[{"StopData":[{"StopId":2374,"StopName":"中正里176-8號","ScheduleTime":"17:30","EstimateTime":"","CarInfo":"","Lon":120.409451,"Lat":23.056195,"Turn":1,"DayValue":"一,二,四,六","RecycleDate":"四"},{"StopId":2375,"StopName":"中正里175-10號","ScheduleTime":"17:31","EstimateTime":"","CarInfo":"","Lon":120.410388,"Lat":23.05616,"Turn":2,"DayValue":"一,二,四,六","RecycleDate":"四"},{"StopId":2376,"StopName":"電力公司","ScheduleTime":"17:33","EstimateTime":"","CarInfo":"","Lon":120.411122,"Lat":23.055599,"Turn":3,"DayValue":"一,二,四,六","RecycleDate":"四"},{"StopId":2377,"StopName":"中正里（吳秘書巷口）","ScheduleTime":"17:34","EstimateTime":"","CarInfo":"","Lon":120.408941,"Lat":23.057027,"Turn":4,"DayValue":"一,二,四,六","RecycleDate":"四"},{"StopId":2378,"StopName":"中正里130-9號","ScheduleTime":"17:35","EstimateTime":"","CarInfo":"","Lon":120.408025,"Lat":23.05762,"Turn":5,"DayValue":"一,二,四,六","RecycleDate":"四"},{"StopId":2379,"StopName":"中正里136號","ScheduleTime":"17:37","EstimateTime":"","CarInfo":"","Lon":120.4079188,"Lat":23.0584206,"Turn":6,"DayValue":"一,二,四,六","RecycleDate":"四"},{"StopId":2380,"StopName":"鄉土味餐飲店","ScheduleTime":"17:38","EstimateTime":"","CarInfo":"","Lon":120.4082608,"Lat":23.0586005,"Turn":7,"DayValue":"一,二,四,六","RecycleDate":"四"},{"StopId":2381,"StopName":"又佳藥局","ScheduleTime":"17:39","EstimateTime":"","CarInfo":"","Lon":120.408603,"Lat":23.058884,"Turn":8,"DayValue":"一,二,四,六","RecycleDate":"四"},{"StopId":2382,"StopName":"消防隊","ScheduleTime":"17:40","EstimateTime":"","CarInfo":"","Lon":120.421035,"Lat":23.062856,"Turn":9,"DayValue":"一,二,四,六","RecycleDate":"四"},{"StopId":2383,"StopName":"加油站","ScheduleTime":"17:41","EstimateTime":"","CarInfo":"","Lon":120.416036,"Lat":23.06027,"Turn":10,"DayValue":"一,二,四,六","RecycleDate":"四"},{"StopId":2384,"StopName":"中正里78-5號路口(舊甘蔗場)","ScheduleTime":"17:43","EstimateTime":"","CarInfo":"","Lon":120.40806,"Lat":23.059214,"Turn":11,"DayValue":"一,二,四,六","RecycleDate":"四"},{"StopId":2385,"StopName":"勝雄藥局","ScheduleTime":"17:44","EstimateTime":"","CarInfo":"","Lon":120.407928,"Lat":23.058564,"Turn":12,"DayValue":"一,二,四,六","RecycleDate":"四"},{"StopId":2386,"StopName":"中正里114號路口","ScheduleTime":"17:45","EstimateTime":"","CarInfo":"","Lon":120.407366,"Lat":23.058306,"Turn":13,"DayValue":"一,二,四,六","RecycleDate":"四"},{"StopId":2387,"StopName":"中正里16號","ScheduleTime":"17:46","EstimateTime":"","CarInfo":"","Lon":120.405201,"Lat":23.056578,"Turn":14,"DayValue":"一,二,四,六","RecycleDate":"四"},{"StopId":2388,"StopName":"左鎮農會供銷部","ScheduleTime":"17:47","EstimateTime":"","CarInfo":"","Lon":120.40465,"Lat":23.055432,"Turn":15,"DayValue":"一,二,四,六","RecycleDate":"四"},{"StopId":2389,"StopName":"湖底路口","ScheduleTime":"17:48","EstimateTime":"","CarInfo":"","Lon":120.403097,"Lat":23.054018,"Turn":16,"DayValue":"一,二,四,六","RecycleDate":"四"},{"StopId":2390,"StopName":"太平電器行","ScheduleTime":"17:49","EstimateTime":"","CarInfo":"","Lon":120.411375,"Lat":23.053472,"Turn":17,"DayValue":"一,二,四,六","RecycleDate":"四"},{"StopId":2391,"StopName":"瑞慶檳榔攤","ScheduleTime":"17:50","EstimateTime":"","CarInfo":"","Lon":120.413315,"Lat":23.053431,"Turn":18,"DayValue":"一,二,四,六","RecycleDate":"四"},{"StopId":2392,"StopName":"懷古居","ScheduleTime":"17:52","EstimateTime":"","CarInfo":"","Lon":120.414677,"Lat":23.053456,"Turn":19,"DayValue":"一,二,四,六","RecycleDate":"四"},{"StopId":2393,"StopName":"雲豹檳榔攤","ScheduleTime":"17:52","EstimateTime":"","CarInfo":"","Lon":120.419154,"Lat":23.051504,"Turn":20,"DayValue":"一,二,四,六","RecycleDate":"四"},{"StopId":2394,"StopName":"睦光車站牌","ScheduleTime":"17:53","EstimateTime":"","CarInfo":"","Lon":120.419542,"Lat":23.051254,"Turn":21,"DayValue":"一,二,四,六","RecycleDate":"四"},{"StopId":2395,"StopName":"內庄巡守隊","ScheduleTime":"17:54","EstimateTime":"","CarInfo":"","Lon":120.422614,"Lat":23.040353,"Turn":22,"DayValue":"一,二,四,六","RecycleDate":"四"},{"StopId":2396,"StopName":"內庄34號","ScheduleTime":"17:55","EstimateTime":"","CarInfo":"","Lon":120.422216,"Lat":23.039897,"Turn":23,"DayValue":"一,二,四,六","RecycleDate":"四"},{"StopId":2397,"StopName":"內庄34-1號","ScheduleTime":"17:56","EstimateTime":"","CarInfo":"","Lon":120.421436,"Lat":23.039331,"Turn":24,"DayValue":"一,二,四,六","RecycleDate":"四"},{"StopId":2398,"StopName":"內庄保中宮","ScheduleTime":"17:57","EstimateTime":"","CarInfo":"","Lon":120.420731,"Lat":23.039166,"Turn":25,"DayValue":"一,二,四,六","RecycleDate":"四"},{"StopId":2399,"StopName":"睦光紅?檳榔攤","ScheduleTime":"18:00","EstimateTime":"","CarInfo":"","Lon":120.420086,"Lat":23.05089,"Turn":26,"DayValue":"一,二,四,六","RecycleDate":"四"},{"StopId":2400,"StopName":"電烤土雞","ScheduleTime":"18:02","EstimateTime":"","CarInfo":"","Lon":120.413662,"Lat":23.053662,"Turn":27,"DayValue":"一,二,四,六","RecycleDate":"四"},{"StopId":2401,"StopName":"左鎮牌樓對面紅綠燈路口","ScheduleTime":"18:04","EstimateTime":"","CarInfo":"","Lon":120.405326,"Lat":23.053306,"Turn":28,"DayValue":"一,二,四,六","RecycleDate":"四"},{"StopId":2402,"StopName":"平埔族美食","ScheduleTime":"18:06","EstimateTime":"","CarInfo":"","Lon":120.401479,"Lat":23.055835,"Turn":29,"DayValue":"一,二,四,六","RecycleDate":"四"},{"StopId":2403,"StopName":"阿興檳榔攤","ScheduleTime":"18:08","EstimateTime":"","CarInfo":"","Lon":120.398552,"Lat":23.056978,"Turn":30,"DayValue":"一,二,四,六","RecycleDate":"四"},{"StopId":2404,"StopName":"慈惠教養院","ScheduleTime":"18:10","EstimateTime":"","CarInfo":"","Lon":120.396617,"Lat":23.058869,"Turn":31,"DayValue":"一,二,四,六","RecycleDate":"四"},{"StopId":2405,"StopName":"文欽餐飲部","ScheduleTime":"18:12","EstimateTime":"","CarInfo":"","Lon":120.3891657,"Lat":23.0632212,"Turn":32,"DayValue":"一,二,四,六","RecycleDate":"四"},{"StopId":2406,"StopName":"勝利機車行","ScheduleTime":"18:14","EstimateTime":"","CarInfo":"","Lon":120.3883731,"Lat":23.0635796,"Turn":33,"DayValue":"一,二,四,六","RecycleDate":"四"},{"StopId":2407,"StopName":"金紙店入口","ScheduleTime":"18:15","EstimateTime":"","CarInfo":"","Lon":120.3875867,"Lat":23.0639305,"Turn":34,"DayValue":"一,二,四,六","RecycleDate":"四"},{"StopId":2408,"StopName":"榮和國小","ScheduleTime":"18:17","EstimateTime":"","CarInfo":"","Lon":120.389783,"Lat":23.064138,"Turn":35,"DayValue":"一,二,四,六","RecycleDate":"四"},{"StopId":2409,"StopName":"阿咪理髮店","ScheduleTime":"18:19","EstimateTime":"","CarInfo":"","Lon":120.3867038,"Lat":23.0642646,"Turn":36,"DayValue":"一,二,四,六","RecycleDate":"四"},{"StopId":2410,"StopName":"榮和里7號","ScheduleTime":"18:20","EstimateTime":"","CarInfo":"","Lon":120.38297,"Lat":23.064931,"Turn":37,"DayValue":"一,二,四,六","RecycleDate":"四"},{"StopId":2411,"StopName":"光和里19號(檳榔攤)","ScheduleTime":"18:22","EstimateTime":"","CarInfo":"","Lon":120.379549,"Lat":23.068196,"Turn":38,"DayValue":"一,二,四,六","RecycleDate":"四"},{"StopId":2412,"StopName":"光和里5號路口","ScheduleTime":"18:23","EstimateTime":"","CarInfo":"","Lon":120.376333,"Lat":23.073142,"Turn":39,"DayValue":"一,二,四,六","RecycleDate":"四"},{"StopId":2413,"StopName":"大力窯業路口","ScheduleTime":"18:24","EstimateTime":"","CarInfo":"","Lon":120.37514,"Lat":23.077795,"Turn":40,"DayValue":"一,二,四,六","RecycleDate":"四"},{"StopId":2414,"StopName":"洪海波巷口","ScheduleTime":"18:25","EstimateTime":"","CarInfo":"","Lon":120.377425,"Lat":23.070244,"Turn":41,"DayValue":"一,二,四,六","RecycleDate":"四"},{"StopId":2415,"StopName":"光和教會","ScheduleTime":"18:26","EstimateTime":"","CarInfo":"","Lon":120.3793242,"Lat":23.0675601,"Turn":42,"DayValue":"一,二,四,六","RecycleDate":"四"},{"StopId":2416,"StopName":"光和里51-4號","ScheduleTime":"18:31","EstimateTime":"","CarInfo":"","Lon":120.379942,"Lat":23.067272,"Turn":43,"DayValue":"一,二,四,六","RecycleDate":"四"},{"StopId":2417,"StopName":"平和宅前","ScheduleTime":"18:32","EstimateTime":"","CarInfo":"","Lon":120.384231,"Lat":23.064278,"Turn":44,"DayValue":"一,二,四,六","RecycleDate":"四"},{"StopId":2418,"StopName":"三重溪部落","ScheduleTime":"18:34","EstimateTime":"","CarInfo":"","Lon":120.385169,"Lat":23.059059,"Turn":45,"DayValue":"一,二,四,六","RecycleDate":"四"},{"StopId":2419,"StopName":"展仔保養廠","ScheduleTime":"18:36","EstimateTime":"","CarInfo":"","Lon":120.387775,"Lat":23.063759,"Turn":46,"DayValue":"一,二,四,六","RecycleDate":"四"},{"StopId":2420,"StopName":"田媽媽餐廠","ScheduleTime":"18:40","EstimateTime":"","CarInfo":"","Lon":120.389164,"Lat":23.063105,"Turn":47,"DayValue":"一,二,四,六","RecycleDate":"四"},{"StopId":2421,"StopName":"榮和里長宅路口","ScheduleTime":"18:45","EstimateTime":"","CarInfo":"","Lon":120.391909,"Lat":23.060414,"Turn":48,"DayValue":"一,二,四,六","RecycleDate":"四"},{"StopId":2422,"StopName":"榮和龍溝車站牌","ScheduleTime":"18:50","EstimateTime":"","CarInfo":"","Lon":120.392369,"Lat":23.060204,"Turn":49,"DayValue":"一,二,四,六","RecycleDate":"四"},{"StopId":2423,"StopName":"風從山來奇木停車場","ScheduleTime":"18:52","EstimateTime":"","CarInfo":"","Lon":120.397037,"Lat":23.058176,"Turn":50,"DayValue":"一,二,四,六","RecycleDate":"四"},{"StopId":2424,"StopName":"噶瑪噶居寺","ScheduleTime":"18:55","EstimateTime":"","CarInfo":"","Lon":120.400129,"Lat":23.053747,"Turn":51,"DayValue":"一,二,四,六","RecycleDate":"四"}],"CarData":[],"RouteId":46,"RouteName":"左鎮-1","RouteInfo":"中正里176-8號~噶瑪噶居寺","IsWork":true}]