[{"StopData":[{"StopId":13337,"StopName":"葛萊民宿","ScheduleTime":"14:02","EstimateTime":"","CarInfo":"","Lon":120.184926,"Lat":23.215329,"Turn":1,"DayValue":"六","RecycleDate":"六"},{"StopId":13338,"StopName":"黃家牛肉麵","ScheduleTime":"14:07","EstimateTime":"","CarInfo":"","Lon":120.186003,"Lat":23.208205,"Turn":2,"DayValue":"六","RecycleDate":"六"},{"StopId":13339,"StopName":"大灣103號","ScheduleTime":"14:11","EstimateTime":"","CarInfo":"","Lon":120.186228,"Lat":23.209388,"Turn":3,"DayValue":"六","RecycleDate":"六"},{"StopId":13340,"StopName":"大灣48號前","ScheduleTime":"14:14","EstimateTime":"","CarInfo":"","Lon":120.187867,"Lat":23.210214,"Turn":4,"DayValue":"六","RecycleDate":"六"},{"StopId":13341,"StopName":"崑洲(大灣39-10號)","ScheduleTime":"14:20","EstimateTime":"","CarInfo":"","Lon":120.186326,"Lat":23.211264,"Turn":5,"DayValue":"六","RecycleDate":"六"},{"StopId":13342,"StopName":"清濟宮","ScheduleTime":"14:25","EstimateTime":"","CarInfo":"","Lon":120.188964,"Lat":23.212324,"Turn":6,"DayValue":"六","RecycleDate":"六"},{"StopId":13343,"StopName":"大灣29號","ScheduleTime":"14:33","EstimateTime":"","CarInfo":"","Lon":120.187772,"Lat":23.212086,"Turn":7,"DayValue":"六","RecycleDate":"六"},{"StopId":13344,"StopName":"御林園(華宗路2-18號)","ScheduleTime":"14:37","EstimateTime":"","CarInfo":"","Lon":120.18459,"Lat":23.219088,"Turn":8,"DayValue":"六","RecycleDate":"六"},{"StopId":13345,"StopName":"農伯食品(美和4-1號)","ScheduleTime":"14:41","EstimateTime":"","CarInfo":"","Lon":120.19661,"Lat":23.224647,"Turn":9,"DayValue":"六","RecycleDate":"六"},{"StopId":13346,"StopName":"農會","ScheduleTime":"14:46","EstimateTime":"","CarInfo":"","Lon":120.198836,"Lat":23.220751,"Turn":10,"DayValue":"六","RecycleDate":"六"},{"StopId":13347,"StopName":"美豐90之2號","ScheduleTime":"14:49","EstimateTime":"","CarInfo":"","Lon":120.199527,"Lat":23.218045,"Turn":11,"DayValue":"六","RecycleDate":"六"},{"StopId":13348,"StopName":"美豐125號之14","ScheduleTime":"14:52","EstimateTime":"","CarInfo":"","Lon":120.196049,"Lat":23.21577,"Turn":12,"DayValue":"六","RecycleDate":"六"},{"StopId":13349,"StopName":"賴春明家前(美豐89號之1號)","ScheduleTime":"14:56","EstimateTime":"","CarInfo":"","Lon":120.199388,"Lat":23.217999,"Turn":13,"DayValue":"六","RecycleDate":"六"},{"StopId":13350,"StopName":"賴姓宗祠","ScheduleTime":"15:00","EstimateTime":"","CarInfo":"","Lon":120.201447,"Lat":23.218431,"Turn":14,"DayValue":"六","RecycleDate":"六"},{"StopId":13351,"StopName":"美豐新城(美豐67之12號)","ScheduleTime":"15:05","EstimateTime":"","CarInfo":"","Lon":120.200755,"Lat":23.215535,"Turn":15,"DayValue":"六","RecycleDate":"六"},{"StopId":13352,"StopName":"陳正福家前(美豐63之7號)","ScheduleTime":"15:09","EstimateTime":"","CarInfo":"","Lon":120.199687,"Lat":23.222438,"Turn":16,"DayValue":"六","RecycleDate":"六"},{"StopId":13353,"StopName":"山寮東明宮","ScheduleTime":"15:20","EstimateTime":"","CarInfo":"","Lon":120.197723,"Lat":23.234828,"Turn":17,"DayValue":"六","RecycleDate":"六"},{"StopId":13354,"StopName":"瓦寮永安宮","ScheduleTime":"15:31","EstimateTime":"","CarInfo":"","Lon":120.214062,"Lat":23.232486,"Turn":18,"DayValue":"六","RecycleDate":"六"},{"StopId":13355,"StopName":"正峰牧場","ScheduleTime":"15:42","EstimateTime":"","CarInfo":"","Lon":120.198117,"Lat":23.239295,"Turn":19,"DayValue":"六","RecycleDate":"六"},{"StopId":13356,"StopName":"張濟宮","ScheduleTime":"15:48","EstimateTime":"","CarInfo":"","Lon":120.19583,"Lat":23.240042,"Turn":20,"DayValue":"六","RecycleDate":"六"},{"StopId":13357,"StopName":"南一脫產(頂山寮1-46號)","ScheduleTime":"15:53","EstimateTime":"","CarInfo":"","Lon":120.189432,"Lat":23.235476,"Turn":21,"DayValue":"六","RecycleDate":"六"}],"CarData":[],"RouteId":288,"RouteName":"學甲-4(日間)","RouteInfo":"葛萊民宿~南一脫產(頂山寮1-46號)","IsWork":false}]