[{"StopData":[{"StopId":14065,"StopName":"選舉委員會、華平派出所、地政事務所、永華路消防隊、調查局","ScheduleTime":"14:25","EstimateTime":"","CarInfo":"","Lon":120.182584,"Lat":22.990636,"Turn":1,"DayValue":"一,二,四,六","RecycleDate":"一,四"},{"StopId":14066,"StopName":"中油加油站","ScheduleTime":"14:30","EstimateTime":"","CarInfo":"","Lon":120.184323,"Lat":22.9966911,"Turn":2,"DayValue":"一,二,四,六","RecycleDate":"一,四"},{"StopId":14067,"StopName":"建平十七街81號前","ScheduleTime":"14:37","EstimateTime":"","CarInfo":"","Lon":120.180941,"Lat":22.99742,"Turn":3,"DayValue":"一,二,四,六","RecycleDate":"一,四"},{"StopId":14068,"StopName":"府前三街155號前","ScheduleTime":"14:42","EstimateTime":"","CarInfo":"","Lon":120.1856387,"Lat":22.9957269,"Turn":4,"DayValue":"一,二,四,六","RecycleDate":"一,四"},{"StopId":14069,"StopName":"府前三街129號","ScheduleTime":"14:44","EstimateTime":"","CarInfo":"","Lon":120.1855889,"Lat":22.9951542,"Turn":5,"DayValue":"一,二,四,六","RecycleDate":"一,四"},{"StopId":14070,"StopName":"府前三街與府前路二段口","ScheduleTime":"14:47","EstimateTime":"","CarInfo":"","Lon":120.1861052,"Lat":22.9928576,"Turn":6,"DayValue":"一,二,四,六","RecycleDate":"一,四"},{"StopId":14071,"StopName":"府前四街98號前(基督教)","ScheduleTime":"14:49","EstimateTime":"","CarInfo":"","Lon":120.1850787,"Lat":22.9951161,"Turn":7,"DayValue":"一,二,四,六","RecycleDate":"一,四"},{"StopId":14072,"StopName":"府前四街111號前","ScheduleTime":"14:51","EstimateTime":"","CarInfo":"","Lon":120.1851199,"Lat":22.9956319,"Turn":8,"DayValue":"一,二,四,六","RecycleDate":"一,四"},{"StopId":14073,"StopName":"建平十街37號前","ScheduleTime":"14:53","EstimateTime":"","CarInfo":"","Lon":120.184436,"Lat":22.993764,"Turn":9,"DayValue":"一,二,四,六","RecycleDate":"一,四"},{"StopId":14074,"StopName":"慶平路62號","ScheduleTime":"14:56","EstimateTime":"","CarInfo":"","Lon":120.182899,"Lat":22.9969357,"Turn":10,"DayValue":"一,二,四,六","RecycleDate":"一,四"},{"StopId":14075,"StopName":"慶平路88號","ScheduleTime":"14:58","EstimateTime":"","CarInfo":"","Lon":120.1819713,"Lat":22.9970177,"Turn":11,"DayValue":"一,二,四,六","RecycleDate":"一,四"},{"StopId":14076,"StopName":"慶平路98號","ScheduleTime":"15:00","EstimateTime":"","CarInfo":"","Lon":120.1814138,"Lat":22.9970489,"Turn":12,"DayValue":"一,二,四,六","RecycleDate":"一,四"},{"StopId":14077,"StopName":"慶平路166號","ScheduleTime":"15:02","EstimateTime":"","CarInfo":"","Lon":120.1800948,"Lat":22.9970935,"Turn":13,"DayValue":"一,二,四,六","RecycleDate":"一,四"},{"StopId":14078,"StopName":"建平十二街134號","ScheduleTime":"15:04","EstimateTime":"","CarInfo":"","Lon":120.1807965,"Lat":22.9951987,"Turn":14,"DayValue":"一,二,四,六","RecycleDate":"一,四"},{"StopId":14079,"StopName":"建平十二街80號","ScheduleTime":"15:05","EstimateTime":"","CarInfo":"","Lon":120.1826421,"Lat":22.9949934,"Turn":15,"DayValue":"一,二,四,六","RecycleDate":"一,四"},{"StopId":14080,"StopName":"建平十三街23號","ScheduleTime":"15:07","EstimateTime":"","CarInfo":"","Lon":120.1832826,"Lat":22.995328,"Turn":16,"DayValue":"一,二,四,六","RecycleDate":"一,四"},{"StopId":14081,"StopName":"建平十三街47號","ScheduleTime":"15:09","EstimateTime":"","CarInfo":"","Lon":120.182528,"Lat":22.995396,"Turn":17,"DayValue":"一,二,四,六","RecycleDate":"一,四"},{"StopId":14082,"StopName":"建平十三街與永華三街口","ScheduleTime":"15:11","EstimateTime":"","CarInfo":"","Lon":120.182071,"Lat":22.995488,"Turn":18,"DayValue":"一,二,四,六","RecycleDate":"一,四"},{"StopId":14083,"StopName":"建平十三街90號","ScheduleTime":"15:13","EstimateTime":"","CarInfo":"","Lon":120.1811867,"Lat":22.9955889,"Turn":19,"DayValue":"一,二,四,六","RecycleDate":"一,四"},{"StopId":14084,"StopName":"建平十四街122號","ScheduleTime":"15:15","EstimateTime":"","CarInfo":"","Lon":120.1813492,"Lat":22.9960158,"Turn":20,"DayValue":"一,二,四,六","RecycleDate":"一,四"},{"StopId":14085,"StopName":"建平十四街55號","ScheduleTime":"15:17","EstimateTime":"","CarInfo":"","Lon":120.1826755,"Lat":22.9958411,"Turn":21,"DayValue":"一,二,四,六","RecycleDate":"一,四"},{"StopId":14086,"StopName":"建平十五街131號","ScheduleTime":"15:19","EstimateTime":"","CarInfo":"","Lon":120.182987,"Lat":22.996274,"Turn":22,"DayValue":"一,二,四,六","RecycleDate":"一,四"},{"StopId":14087,"StopName":"建平十五街56號","ScheduleTime":"15:21","EstimateTime":"","CarInfo":"","Lon":120.182619,"Lat":22.9963493,"Turn":23,"DayValue":"一,二,四,六","RecycleDate":"一,四"},{"StopId":14088,"StopName":"建平十五街187號","ScheduleTime":"15:23","EstimateTime":"","CarInfo":"","Lon":120.181484,"Lat":22.996389,"Turn":24,"DayValue":"一,二,四,六","RecycleDate":"一,四"},{"StopId":14089,"StopName":"慶平路45號","ScheduleTime":"15:25","EstimateTime":"","CarInfo":"","Lon":120.183478,"Lat":22.996831,"Turn":25,"DayValue":"一,二,四,六","RecycleDate":"一,四"},{"StopId":14090,"StopName":"建平十一街82號旁","ScheduleTime":"15:27","EstimateTime":"","CarInfo":"","Lon":120.1826347,"Lat":22.9945397,"Turn":26,"DayValue":"一,二,四,六","RecycleDate":"一,四"},{"StopId":14091,"StopName":"建平十一街126號前","ScheduleTime":"15:28","EstimateTime":"","CarInfo":"","Lon":120.1814244,"Lat":22.9946425,"Turn":27,"DayValue":"一,二,四,六","RecycleDate":"一,四"},{"StopId":14092,"StopName":"建平十一街166號前","ScheduleTime":"15:29","EstimateTime":"","CarInfo":"","Lon":120.1803578,"Lat":22.9947744,"Turn":28,"DayValue":"一,二,四,六","RecycleDate":"一,四"},{"StopId":14093,"StopName":"怡平路140巷37弄1之5號","ScheduleTime":"15:31","EstimateTime":"","CarInfo":"","Lon":120.179575,"Lat":22.994426,"Turn":29,"DayValue":"一,二,四,六","RecycleDate":"一,四"},{"StopId":14094,"StopName":"文平路479號","ScheduleTime":"15:33","EstimateTime":"","CarInfo":"","Lon":120.1789115,"Lat":22.9945668,"Turn":30,"DayValue":"一,二,四,六","RecycleDate":"一,四"},{"StopId":14095,"StopName":"怡平路140巷27弄7號","ScheduleTime":"15:35","EstimateTime":"","CarInfo":"","Lon":120.1793435,"Lat":22.99402,"Turn":31,"DayValue":"一,二,四,六","RecycleDate":"一,四"},{"StopId":14096,"StopName":"怡平路140巷17弄3號","ScheduleTime":"15:37","EstimateTime":"","CarInfo":"","Lon":120.1794479,"Lat":22.99356,"Turn":32,"DayValue":"一,二,四,六","RecycleDate":"一,四"},{"StopId":14097,"StopName":"怡平路123號","ScheduleTime":"15:39","EstimateTime":"","CarInfo":"","Lon":120.17944,"Lat":22.993062,"Turn":33,"DayValue":"一,二,四,六","RecycleDate":"一,四"},{"StopId":14098,"StopName":"平通路口與永華五街113號前","ScheduleTime":"15:41","EstimateTime":"","CarInfo":"","Lon":120.1797158,"Lat":22.992456,"Turn":34,"DayValue":"一,二,四,六","RecycleDate":"一,四"},{"StopId":14099,"StopName":"平通路84巷3號","ScheduleTime":"15:43","EstimateTime":"","CarInfo":"","Lon":120.1806944,"Lat":22.9923723,"Turn":35,"DayValue":"一,二,四,六","RecycleDate":"一,四"},{"StopId":14100,"StopName":"平通路60號前","ScheduleTime":"15:45","EstimateTime":"","CarInfo":"","Lon":120.1814824,"Lat":22.992284,"Turn":36,"DayValue":"一,二,四,六","RecycleDate":"一,四"},{"StopId":14101,"StopName":"平通路27號口","ScheduleTime":"15:47","EstimateTime":"","CarInfo":"","Lon":120.1821741,"Lat":22.9922224,"Turn":37,"DayValue":"一,二,四,六","RecycleDate":"一,四"},{"StopId":14102,"StopName":"永華三街75號","ScheduleTime":"15:49","EstimateTime":"","CarInfo":"","Lon":120.1815887,"Lat":22.9919915,"Turn":38,"DayValue":"一,二,四,六","RecycleDate":"一,四"},{"StopId":14103,"StopName":"建平九街48號前","ScheduleTime":"15:51","EstimateTime":"","CarInfo":"","Lon":120.1811163,"Lat":22.9910546,"Turn":39,"DayValue":"一,二,四,六","RecycleDate":"一,四"},{"StopId":14104,"StopName":"建平九街60巷33號口","ScheduleTime":"15:53","EstimateTime":"","CarInfo":"","Lon":120.1809061,"Lat":22.9920541,"Turn":40,"DayValue":"一,二,四,六","RecycleDate":"一,四"},{"StopId":14105,"StopName":"建平九街60巷31弄16號","ScheduleTime":"15:54","EstimateTime":"","CarInfo":"","Lon":120.1806139,"Lat":22.9919757,"Turn":41,"DayValue":"一,二,四,六","RecycleDate":"一,四"},{"StopId":14106,"StopName":"建平九街60巷31弄38號口與永華五街89號口","ScheduleTime":"15:56","EstimateTime":"","CarInfo":"","Lon":120.1799477,"Lat":22.9920589,"Turn":42,"DayValue":"一,二,四,六","RecycleDate":"一,四"},{"StopId":14107,"StopName":"永華五街75號與建平九街60巷13弄29號十字路口","ScheduleTime":"15:58","EstimateTime":"","CarInfo":"","Lon":120.179659,"Lat":22.9915505,"Turn":43,"DayValue":"一,二,四,六","RecycleDate":"一,四"},{"StopId":14108,"StopName":"建平八街108巷36號","ScheduleTime":"16:01","EstimateTime":"","CarInfo":"","Lon":120.179113,"Lat":22.991586,"Turn":44,"DayValue":"一,二,四,六","RecycleDate":"一,四"},{"StopId":14109,"StopName":"建平八街72 號","ScheduleTime":"16:03","EstimateTime":"","CarInfo":"","Lon":120.1800509,"Lat":22.9906742,"Turn":45,"DayValue":"一,二,四,六","RecycleDate":"一,四"},{"StopId":14110,"StopName":"永華路470號","ScheduleTime":"16:05","EstimateTime":"","CarInfo":"","Lon":120.1762189,"Lat":22.9904934,"Turn":46,"DayValue":"一,二,四,六","RecycleDate":"一,四"},{"StopId":14111,"StopName":"永華路與華平路口","ScheduleTime":"16:07","EstimateTime":"","CarInfo":"","Lon":120.174987,"Lat":22.9906356,"Turn":47,"DayValue":"一,二,四,六","RecycleDate":"一,四"},{"StopId":14112,"StopName":"華平路472號旁空地","ScheduleTime":"16:09","EstimateTime":"","CarInfo":"","Lon":120.1753244,"Lat":22.9925024,"Turn":48,"DayValue":"一,二,四,六","RecycleDate":"一,四"},{"StopId":14113,"StopName":"國平路552巷與永華八街路口","ScheduleTime":"16:12","EstimateTime":"","CarInfo":"","Lon":120.1729851,"Lat":22.9964849,"Turn":49,"DayValue":"一,二,四,六","RecycleDate":"一,四"},{"StopId":14114,"StopName":"育平九街142巷73號","ScheduleTime":"16:14","EstimateTime":"","CarInfo":"","Lon":120.1724127,"Lat":22.9964781,"Turn":50,"DayValue":"一,二,四,六","RecycleDate":"一,四"},{"StopId":14115,"StopName":"育平九街142巷46號","ScheduleTime":"16:16","EstimateTime":"","CarInfo":"","Lon":120.17236,"Lat":22.996047,"Turn":51,"DayValue":"一,二,四,六","RecycleDate":"一,四"},{"StopId":14116,"StopName":"永華八街325號","ScheduleTime":"16:18","EstimateTime":"","CarInfo":"","Lon":120.1728407,"Lat":22.9956612,"Turn":52,"DayValue":"一,二,四,六","RecycleDate":"一,四"},{"StopId":14117,"StopName":"怡平路468巷72號","ScheduleTime":"16:20","EstimateTime":"","CarInfo":"","Lon":120.1733892,"Lat":22.9956206,"Turn":53,"DayValue":"一,二,四,六","RecycleDate":"一,四"},{"StopId":14118,"StopName":"怡平路468巷31號","ScheduleTime":"16:22","EstimateTime":"","CarInfo":"","Lon":120.1732445,"Lat":22.9944949,"Turn":54,"DayValue":"一,二,四,六","RecycleDate":"一,四"},{"StopId":14119,"StopName":"怡平路475號","ScheduleTime":"16:24","EstimateTime":"","CarInfo":"","Lon":120.1729416,"Lat":22.9938684,"Turn":55,"DayValue":"一,二,四,六","RecycleDate":"一,四"},{"StopId":14120,"StopName":"怡平路442巷16號","ScheduleTime":"16:26","EstimateTime":"","CarInfo":"","Lon":120.1737651,"Lat":22.9943408,"Turn":56,"DayValue":"一,二,四,六","RecycleDate":"一,四"},{"StopId":14121,"StopName":"怡平路442巷61號","ScheduleTime":"16:28","EstimateTime":"","CarInfo":"","Lon":120.1738993,"Lat":22.9952444,"Turn":57,"DayValue":"一,二,四,六","RecycleDate":"一,四"},{"StopId":14122,"StopName":"怡平路442巷105號","ScheduleTime":"16:30","EstimateTime":"","CarInfo":"","Lon":120.1740343,"Lat":22.9959611,"Turn":58,"DayValue":"一,二,四,六","RecycleDate":"一,四"},{"StopId":14123,"StopName":"健康二街527號","ScheduleTime":"16:32","EstimateTime":"","CarInfo":"","Lon":120.1746019,"Lat":22.9959852,"Turn":59,"DayValue":"一,二,四,六","RecycleDate":"一,四"},{"StopId":14124,"StopName":"健康二街453號","ScheduleTime":"16:34","EstimateTime":"","CarInfo":"","Lon":120.1742467,"Lat":22.9938742,"Turn":60,"DayValue":"一,二,四,六","RecycleDate":"一,四"},{"StopId":14125,"StopName":"平通路446號","ScheduleTime":"16:36","EstimateTime":"","CarInfo":"","Lon":120.1735816,"Lat":22.9932611,"Turn":61,"DayValue":"一,二,四,六","RecycleDate":"一,四"},{"StopId":14126,"StopName":"平通路與永華八街街口","ScheduleTime":"16:38","EstimateTime":"","CarInfo":"","Lon":120.1726026,"Lat":22.9933597,"Turn":62,"DayValue":"一,二,四,六","RecycleDate":"一,四"}],"CarData":[],"RouteId":335,"RouteName":"安平區-3(下午)","RouteInfo":"選舉委員會、華平派出所、地政事務所、永華路消防隊、調查局~平通路與永華八街街口","IsWork":true}]