[{"StopData":[{"StopId":11942,"StopName":"柳營路二段59號","ScheduleTime":"17:55","EstimateTime":"","CarInfo":"","Lon":120.312312,"Lat":23.277816,"Turn":1,"DayValue":"六","RecycleDate":"三,六"},{"StopId":11943,"StopName":"柳營路二段238號博愛幼稚園","ScheduleTime":"17:58","EstimateTime":"","CarInfo":"","Lon":120.312219,"Lat":23.282291,"Turn":2,"DayValue":"六","RecycleDate":"三,六"},{"StopId":11944,"StopName":"光福里279之1","ScheduleTime":"18:01","EstimateTime":"","CarInfo":"","Lon":120.3129383,"Lat":23.2842166,"Turn":3,"DayValue":"六","RecycleDate":"三,六"},{"StopId":11945,"StopName":"建業路379巷28號","ScheduleTime":"18:03","EstimateTime":"","CarInfo":"","Lon":120.3171696,"Lat":23.2879058,"Turn":4,"DayValue":"六","RecycleDate":"三,六"},{"StopId":11946,"StopName":"建業路205巷198號","ScheduleTime":"18:05","EstimateTime":"","CarInfo":"","Lon":120.314541,"Lat":23.284635,"Turn":5,"DayValue":"六","RecycleDate":"三,六"},{"StopId":11947,"StopName":"光福七街87之1","ScheduleTime":"18:10","EstimateTime":"","CarInfo":"","Lon":120.31298,"Lat":23.281838,"Turn":6,"DayValue":"六","RecycleDate":"三,六"},{"StopId":11948,"StopName":"十美街650號","ScheduleTime":"18:13","EstimateTime":"","CarInfo":"","Lon":120.312372,"Lat":23.27993,"Turn":7,"DayValue":"六","RecycleDate":"三,六"},{"StopId":11949,"StopName":"十美街596號","ScheduleTime":"18:17","EstimateTime":"","CarInfo":"","Lon":120.313368,"Lat":23.280454,"Turn":8,"DayValue":"六","RecycleDate":"三,六"},{"StopId":11950,"StopName":"十美街406號","ScheduleTime":"18:19","EstimateTime":"","CarInfo":"","Lon":120.3165,"Lat":23.280815,"Turn":9,"DayValue":"六","RecycleDate":"三,六"},{"StopId":11951,"StopName":"十美街209號","ScheduleTime":"18:23","EstimateTime":"","CarInfo":"","Lon":120.318569,"Lat":23.280776,"Turn":10,"DayValue":"六","RecycleDate":"三,六"},{"StopId":11952,"StopName":"東昇ㄧ街21號","ScheduleTime":"18:27","EstimateTime":"","CarInfo":"","Lon":120.320493,"Lat":23.279579,"Turn":11,"DayValue":"六","RecycleDate":"三,六"},{"StopId":11953,"StopName":"十美街537-8號","ScheduleTime":"18:31","EstimateTime":"","CarInfo":"","Lon":120.322046,"Lat":23.281015,"Turn":12,"DayValue":"六","RecycleDate":"三,六"},{"StopId":11954,"StopName":"十美街5號","ScheduleTime":"18:35","EstimateTime":"","CarInfo":"","Lon":120.322155,"Lat":23.279406,"Turn":13,"DayValue":"六","RecycleDate":"三,六"},{"StopId":11955,"StopName":"建國路62巷16號","ScheduleTime":"18:40","EstimateTime":"","CarInfo":"","Lon":120.322581,"Lat":23.277545,"Turn":14,"DayValue":"六","RecycleDate":"三,六"},{"StopId":11956,"StopName":"太康78之80號","ScheduleTime":"18:43","EstimateTime":"","CarInfo":"","Lon":120.3285015,"Lat":23.2825846,"Turn":15,"DayValue":"六","RecycleDate":"三,六"},{"StopId":11957,"StopName":"太康55之21號","ScheduleTime":"18:45","EstimateTime":"","CarInfo":"","Lon":120.3280548,"Lat":23.2844975,"Turn":16,"DayValue":"六","RecycleDate":"三,六"},{"StopId":11958,"StopName":"太康16-56號","ScheduleTime":"18:48","EstimateTime":"","CarInfo":"","Lon":120.3260398,"Lat":23.288276,"Turn":17,"DayValue":"六","RecycleDate":"三,六"},{"StopId":11959,"StopName":"太康14-36號","ScheduleTime":"18:51","EstimateTime":"","CarInfo":"","Lon":120.3262987,"Lat":23.2896318,"Turn":18,"DayValue":"六","RecycleDate":"三,六"},{"StopId":11960,"StopName":"太康里30-35號","ScheduleTime":"18:55","EstimateTime":"","CarInfo":"","Lon":120.3282462,"Lat":23.2901668,"Turn":19,"DayValue":"六","RecycleDate":"三,六"},{"StopId":11961,"StopName":"五軍營34之1","ScheduleTime":"19:04","EstimateTime":"","CarInfo":"","Lon":120.3495041,"Lat":23.2957215,"Turn":20,"DayValue":"六","RecycleDate":"三,六"},{"StopId":11962,"StopName":"五軍營1號","ScheduleTime":"19:10","EstimateTime":"","CarInfo":"","Lon":120.350913,"Lat":23.296005,"Turn":21,"DayValue":"六","RecycleDate":"三,六"},{"StopId":11963,"StopName":"五軍營20之4號","ScheduleTime":"19:15","EstimateTime":"","CarInfo":"","Lon":120.3504751,"Lat":23.296766,"Turn":22,"DayValue":"六","RecycleDate":"三,六"},{"StopId":11964,"StopName":"小腳腿143-20號","ScheduleTime":"19:17","EstimateTime":"","CarInfo":"","Lon":120.365526,"Lat":23.292059,"Turn":23,"DayValue":"六","RecycleDate":"三,六"},{"StopId":11965,"StopName":"小腳腿173之20","ScheduleTime":"19:18","EstimateTime":"","CarInfo":"","Lon":120.366024,"Lat":23.293822,"Turn":24,"DayValue":"六","RecycleDate":"三,六"},{"StopId":11966,"StopName":"小腳腿173之6號","ScheduleTime":"19:20","EstimateTime":"","CarInfo":"","Lon":120.3674517,"Lat":23.2929749,"Turn":25,"DayValue":"六","RecycleDate":"三,六"},{"StopId":11967,"StopName":"小腳腿172號","ScheduleTime":"19:24","EstimateTime":"","CarInfo":"","Lon":120.3662345,"Lat":23.2925128,"Turn":26,"DayValue":"六","RecycleDate":"三,六"},{"StopId":11968,"StopName":"小腳腿137號","ScheduleTime":"19:26","EstimateTime":"","CarInfo":"","Lon":120.3658639,"Lat":23.2914031,"Turn":27,"DayValue":"六","RecycleDate":"三,六"},{"StopId":11969,"StopName":"小腳腿55之1號","ScheduleTime":"19:30","EstimateTime":"","CarInfo":"","Lon":120.366985,"Lat":23.2901466,"Turn":28,"DayValue":"六","RecycleDate":"三,六"},{"StopId":11970,"StopName":"小腳腿36之24號","ScheduleTime":"19:32","EstimateTime":"","CarInfo":"","Lon":120.3662072,"Lat":23.2893977,"Turn":29,"DayValue":"六","RecycleDate":"三,六"},{"StopId":11971,"StopName":"小腳腿37-7號","ScheduleTime":"19:34","EstimateTime":"","CarInfo":"","Lon":120.358005,"Lat":23.2909596,"Turn":30,"DayValue":"六","RecycleDate":"三,六"},{"StopId":11972,"StopName":"小腳腿2之10號","ScheduleTime":"19:38","EstimateTime":"","CarInfo":"","Lon":120.363246,"Lat":23.287683,"Turn":31,"DayValue":"六","RecycleDate":"三,六"},{"StopId":11973,"StopName":"小腳腿12之4號","ScheduleTime":"19:40","EstimateTime":"","CarInfo":"","Lon":120.3663788,"Lat":23.2875352,"Turn":32,"DayValue":"六","RecycleDate":"三,六"},{"StopId":11974,"StopName":"小腳腿12之1號","ScheduleTime":"19:42","EstimateTime":"","CarInfo":"","Lon":120.3664271,"Lat":23.2877273,"Turn":33,"DayValue":"六","RecycleDate":"三,六"},{"StopId":11975,"StopName":"義士路一段832巷125號","ScheduleTime":"19:44","EstimateTime":"","CarInfo":"","Lon":120.3679594,"Lat":23.2879128,"Turn":34,"DayValue":"六","RecycleDate":"三,六"},{"StopId":11976,"StopName":"義士路一段832巷42弄2號","ScheduleTime":"19:46","EstimateTime":"","CarInfo":"","Lon":120.367666,"Lat":23.285268,"Turn":35,"DayValue":"六","RecycleDate":"三,六"},{"StopId":11977,"StopName":"義士路一段661號","ScheduleTime":"19:48","EstimateTime":"","CarInfo":"","Lon":120.368922,"Lat":23.285375,"Turn":36,"DayValue":"六","RecycleDate":"三,六"},{"StopId":11978,"StopName":"義士路一段938號","ScheduleTime":"19:51","EstimateTime":"","CarInfo":"","Lon":120.36573,"Lat":23.2859584,"Turn":37,"DayValue":"六","RecycleDate":"三,六"},{"StopId":11979,"StopName":"小腳腿5之60號","ScheduleTime":"19:54","EstimateTime":"","CarInfo":"","Lon":120.3657566,"Lat":23.2859584,"Turn":38,"DayValue":"六","RecycleDate":"三,六"}],"CarData":[],"RouteId":381,"RouteName":"柳營三線之四","RouteInfo":"柳營路二段59號~小腳腿5之60號","IsWork":false}]