[{"StopData":[{"StopId":15427,"StopName":"夏林路（文化會館對面）","ScheduleTime":"06:30","EstimateTime":"","CarInfo":"","Lon":120.195048,"Lat":22.984876,"Turn":1,"DayValue":"一,二,三,四,五,六","RecycleDate":"五"},{"StopId":15428,"StopName":"三官路46號","ScheduleTime":"06:50","EstimateTime":"","CarInfo":"","Lon":120.193847,"Lat":22.979935,"Turn":2,"DayValue":"一,二,三,四,五,六","RecycleDate":"五"},{"StopId":15429,"StopName":"新興路與夏林路口","ScheduleTime":"07:05","EstimateTime":"","CarInfo":"","Lon":120.19527,"Lat":22.978399,"Turn":3,"DayValue":"一,二,三,四,五,六","RecycleDate":"五"},{"StopId":15430,"StopName":"中華南路一段125巷旁","ScheduleTime":"07:30","EstimateTime":"","CarInfo":"","Lon":120.212047,"Lat":22.970786,"Turn":4,"DayValue":"一,二,三,四,五,六","RecycleDate":"五"},{"StopId":15431,"StopName":"國民路583巷口","ScheduleTime":"07:50","EstimateTime":"","CarInfo":"","Lon":120.205158,"Lat":22.97384,"Turn":5,"DayValue":"一,二,三,四,五,六","RecycleDate":"五"},{"StopId":15432,"StopName":"永成三段(府南里活動中心)","ScheduleTime":"09:40","EstimateTime":"","CarInfo":"","Lon":120.19534,"Lat":22.97412,"Turn":6,"DayValue":"一,二,三,四,五,六","RecycleDate":"五"},{"StopId":15433,"StopName":"永成路三段245號","ScheduleTime":"09:57","EstimateTime":"","CarInfo":"","Lon":120.195369,"Lat":22.968533,"Turn":7,"DayValue":"一,二,三,四,五,六","RecycleDate":"五"},{"StopId":15434,"StopName":"西門路一段270巷口","ScheduleTime":"10:10","EstimateTime":"","CarInfo":"","Lon":120.197807,"Lat":22.976865,"Turn":8,"DayValue":"一,二,三,四,五,六","RecycleDate":"五"},{"StopId":15435,"StopName":"國民路165巷口","ScheduleTime":"10:30","EstimateTime":"","CarInfo":"","Lon":120.211961,"Lat":22.967342,"Turn":9,"DayValue":"一,二,三,四,五,六","RecycleDate":"五"},{"StopId":15436,"StopName":"新興路與水交杜路口","ScheduleTime":"10:55","EstimateTime":"","CarInfo":"","Lon":120.200587,"Lat":22.979811,"Turn":10,"DayValue":"一,二,三,四,五,六","RecycleDate":"五"},{"StopId":15437,"StopName":"新孝路（新興國中校門口對面）","ScheduleTime":"11:15","EstimateTime":"","CarInfo":"","Lon":120.186426,"Lat":22.977857,"Turn":11,"DayValue":"一,二,三,四,五,六","RecycleDate":"五"}],"CarData":[],"RouteId":207,"RouteName":"南區-18(日間)輔助點","RouteInfo":"夏林路（文化會館對面）~新孝路（新興國中校門口對面）","IsWork":true}]