[{"StopData":[{"StopId":2670,"StopName":"中山南路20號(土地銀行)","ScheduleTime":"16:00","EstimateTime":"","CarInfo":"","Lon":120.2273423,"Lat":23.0119887,"Turn":1,"DayValue":"一,二,四,六","RecycleDate":"一,四"},{"StopId":2671,"StopName":"中華路496號","ScheduleTime":"16:10","EstimateTime":"","CarInfo":"","Lon":120.232127,"Lat":23.011717,"Turn":2,"DayValue":"一,二,四,六","RecycleDate":"一,四"},{"StopId":2672,"StopName":"中華路23巷5號","ScheduleTime":"16:25","EstimateTime":"","CarInfo":"","Lon":120.2340611,"Lat":22.9997716,"Turn":3,"DayValue":"一,二,四,六","RecycleDate":"一,四"},{"StopId":2673,"StopName":"勝利街2巷2號","ScheduleTime":"16:28","EstimateTime":"","CarInfo":"","Lon":120.230764,"Lat":23.0019253,"Turn":4,"DayValue":"一,二,四,六","RecycleDate":"一,四"},{"StopId":2674,"StopName":"勝學路62號","ScheduleTime":"16:28","EstimateTime":"","CarInfo":"","Lon":120.2309215,"Lat":23.0022999,"Turn":5,"DayValue":"一,二,四,六","RecycleDate":"一,四"},{"StopId":2675,"StopName":"勝利街106號","ScheduleTime":"16:28","EstimateTime":"","CarInfo":"","Lon":120.2328807,"Lat":23.0031238,"Turn":6,"DayValue":"一,二,四,六","RecycleDate":"一,四"},{"StopId":2676,"StopName":"勝利街73巷1號","ScheduleTime":"16:54","EstimateTime":"","CarInfo":"","Lon":120.2322925,"Lat":23.0019303,"Turn":7,"DayValue":"一,二,四,六","RecycleDate":"一,四"},{"StopId":2677,"StopName":"勝利街90巷4號","ScheduleTime":"16:54","EstimateTime":"","CarInfo":"","Lon":120.233698,"Lat":23.0024396,"Turn":8,"DayValue":"一,二,四,六","RecycleDate":"一,四"},{"StopId":2678,"StopName":"中華一路203巷37號","ScheduleTime":"17:07","EstimateTime":"","CarInfo":"","Lon":120.233646,"Lat":23.003712,"Turn":9,"DayValue":"一,二,四,六","RecycleDate":"一,四"},{"StopId":2679,"StopName":"勝利街116巷10號","ScheduleTime":"16:28","EstimateTime":"","CarInfo":"","Lon":120.233196,"Lat":23.003373,"Turn":10,"DayValue":"一,二,四,六","RecycleDate":"一,四"},{"StopId":2680,"StopName":"中華路155巷34號","ScheduleTime":"17:07","EstimateTime":"","CarInfo":"","Lon":120.2343315,"Lat":23.0036053,"Turn":11,"DayValue":"一,二,四,六","RecycleDate":"一,四"},{"StopId":2681,"StopName":"勝利街116巷10號","ScheduleTime":"18:18","EstimateTime":"","CarInfo":"","Lon":120.233197,"Lat":23.003386,"Turn":12,"DayValue":"一,二,四,六","RecycleDate":"一,四"},{"StopId":2682,"StopName":"勝利街22巷43號","ScheduleTime":"18:23","EstimateTime":"","CarInfo":"","Lon":120.2319152,"Lat":23.0015961,"Turn":13,"DayValue":"一,二,四,六","RecycleDate":"一,四"},{"StopId":2683,"StopName":"勝利街58巷27號","ScheduleTime":"18:47","EstimateTime":"","CarInfo":"","Lon":120.2338035,"Lat":23.0016384,"Turn":14,"DayValue":"一,二,四,六","RecycleDate":"一,四"},{"StopId":2684,"StopName":"勝利街197巷7號","ScheduleTime":"18:47","EstimateTime":"","CarInfo":"","Lon":120.2325627,"Lat":23.0056381,"Turn":15,"DayValue":"一,二,四,六","RecycleDate":"一,四"},{"StopId":2685,"StopName":"勝學路262號","ScheduleTime":"18:47","EstimateTime":"","CarInfo":"","Lon":120.2312919,"Lat":23.0075549,"Turn":16,"DayValue":"一,二,四,六","RecycleDate":"一,四"},{"StopId":2686,"StopName":"中華二路264號","ScheduleTime":"19:03","EstimateTime":"","CarInfo":"","Lon":120.2329702,"Lat":23.0085841,"Turn":17,"DayValue":"一,二,四,六","RecycleDate":"一,四"},{"StopId":2687,"StopName":"六合路40號","ScheduleTime":"19:05","EstimateTime":"","CarInfo":"","Lon":120.23092,"Lat":23.010421,"Turn":18,"DayValue":"一,二,四,六","RecycleDate":"一,四"},{"StopId":2688,"StopName":"中華二路356號","ScheduleTime":"19:05","EstimateTime":"","CarInfo":"","Lon":120.2306023,"Lat":23.0084727,"Turn":19,"DayValue":"一,二,四,六","RecycleDate":"一,四"},{"StopId":2689,"StopName":"六合路64號","ScheduleTime":"19:05","EstimateTime":"","CarInfo":"","Lon":120.230996,"Lat":23.010746,"Turn":20,"DayValue":"一,二,四,六","RecycleDate":"一,四"},{"StopId":2690,"StopName":"新興街111號","ScheduleTime":"19:05","EstimateTime":"","CarInfo":"","Lon":120.230594,"Lat":23.012164,"Turn":21,"DayValue":"一,二,四,六","RecycleDate":"一,四"},{"StopId":2691,"StopName":"新興街35巷4號","ScheduleTime":"19:35","EstimateTime":"","CarInfo":"","Lon":120.2290089,"Lat":23.0119513,"Turn":22,"DayValue":"一,二,四,六","RecycleDate":"一,四"}],"CarData":[],"RouteId":53,"RouteName":"永康-夜間01","RouteInfo":"中山南路20號(土地銀行)~新興街35巷4號","IsWork":true}]