[{"StopData":[{"StopId":13979,"StopName":"五叉路阿華鵝肉","ScheduleTime":"17:03","EstimateTime":"","CarInfo":"","Lon":120.25343,"Lat":23.189715,"Turn":1,"DayValue":"一,二,四,六","RecycleDate":"二,六"},{"StopId":13980,"StopName":"文水機車行","ScheduleTime":"17:06","EstimateTime":"","CarInfo":"","Lon":120.25284,"Lat":23.186084,"Turn":2,"DayValue":"一,二,四,六","RecycleDate":"二,六"},{"StopId":13981,"StopName":"林眼科","ScheduleTime":"17:09","EstimateTime":"","CarInfo":"","Lon":120.250757,"Lat":23.185223,"Turn":3,"DayValue":"一,二,四,六","RecycleDate":"二,六"},{"StopId":13982,"StopName":"千家素食便當","ScheduleTime":"17:12","EstimateTime":"","CarInfo":"","Lon":120.249694,"Lat":23.185267,"Turn":4,"DayValue":"一,二,四,六","RecycleDate":"二,六"},{"StopId":13983,"StopName":"主安醫院","ScheduleTime":"17:14","EstimateTime":"","CarInfo":"","Lon":120.250803,"Lat":23.184059,"Turn":5,"DayValue":"一,二,四,六","RecycleDate":"二,六"},{"StopId":13984,"StopName":"北極殿","ScheduleTime":"17:17","EstimateTime":"","CarInfo":"","Lon":120.249748,"Lat":23.184219,"Turn":6,"DayValue":"一,二,四,六","RecycleDate":"二,六"},{"StopId":13985,"StopName":"富國理髮","ScheduleTime":"17:20","EstimateTime":"","CarInfo":"","Lon":120.249103,"Lat":23.184509,"Turn":7,"DayValue":"一,二,四,六","RecycleDate":"二,六"},{"StopId":13986,"StopName":"市場(阿賓牛排)","ScheduleTime":"17:23","EstimateTime":"","CarInfo":"","Lon":120.249101,"Lat":23.185216,"Turn":8,"DayValue":"一,二,四,六","RecycleDate":"二,六"},{"StopId":13987,"StopName":"巷口里老人活動中心","ScheduleTime":"17:26","EstimateTime":"","CarInfo":"","Lon":120.248575,"Lat":23.183089,"Turn":9,"DayValue":"一,二,四,六","RecycleDate":"二,六"},{"StopId":13988,"StopName":"民族路1號","ScheduleTime":"17:29","EstimateTime":"","CarInfo":"","Lon":120.249656,"Lat":23.183317,"Turn":10,"DayValue":"一,二,四,六","RecycleDate":"二,六"},{"StopId":13989,"StopName":"麻豆戲院","ScheduleTime":"17:30","EstimateTime":"","CarInfo":"","Lon":120.251442,"Lat":23.18353,"Turn":11,"DayValue":"一,二,四,六","RecycleDate":"二,六"},{"StopId":13990,"StopName":"便利商店","ScheduleTime":"17:31","EstimateTime":"","CarInfo":"","Lon":120.251439,"Lat":23.182942,"Turn":12,"DayValue":"一,二,四,六","RecycleDate":"二,六"},{"StopId":13991,"StopName":"里辦公處","ScheduleTime":"17:32","EstimateTime":"","CarInfo":"","Lon":120.251498,"Lat":23.181244,"Turn":13,"DayValue":"一,二,四,六","RecycleDate":"二,六"},{"StopId":13992,"StopName":"晉江里翌愛幼稚園","ScheduleTime":"17:33","EstimateTime":"","CarInfo":"","Lon":120.252572,"Lat":23.178314,"Turn":14,"DayValue":"一,二,四,六","RecycleDate":"二,六"},{"StopId":13993,"StopName":"柯厝巷","ScheduleTime":"17:36","EstimateTime":"","CarInfo":"","Lon":120.251543,"Lat":23.176405,"Turn":15,"DayValue":"一,二,四,六","RecycleDate":"二,六"},{"StopId":13994,"StopName":"晉江廟前","ScheduleTime":"17:39","EstimateTime":"","CarInfo":"","Lon":120.251743,"Lat":23.179664,"Turn":16,"DayValue":"一,二,四,六","RecycleDate":"二,六"},{"StopId":13995,"StopName":"星辰花園","ScheduleTime":"17:42","EstimateTime":"","CarInfo":"","Lon":120.25148,"Lat":23.183152,"Turn":17,"DayValue":"一,二,四,六","RecycleDate":"二,六"},{"StopId":13996,"StopName":"吳素娥宅前","ScheduleTime":"17:47","EstimateTime":"","CarInfo":"","Lon":120.255533,"Lat":23.18305,"Turn":18,"DayValue":"一,二,四,六","RecycleDate":"二,六"},{"StopId":13997,"StopName":"全家福大樓","ScheduleTime":"17:52","EstimateTime":"","CarInfo":"","Lon":120.255265,"Lat":23.179866,"Turn":19,"DayValue":"一,二,四,六","RecycleDate":"二,六"},{"StopId":13998,"StopName":"國泰瓦斯行","ScheduleTime":"17:55","EstimateTime":"","CarInfo":"","Lon":120.257002,"Lat":23.182082,"Turn":20,"DayValue":"一,二,四,六","RecycleDate":"二,六"},{"StopId":13999,"StopName":"賴仁勇宅前","ScheduleTime":"17:58","EstimateTime":"","CarInfo":"","Lon":120.255837,"Lat":23.181077,"Turn":21,"DayValue":"一,二,四,六","RecycleDate":"二,六"},{"StopId":14000,"StopName":"一口萬水餃","ScheduleTime":"18:01","EstimateTime":"","CarInfo":"","Lon":120.253854,"Lat":23.182213,"Turn":22,"DayValue":"一,二,四,六","RecycleDate":"二,六"},{"StopId":14001,"StopName":"喬登美語","ScheduleTime":"18:02","EstimateTime":"","CarInfo":"","Lon":120.253512,"Lat":23.183178,"Turn":23,"DayValue":"一,二,四,六","RecycleDate":"二,六"},{"StopId":14002,"StopName":"城市貴族大樓","ScheduleTime":"18:03","EstimateTime":"","CarInfo":"","Lon":120.2522,"Lat":23.184556,"Turn":24,"DayValue":"一,二,四,六","RecycleDate":"二,六"},{"StopId":14003,"StopName":"五番社區前","ScheduleTime":"18:08","EstimateTime":"","CarInfo":"","Lon":120.255454,"Lat":23.184499,"Turn":25,"DayValue":"一,二,四,六","RecycleDate":"二,六"},{"StopId":14004,"StopName":"三娘媽前","ScheduleTime":"18:12","EstimateTime":"","CarInfo":"","Lon":120.255673,"Lat":23.187004,"Turn":26,"DayValue":"一,二,四,六","RecycleDate":"二,六"},{"StopId":14005,"StopName":"致遠宿舍","ScheduleTime":"18:14","EstimateTime":"","CarInfo":"","Lon":120.257224,"Lat":23.186994,"Turn":27,"DayValue":"一,二,四,六","RecycleDate":"二,六"},{"StopId":14006,"StopName":"永大興實業","ScheduleTime":"18:16","EstimateTime":"","CarInfo":"","Lon":120.258794,"Lat":23.187502,"Turn":28,"DayValue":"一,二,四,六","RecycleDate":"二,六"},{"StopId":14007,"StopName":"品人園文旦行","ScheduleTime":"18:18","EstimateTime":"","CarInfo":"","Lon":120.258715,"Lat":23.189261,"Turn":29,"DayValue":"一,二,四,六","RecycleDate":"二,六"},{"StopId":14008,"StopName":"淨靈寺","ScheduleTime":"18:20","EstimateTime":"","CarInfo":"","Lon":120.260839,"Lat":23.18729,"Turn":30,"DayValue":"一,二,四,六","RecycleDate":"二,六"},{"StopId":14009,"StopName":"永豐商行","ScheduleTime":"18:24","EstimateTime":"","CarInfo":"","Lon":120.261362,"Lat":23.186719,"Turn":31,"DayValue":"一,二,四,六","RecycleDate":"二,六"},{"StopId":14010,"StopName":"關帝廟前","ScheduleTime":"18:28","EstimateTime":"","CarInfo":"","Lon":120.255848,"Lat":23.190354,"Turn":32,"DayValue":"一,二,四,六","RecycleDate":"二,六"},{"StopId":14011,"StopName":"千翔瓜子行","ScheduleTime":"18:32","EstimateTime":"","CarInfo":"","Lon":120.262105,"Lat":23.192637,"Turn":33,"DayValue":"一,二,四,六","RecycleDate":"二,六"},{"StopId":14012,"StopName":"富荃五金行","ScheduleTime":"18:38","EstimateTime":"","CarInfo":"","Lon":120.255074,"Lat":23.190623,"Turn":34,"DayValue":"一,二,四,六","RecycleDate":"二,六"},{"StopId":14013,"StopName":"關帝廟前","ScheduleTime":"18:45","EstimateTime":"","CarInfo":"","Lon":120.255404,"Lat":23.190614,"Turn":35,"DayValue":"一,二,四,六","RecycleDate":"二,六"},{"StopId":14014,"StopName":"億全水電行","ScheduleTime":"18:50","EstimateTime":"","CarInfo":"","Lon":120.256051,"Lat":23.178397,"Turn":36,"DayValue":"一,二,四,六","RecycleDate":"二,六"},{"StopId":14015,"StopName":"太子宮","ScheduleTime":"18:52","EstimateTime":"","CarInfo":"","Lon":120.258717,"Lat":23.176588,"Turn":37,"DayValue":"一,二,四,六","RecycleDate":"二,六"},{"StopId":14016,"StopName":"抽水站前","ScheduleTime":"18:54","EstimateTime":"","CarInfo":"","Lon":120.25993,"Lat":23.176603,"Turn":38,"DayValue":"一,二,四,六","RecycleDate":"二,六"},{"StopId":14017,"StopName":"清水里巷道內","ScheduleTime":"18:56","EstimateTime":"","CarInfo":"","Lon":120.260322,"Lat":23.177994,"Turn":39,"DayValue":"一,二,四,六","RecycleDate":"二,六"},{"StopId":14018,"StopName":"清水里巷道內","ScheduleTime":"18:58","EstimateTime":"","CarInfo":"","Lon":120.258313,"Lat":23.178187,"Turn":40,"DayValue":"一,二,四,六","RecycleDate":"二,六"},{"StopId":14019,"StopName":"清水里巷道內","ScheduleTime":"19:00","EstimateTime":"","CarInfo":"","Lon":120.257275,"Lat":23.178405,"Turn":41,"DayValue":"一,二,四,六","RecycleDate":"二,六"},{"StopId":14020,"StopName":"祥好瓜子行","ScheduleTime":"19:02","EstimateTime":"","CarInfo":"","Lon":120.258615,"Lat":23.175685,"Turn":42,"DayValue":"一,二,四,六","RecycleDate":"二,六"},{"StopId":14021,"StopName":"蔡和靖宅前","ScheduleTime":"19:06","EstimateTime":"","CarInfo":"","Lon":120.246641,"Lat":23.174648,"Turn":43,"DayValue":"一,二,四,六","RecycleDate":"二,六"},{"StopId":14022,"StopName":"阿源金香鋪","ScheduleTime":"19:10","EstimateTime":"","CarInfo":"","Lon":120.246312,"Lat":23.165726,"Turn":44,"DayValue":"一,二,四,六","RecycleDate":"二,六"},{"StopId":14023,"StopName":"安業派出所前","ScheduleTime":"19:14","EstimateTime":"","CarInfo":"","Lon":120.246268,"Lat":23.158887,"Turn":45,"DayValue":"一,二,四,六","RecycleDate":"二,六"},{"StopId":14024,"StopName":"西藥房","ScheduleTime":"19:18","EstimateTime":"","CarInfo":"","Lon":120.236117,"Lat":23.14942,"Turn":46,"DayValue":"一,二,四,六","RecycleDate":"二,六"},{"StopId":14025,"StopName":"雜貨店前","ScheduleTime":"19:22","EstimateTime":"","CarInfo":"","Lon":120.2364,"Lat":23.149678,"Turn":47,"DayValue":"一,二,四,六","RecycleDate":"二,六"},{"StopId":14026,"StopName":"謝茂生宅前","ScheduleTime":"19:26","EstimateTime":"","CarInfo":"","Lon":120.243206,"Lat":23.155364,"Turn":48,"DayValue":"一,二,四,六","RecycleDate":"二,六"},{"StopId":14027,"StopName":"釣蝦場對面","ScheduleTime":"19:37","EstimateTime":"","CarInfo":"","Lon":120.247278,"Lat":23.161685,"Turn":49,"DayValue":"一,二,四,六","RecycleDate":"二,六"},{"StopId":14028,"StopName":"井東里里長宅前","ScheduleTime":"19:39","EstimateTime":"","CarInfo":"","Lon":120.246378,"Lat":23.16546,"Turn":50,"DayValue":"一,二,四,六","RecycleDate":"二,六"},{"StopId":14029,"StopName":"棕梠家旅館","ScheduleTime":"19:40","EstimateTime":"","CarInfo":"","Lon":120.24688,"Lat":23.175438,"Turn":51,"DayValue":"一,二,四,六","RecycleDate":"二,六"}],"CarData":[],"RouteId":241,"RouteName":"麻豆-7","RouteInfo":"五叉路阿華鵝肉~棕梠家旅館","IsWork":true}]