[{"StopData":[{"StopId":14566,"StopName":"仁義六街56巷6號","ScheduleTime":"16:00","EstimateTime":"","CarInfo":"","Lon":120.254813,"Lat":22.959981,"Turn":1,"DayValue":"一,二,四,六","RecycleDate":"一,四"},{"StopId":14567,"StopName":"中正路二段727號","ScheduleTime":"16:02","EstimateTime":"","CarInfo":"","Lon":120.253651,"Lat":22.961136,"Turn":2,"DayValue":"一,二,四,六","RecycleDate":"一,四"},{"StopId":14568,"StopName":"中正路二段681號","ScheduleTime":"16:04","EstimateTime":"","CarInfo":"","Lon":120.253318,"Lat":22.96013,"Turn":3,"DayValue":"一,二,四,六","RecycleDate":"一,四"},{"StopId":14569,"StopName":"中正路二段526號","ScheduleTime":"16:05","EstimateTime":"","CarInfo":"","Lon":120.252625,"Lat":22.955194,"Turn":4,"DayValue":"一,二,四,六","RecycleDate":"一,四"},{"StopId":14570,"StopName":"中正路二段760號","ScheduleTime":"16:09","EstimateTime":"","CarInfo":"","Lon":120.2535864,"Lat":22.9624027,"Turn":5,"DayValue":"一,二,四,六","RecycleDate":"一,四"},{"StopId":14571,"StopName":"中正路二段818號","ScheduleTime":"16:13","EstimateTime":"","CarInfo":"","Lon":120.2535574,"Lat":22.9628902,"Turn":6,"DayValue":"一,二,四,六","RecycleDate":"一,四"},{"StopId":14572,"StopName":"仁義五街24巷口","ScheduleTime":"16:15","EstimateTime":"","CarInfo":"","Lon":120.254431,"Lat":22.963142,"Turn":7,"DayValue":"一,二,四,六","RecycleDate":"一,四"},{"StopId":14573,"StopName":"中正路二段862巷31號","ScheduleTime":"16:17","EstimateTime":"","CarInfo":"","Lon":120.25428,"Lat":22.964148,"Turn":8,"DayValue":"一,二,四,六","RecycleDate":"一,四"},{"StopId":14574,"StopName":"中正路二段914號","ScheduleTime":"16:20","EstimateTime":"","CarInfo":"","Lon":120.253356,"Lat":22.965139,"Turn":9,"DayValue":"一,二,四,六","RecycleDate":"一,四"},{"StopId":14575,"StopName":"中正路二段938號","ScheduleTime":"16:24","EstimateTime":"","CarInfo":"","Lon":120.253288,"Lat":22.965664,"Turn":10,"DayValue":"一,二,四,六","RecycleDate":"一,四"},{"StopId":14576,"StopName":"中正路二段996號","ScheduleTime":"16:25","EstimateTime":"","CarInfo":"","Lon":120.253106,"Lat":22.966694,"Turn":11,"DayValue":"一,二,四,六","RecycleDate":"一,四"},{"StopId":14577,"StopName":"中正路二段1036號前","ScheduleTime":"16:26","EstimateTime":"","CarInfo":"","Lon":120.252879,"Lat":22.967389,"Turn":12,"DayValue":"一,二,四,六","RecycleDate":"一,四"},{"StopId":14578,"StopName":"中正路二段1088號前","ScheduleTime":"16:27","EstimateTime":"","CarInfo":"","Lon":120.252518,"Lat":22.96907,"Turn":13,"DayValue":"一,二,四,六","RecycleDate":"一,四"},{"StopId":14579,"StopName":"中正路二段1112號","ScheduleTime":"16:28","EstimateTime":"","CarInfo":"","Lon":120.252182,"Lat":22.969527,"Turn":14,"DayValue":"一,二,四,六","RecycleDate":"一,四"},{"StopId":14580,"StopName":"中正路二段1166號前","ScheduleTime":"16:31","EstimateTime":"","CarInfo":"","Lon":120.2519878,"Lat":22.9700075,"Turn":15,"DayValue":"一,二,四,六","RecycleDate":"一,四"},{"StopId":14581,"StopName":"中正路三段42號","ScheduleTime":"16:32","EstimateTime":"","CarInfo":"","Lon":120.252355,"Lat":22.972933,"Turn":16,"DayValue":"一,二,四,六","RecycleDate":"一,四"},{"StopId":14582,"StopName":"中正路三段情定飯店","ScheduleTime":"16:34","EstimateTime":"","CarInfo":"","Lon":120.252861,"Lat":22.973761,"Turn":17,"DayValue":"一,二,四,六","RecycleDate":"一,四"},{"StopId":14583,"StopName":"中正路三段19號","ScheduleTime":"16:36","EstimateTime":"","CarInfo":"","Lon":120.252083,"Lat":22.97286,"Turn":18,"DayValue":"一,二,四,六","RecycleDate":"一,四"},{"StopId":14584,"StopName":"中正路二段1251號","ScheduleTime":"16:38","EstimateTime":"","CarInfo":"","Lon":120.251578,"Lat":22.971335,"Turn":19,"DayValue":"一,二,四,六","RecycleDate":"一,四"},{"StopId":14585,"StopName":"中正路二段1187號","ScheduleTime":"16:42","EstimateTime":"","CarInfo":"","Lon":120.251943,"Lat":22.969847,"Turn":20,"DayValue":"一,二,四,六","RecycleDate":"一,四"},{"StopId":14586,"StopName":"仁德三街15號","ScheduleTime":"16:44","EstimateTime":"","CarInfo":"","Lon":120.251949,"Lat":22.968485,"Turn":21,"DayValue":"一,二,四,六","RecycleDate":"一,四"},{"StopId":14587,"StopName":"仁德三街48號","ScheduleTime":"16:48","EstimateTime":"","CarInfo":"","Lon":120.2510289,"Lat":22.9683991,"Turn":22,"DayValue":"一,二,四,六","RecycleDate":"一,四"},{"StopId":14588,"StopName":"仁德四街12巷15弄2號","ScheduleTime":"16:54","EstimateTime":"","CarInfo":"","Lon":120.251431,"Lat":22.967657,"Turn":23,"DayValue":"一,二,四,六","RecycleDate":"一,四"},{"StopId":14589,"StopName":"中正路二段1043號","ScheduleTime":"16:56","EstimateTime":"","CarInfo":"","Lon":120.253107,"Lat":22.966518,"Turn":24,"DayValue":"一,二,四,六","RecycleDate":"一,四"},{"StopId":14590,"StopName":"中正路二段869號","ScheduleTime":"16:58","EstimateTime":"","CarInfo":"","Lon":120.253352,"Lat":22.964749,"Turn":25,"DayValue":"一,二,四,六","RecycleDate":"一,四"},{"StopId":14591,"StopName":"中正路二段805號","ScheduleTime":"17:00","EstimateTime":"","CarInfo":"","Lon":120.253465,"Lat":22.963101,"Turn":26,"DayValue":"一,二,四,六","RecycleDate":"一,四"},{"StopId":14592,"StopName":"中正路二段741號","ScheduleTime":"17:02","EstimateTime":"","CarInfo":"","Lon":120.253625,"Lat":22.96173,"Turn":27,"DayValue":"一,二,四,六","RecycleDate":"一,四"},{"StopId":14593,"StopName":"仁德五街6號","ScheduleTime":"17:05","EstimateTime":"","CarInfo":"","Lon":120.253079,"Lat":22.961529,"Turn":28,"DayValue":"一,二,四,六","RecycleDate":"一,四"},{"StopId":14594,"StopName":"仁中六街皇龍新境前","ScheduleTime":"17:09","EstimateTime":"","CarInfo":"","Lon":120.252985,"Lat":22.963394,"Turn":29,"DayValue":"一,二,四,六","RecycleDate":"一,四"},{"StopId":14595,"StopName":"仁中六街草本美墅前","ScheduleTime":"17:11","EstimateTime":"","CarInfo":"","Lon":120.252974,"Lat":22.963375,"Turn":30,"DayValue":"一,二,四,六","RecycleDate":"一,四"},{"StopId":14596,"StopName":"仁中一街87號","ScheduleTime":"17:15","EstimateTime":"","CarInfo":"","Lon":120.25167,"Lat":22.964991,"Turn":31,"DayValue":"一,二,四,六","RecycleDate":"一,四"},{"StopId":14597,"StopName":"仁中三街73號","ScheduleTime":"17:20","EstimateTime":"","CarInfo":"","Lon":120.251728,"Lat":22.963332,"Turn":32,"DayValue":"一,二,四,六","RecycleDate":"一,四"},{"StopId":14598,"StopName":"仁中五街120號","ScheduleTime":"17:23","EstimateTime":"","CarInfo":"","Lon":120.25149,"Lat":22.962325,"Turn":33,"DayValue":"一,二,四,六","RecycleDate":"一,四"},{"StopId":14599,"StopName":"仁中八街22巷1號","ScheduleTime":"17:25","EstimateTime":"","CarInfo":"","Lon":120.250662,"Lat":22.963776,"Turn":34,"DayValue":"一,二,四,六","RecycleDate":"一,四"},{"StopId":14600,"StopName":"仁中三街45號","ScheduleTime":"17:30","EstimateTime":"","CarInfo":"","Lon":120.252389,"Lat":22.963343,"Turn":35,"DayValue":"一,二,四,六","RecycleDate":"一,四"},{"StopId":14601,"StopName":"中山路661號","ScheduleTime":"18:40","EstimateTime":"","CarInfo":"","Lon":120.250769,"Lat":22.971684,"Turn":36,"DayValue":"一,二,四,六","RecycleDate":"一,四"},{"StopId":14602,"StopName":"正義一街40號","ScheduleTime":"18:45","EstimateTime":"","CarInfo":"","Lon":120.252969,"Lat":22.972148,"Turn":37,"DayValue":"一,二,四,六","RecycleDate":"一,四"},{"StopId":14603,"StopName":"四維街25號","ScheduleTime":"18:50","EstimateTime":"","CarInfo":"","Lon":120.251455,"Lat":22.973356,"Turn":38,"DayValue":"一,二,四,六","RecycleDate":"一,四"},{"StopId":14604,"StopName":"中山路624號(仁德分駐所)","ScheduleTime":"18:54","EstimateTime":"","CarInfo":"","Lon":120.250781,"Lat":22.971863,"Turn":39,"DayValue":"一,二,四,六","RecycleDate":"一,四"},{"StopId":14605,"StopName":"文德路52號","ScheduleTime":"18:58","EstimateTime":"","CarInfo":"","Lon":120.248285,"Lat":22.973426,"Turn":40,"DayValue":"一,二,四,六","RecycleDate":"一,四"},{"StopId":14606,"StopName":"中山路698號","ScheduleTime":"19:01","EstimateTime":"","CarInfo":"","Lon":120.247184,"Lat":22.972917,"Turn":41,"DayValue":"一,二,四,六","RecycleDate":"一,四"},{"StopId":14607,"StopName":"中山路764號","ScheduleTime":"19:04","EstimateTime":"","CarInfo":"","Lon":120.245745,"Lat":22.973368,"Turn":42,"DayValue":"一,二,四,六","RecycleDate":"一,四"},{"StopId":14608,"StopName":"文山路253號","ScheduleTime":"19:06","EstimateTime":"","CarInfo":"","Lon":120.2451065,"Lat":22.9759609,"Turn":43,"DayValue":"一,二,四,六","RecycleDate":"一,四"},{"StopId":14609,"StopName":"文山路177號","ScheduleTime":"19:08","EstimateTime":"","CarInfo":"","Lon":120.2456915,"Lat":22.9757895,"Turn":44,"DayValue":"一,二,四,六","RecycleDate":"一,四"},{"StopId":14610,"StopName":"文山路155號","ScheduleTime":"19:10","EstimateTime":"","CarInfo":"","Lon":120.2464228,"Lat":22.9755125,"Turn":45,"DayValue":"一,二,四,六","RecycleDate":"一,四"},{"StopId":14611,"StopName":"文山路51號","ScheduleTime":"19:12","EstimateTime":"","CarInfo":"","Lon":120.247611,"Lat":22.975415,"Turn":46,"DayValue":"一,二,四,六","RecycleDate":"一,四"},{"StopId":14612,"StopName":"文宏路216號對面公園","ScheduleTime":"19:14","EstimateTime":"","CarInfo":"","Lon":120.24352,"Lat":22.976693,"Turn":47,"DayValue":"一,二,四,六","RecycleDate":"一,四"},{"StopId":14613,"StopName":"文宏路150號對面停車場","ScheduleTime":"19:16","EstimateTime":"","CarInfo":"","Lon":120.2432666,"Lat":22.9760244,"Turn":48,"DayValue":"一,二,四,六","RecycleDate":"一,四"},{"StopId":14614,"StopName":"文宏路70號","ScheduleTime":"19:18","EstimateTime":"","CarInfo":"","Lon":120.243238,"Lat":22.974807,"Turn":49,"DayValue":"一,二,四,六","RecycleDate":"一,四"},{"StopId":14615,"StopName":"文宏路二街49號","ScheduleTime":"19:20","EstimateTime":"","CarInfo":"","Lon":120.24382,"Lat":22.975625,"Turn":50,"DayValue":"一,二,四,六","RecycleDate":"一,四"},{"StopId":14616,"StopName":"中山路852號","ScheduleTime":"19:24","EstimateTime":"","CarInfo":"","Lon":120.24251,"Lat":22.9743,"Turn":51,"DayValue":"一,二,四,六","RecycleDate":"一,四"},{"StopId":14617,"StopName":"裕忠路與裕忠三街口","ScheduleTime":"19:26","EstimateTime":"","CarInfo":"","Lon":120.241766,"Lat":22.979363,"Turn":52,"DayValue":"一,二,四,六","RecycleDate":"一,四"},{"StopId":14618,"StopName":"中山路912號","ScheduleTime":"19:28","EstimateTime":"","CarInfo":"","Lon":120.240451,"Lat":22.974748,"Turn":53,"DayValue":"一,二,四,六","RecycleDate":"一,四"},{"StopId":14619,"StopName":"中山路887號","ScheduleTime":"19:31","EstimateTime":"","CarInfo":"","Lon":120.243115,"Lat":22.973969,"Turn":54,"DayValue":"一,二,四,六","RecycleDate":"一,四"},{"StopId":14620,"StopName":"文華路三段495號","ScheduleTime":"19:34","EstimateTime":"","CarInfo":"","Lon":120.243544,"Lat":22.971958,"Turn":55,"DayValue":"一,二,四,六","RecycleDate":"一,四"},{"StopId":14621,"StopName":"文華路三段469號","ScheduleTime":"19:36","EstimateTime":"","CarInfo":"","Lon":120.243408,"Lat":22.971283,"Turn":56,"DayValue":"一,二,四,六","RecycleDate":"一,四"},{"StopId":14622,"StopName":"淨修街175巷32號","ScheduleTime":"19:40","EstimateTime":"","CarInfo":"","Lon":120.239079,"Lat":22.970927,"Turn":57,"DayValue":"一,二,四,六","RecycleDate":"一,四"},{"StopId":14623,"StopName":"淨修街143巷口","ScheduleTime":"19:43","EstimateTime":"","CarInfo":"","Lon":120.238121,"Lat":22.971688,"Turn":58,"DayValue":"一,二,四,六","RecycleDate":"一,四"},{"StopId":14624,"StopName":"文孝路41號前","ScheduleTime":"19:45","EstimateTime":"","CarInfo":"","Lon":120.239799,"Lat":22.972262,"Turn":59,"DayValue":"一,二,四,六","RecycleDate":"一,四"},{"StopId":14625,"StopName":"文孝路41號","ScheduleTime":"19:47","EstimateTime":"","CarInfo":"","Lon":120.239814,"Lat":22.972298,"Turn":60,"DayValue":"一,二,四,六","RecycleDate":"一,四"},{"StopId":14626,"StopName":"文孝路1號","ScheduleTime":"19:49","EstimateTime":"","CarInfo":"","Lon":120.24063,"Lat":22.971948,"Turn":61,"DayValue":"一,二,四,六","RecycleDate":"一,四"},{"StopId":14627,"StopName":"文善街126號","ScheduleTime":"19:52","EstimateTime":"","CarInfo":"","Lon":120.242727,"Lat":22.973169,"Turn":62,"DayValue":"一,二,四,六","RecycleDate":"一,四"},{"StopId":14628,"StopName":"中山路875巷10號前","ScheduleTime":"19:55","EstimateTime":"","CarInfo":"","Lon":120.2433939,"Lat":22.9738935,"Turn":63,"DayValue":"一,二,四,六","RecycleDate":"一,四"},{"StopId":14629,"StopName":"中山路875巷76弄2號","ScheduleTime":"19:58","EstimateTime":"","CarInfo":"","Lon":120.24287699999999,"Lat":22.971427,"Turn":64,"DayValue":"一,二,四,六","RecycleDate":"一,四"},{"StopId":14630,"StopName":"文華路三段189巷27弄30號","ScheduleTime":"20:01","EstimateTime":"","CarInfo":"","Lon":120.240758,"Lat":22.962985,"Turn":65,"DayValue":"一,二,四,六","RecycleDate":"一,四"},{"StopId":14631,"StopName":"文華路三段189巷92弄1號","ScheduleTime":"20:05","EstimateTime":"","CarInfo":"","Lon":120.240044,"Lat":22.964239,"Turn":66,"DayValue":"一,二,四,六","RecycleDate":"一,四"},{"StopId":14632,"StopName":"文華路三段189巷70號","ScheduleTime":"20:10","EstimateTime":"","CarInfo":"","Lon":120.240337,"Lat":22.963777,"Turn":67,"DayValue":"一,二,四,六","RecycleDate":"一,四"},{"StopId":14633,"StopName":"中華科技大學","ScheduleTime":"20:15","EstimateTime":"","CarInfo":"","Lon":120.2433298,"Lat":22.9616012,"Turn":68,"DayValue":"一,二,四,六","RecycleDate":"一,四"},{"StopId":14634,"StopName":"中山路687巷25號(大魯閣後方)","ScheduleTime":"20:20","EstimateTime":"","CarInfo":"","Lon":120.248276,"Lat":22.971742,"Turn":69,"DayValue":"一,二,四,六","RecycleDate":"一,四"}],"CarData":[],"RouteId":324,"RouteName":"仁德-08","RouteInfo":"仁義六街56巷6號~中山路687巷25號(大魯閣後方)","IsWork":true}]