[{"StopData":[{"StopId":9138,"StopName":"將軍國中前","ScheduleTime":"17:24","EstimateTime":"","CarInfo":"","Lon":120.151721,"Lat":23.206114,"Turn":1,"DayValue":"一,三,五,六","RecycleDate":"三,六"},{"StopId":9139,"StopName":"角帶圍產銷班","ScheduleTime":"17:28","EstimateTime":"","CarInfo":"","Lon":120.140296,"Lat":23.204059,"Turn":2,"DayValue":"一,三,五,六","RecycleDate":"三,六"},{"StopId":9140,"StopName":"將貴里66號","ScheduleTime":"17:31","EstimateTime":"","CarInfo":"","Lon":120.140057,"Lat":23.205882,"Turn":3,"DayValue":"一,三,五,六","RecycleDate":"三,六"},{"StopId":9141,"StopName":"施琅將軍紀念館","ScheduleTime":"17:35","EstimateTime":"","CarInfo":"","Lon":120.138643,"Lat":23.214781,"Turn":4,"DayValue":"一,三,五,六","RecycleDate":"三,六"},{"StopId":9142,"StopName":"將貴里13號","ScheduleTime":"17:37","EstimateTime":"","CarInfo":"","Lon":120.139946,"Lat":23.215447,"Turn":5,"DayValue":"一,三,五,六","RecycleDate":"三,六"},{"StopId":9143,"StopName":"將貴里48-2號","ScheduleTime":"17:40","EstimateTime":"","CarInfo":"","Lon":120.141094,"Lat":23.216477,"Turn":6,"DayValue":"一,三,五,六","RecycleDate":"三,六"},{"StopId":9144,"StopName":"將軍大路","ScheduleTime":"17:42","EstimateTime":"","CarInfo":"","Lon":120.14075,"Lat":23.217138,"Turn":7,"DayValue":"一,三,五,六","RecycleDate":"三,六"},{"StopId":9145,"StopName":"將軍大廟左轉","ScheduleTime":"17:45","EstimateTime":"","CarInfo":"","Lon":120.137031,"Lat":23.215232,"Turn":8,"DayValue":"一,三,五,六","RecycleDate":"三,六"},{"StopId":9146,"StopName":"農會前向東","ScheduleTime":"17:48","EstimateTime":"","CarInfo":"","Lon":120.135736,"Lat":23.215615,"Turn":9,"DayValue":"一,三,五,六","RecycleDate":"三,六"},{"StopId":9147,"StopName":"將貴里28-1號","ScheduleTime":"17:52","EstimateTime":"","CarInfo":"","Lon":120.139606,"Lat":23.214864,"Turn":10,"DayValue":"一,三,五,六","RecycleDate":"三,六"},{"StopId":9148,"StopName":"將軍國小南側門","ScheduleTime":"17:55","EstimateTime":"","CarInfo":"","Lon":120.136892,"Lat":23.214087,"Turn":11,"DayValue":"一,三,五,六","RecycleDate":"三,六"},{"StopId":9149,"StopName":"將富雞舍前右轉","ScheduleTime":"17:56","EstimateTime":"","CarInfo":"","Lon":120.135595,"Lat":23.218414,"Turn":12,"DayValue":"一,三,五,六","RecycleDate":"三,六"},{"StopId":9150,"StopName":"將富里67號","ScheduleTime":"17:58","EstimateTime":"","CarInfo":"","Lon":120.140629,"Lat":23.218471,"Turn":13,"DayValue":"一,三,五,六","RecycleDate":"三,六"},{"StopId":9151,"StopName":"將富里15號","ScheduleTime":"18:00","EstimateTime":"","CarInfo":"","Lon":120.1380515,"Lat":23.2168955,"Turn":14,"DayValue":"一,三,五,六","RecycleDate":"三,六"},{"StopId":9152,"StopName":"將貴里28-12號","ScheduleTime":"18:03","EstimateTime":"","CarInfo":"","Lon":120.136348,"Lat":23.216304,"Turn":15,"DayValue":"一,三,五,六","RecycleDate":"三,六"},{"StopId":9153,"StopName":"溪墘寮","ScheduleTime":"18:06","EstimateTime":"","CarInfo":"","Lon":120.135917,"Lat":23.227109,"Turn":16,"DayValue":"一,三,五,六","RecycleDate":"三,六"},{"StopId":9154,"StopName":"三吉廟口右轉一圈","ScheduleTime":"18:10","EstimateTime":"","CarInfo":"","Lon":120.133963,"Lat":23.205911,"Turn":17,"DayValue":"一,三,五,六","RecycleDate":"三,六"},{"StopId":9155,"StopName":"下口寮","ScheduleTime":"18:16","EstimateTime":"","CarInfo":"","Lon":120.132653,"Lat":23.202404,"Turn":18,"DayValue":"一,三,五,六","RecycleDate":"三,六"},{"StopId":9156,"StopName":"下口寮庄內轉一圈","ScheduleTime":"18:20","EstimateTime":"","CarInfo":"","Lon":120.131593,"Lat":23.201939,"Turn":19,"DayValue":"一,三,五,六","RecycleDate":"三,六"},{"StopId":9157,"StopName":"西和里番仔厝後","ScheduleTime":"18:24","EstimateTime":"","CarInfo":"","Lon":120.140507,"Lat":23.195173,"Turn":20,"DayValue":"一,三,五,六","RecycleDate":"三,六"},{"StopId":9158,"StopName":"西和里番仔厝中路","ScheduleTime":"18:27","EstimateTime":"","CarInfo":"","Lon":120.142119,"Lat":23.195148,"Turn":21,"DayValue":"一,三,五,六","RecycleDate":"三,六"},{"StopId":9159,"StopName":"西和里番仔厝前","ScheduleTime":"18:30","EstimateTime":"","CarInfo":"","Lon":120.142925,"Lat":23.195346,"Turn":22,"DayValue":"一,三,五,六","RecycleDate":"三,六"},{"StopId":9160,"StopName":"風鈴屋路口","ScheduleTime":"18:35","EstimateTime":"","CarInfo":"","Lon":120.093471,"Lat":23.19159,"Turn":23,"DayValue":"一,三,五,六","RecycleDate":"三,六"},{"StopId":9161,"StopName":"鯤鯓五十戶","ScheduleTime":"18:36","EstimateTime":"","CarInfo":"","Lon":120.092732,"Lat":23.190457,"Turn":24,"DayValue":"一,三,五,六","RecycleDate":"三,六"},{"StopId":9162,"StopName":"廟邊金爐腳左轉","ScheduleTime":"18:39","EstimateTime":"","CarInfo":"","Lon":120.090896,"Lat":23.189817,"Turn":25,"DayValue":"一,三,五,六","RecycleDate":"三,六"},{"StopId":9163,"StopName":"烏魚子工廠左轉出外環","ScheduleTime":"18:45","EstimateTime":"","CarInfo":"","Lon":120.089995,"Lat":23.188837,"Turn":26,"DayValue":"一,三,五,六","RecycleDate":"三,六"},{"StopId":9164,"StopName":"中華電信至廟口轉一圈","ScheduleTime":"18:50","EstimateTime":"","CarInfo":"","Lon":120.090513,"Lat":23.190009,"Turn":27,"DayValue":"一,三,五,六","RecycleDate":"三,六"},{"StopId":9165,"StopName":"派出所路口左轉","ScheduleTime":"18:55","EstimateTime":"","CarInfo":"","Lon":120.088529,"Lat":23.190637,"Turn":28,"DayValue":"一,三,五,六","RecycleDate":"三,六"},{"StopId":9166,"StopName":"鯤鯓國小","ScheduleTime":"18:58","EstimateTime":"","CarInfo":"","Lon":120.088365,"Lat":23.18856,"Turn":29,"DayValue":"一,三,五,六","RecycleDate":"三,六"},{"StopId":9167,"StopName":"西外環路左轉","ScheduleTime":"19:00","EstimateTime":"","CarInfo":"","Lon":120.086372,"Lat":23.188516,"Turn":30,"DayValue":"一,三,五,六","RecycleDate":"三,六"},{"StopId":9168,"StopName":"烏魚子工廠迴轉","ScheduleTime":"19:03","EstimateTime":"","CarInfo":"","Lon":120.088387,"Lat":23.187716,"Turn":31,"DayValue":"一,三,五,六","RecycleDate":"三,六"},{"StopId":9169,"StopName":"青山漁港","ScheduleTime":"19:05","EstimateTime":"","CarInfo":"","Lon":120.086246,"Lat":23.189656,"Turn":32,"DayValue":"一,三,五,六","RecycleDate":"三,六"},{"StopId":9170,"StopName":"北外環路","ScheduleTime":"19:07","EstimateTime":"","CarInfo":"","Lon":120.086833,"Lat":23.190712,"Turn":33,"DayValue":"一,三,五,六","RecycleDate":"三,六"},{"StopId":9171,"StopName":"五十戶檳榔店","ScheduleTime":"19:10","EstimateTime":"","CarInfo":"","Lon":120.092615,"Lat":23.191545,"Turn":34,"DayValue":"一,三,五,六","RecycleDate":"三,六"}],"CarData":[],"RouteId":234,"RouteName":"將軍-4","RouteInfo":"將軍國中前~五十戶檳榔店","IsWork":false}]