[{"StopData":[{"StopId":12156,"StopName":"中正里176-8號","ScheduleTime":"17:30","EstimateTime":"","CarInfo":"","Lon":120.409451,"Lat":23.056195,"Turn":1,"DayValue":"一,二,四,六","RecycleDate":"四"},{"StopId":12157,"StopName":"中正里175-10號","ScheduleTime":"17:31","EstimateTime":"","CarInfo":"","Lon":120.410388,"Lat":23.05616,"Turn":2,"DayValue":"一,二,四,六","RecycleDate":"四"},{"StopId":12158,"StopName":"中正里（吳秘書巷口）","ScheduleTime":"17:34","EstimateTime":"","CarInfo":"","Lon":120.408941,"Lat":23.057027,"Turn":3,"DayValue":"一,二,四,六","RecycleDate":"四"},{"StopId":12159,"StopName":"中正里136號","ScheduleTime":"17:35","EstimateTime":"","CarInfo":"","Lon":120.4079188,"Lat":23.0584206,"Turn":4,"DayValue":"一,二,四,六","RecycleDate":"四"},{"StopId":12160,"StopName":"鄉土味餐飲店","ScheduleTime":"17:37","EstimateTime":"","CarInfo":"","Lon":120.4082608,"Lat":23.0586005,"Turn":5,"DayValue":"一,二,四,六","RecycleDate":"四"},{"StopId":12161,"StopName":"又佳藥局","ScheduleTime":"17:38","EstimateTime":"","CarInfo":"","Lon":120.408603,"Lat":23.058884,"Turn":6,"DayValue":"一,二,四,六","RecycleDate":"四"},{"StopId":12162,"StopName":"消防隊","ScheduleTime":"17:41","EstimateTime":"","CarInfo":"","Lon":120.421035,"Lat":23.062856,"Turn":7,"DayValue":"一,二,四,六","RecycleDate":"四"},{"StopId":12163,"StopName":"中正里78-5號路口(舊甘蔗場)","ScheduleTime":"17:43","EstimateTime":"","CarInfo":"","Lon":120.40806,"Lat":23.059214,"Turn":8,"DayValue":"一,二,四,六","RecycleDate":"四"},{"StopId":12164,"StopName":"中正里95號","ScheduleTime":"17:45","EstimateTime":"","CarInfo":"","Lon":120.407928,"Lat":23.058564,"Turn":9,"DayValue":"一,二,四,六","RecycleDate":"四"},{"StopId":12165,"StopName":"左鎮農會供銷部","ScheduleTime":"17:47","EstimateTime":"","CarInfo":"","Lon":120.40465,"Lat":23.055432,"Turn":10,"DayValue":"一,二,四,六","RecycleDate":"四"},{"StopId":12166,"StopName":"湖底路口","ScheduleTime":"17:49","EstimateTime":"","CarInfo":"","Lon":120.403097,"Lat":23.054018,"Turn":11,"DayValue":"一,二,四,六","RecycleDate":"四"},{"StopId":12167,"StopName":"太平電器行","ScheduleTime":"17:51","EstimateTime":"","CarInfo":"","Lon":120.411375,"Lat":23.053472,"Turn":12,"DayValue":"一,二,四,六","RecycleDate":"四"},{"StopId":12168,"StopName":"懷古居","ScheduleTime":"17:52","EstimateTime":"","CarInfo":"","Lon":120.414677,"Lat":23.053456,"Turn":13,"DayValue":"一,二,四,六","RecycleDate":"四"},{"StopId":12169,"StopName":"雲豹檳榔攤","ScheduleTime":"17:53","EstimateTime":"","CarInfo":"","Lon":120.419154,"Lat":23.051504,"Turn":14,"DayValue":"一,二,四,六","RecycleDate":"四"},{"StopId":12170,"StopName":"睦光車站牌","ScheduleTime":"17:53","EstimateTime":"","CarInfo":"","Lon":120.419542,"Lat":23.051254,"Turn":15,"DayValue":"一,二,四,六","RecycleDate":"四"},{"StopId":12171,"StopName":"內庄巡守隊","ScheduleTime":"17:56","EstimateTime":"","CarInfo":"","Lon":120.422614,"Lat":23.040353,"Turn":16,"DayValue":"一,二,四,六","RecycleDate":"四"},{"StopId":12172,"StopName":"內庄34號","ScheduleTime":"17:57","EstimateTime":"","CarInfo":"","Lon":120.422216,"Lat":23.039897,"Turn":17,"DayValue":"一,二,四,六","RecycleDate":"四"},{"StopId":12173,"StopName":"內庄保中宮","ScheduleTime":"17:58","EstimateTime":"","CarInfo":"","Lon":120.420731,"Lat":23.039166,"Turn":18,"DayValue":"一,二,四,六","RecycleDate":"四"},{"StopId":12174,"StopName":"睦光紅?檳榔攤","ScheduleTime":"18:02","EstimateTime":"","CarInfo":"","Lon":120.420086,"Lat":23.05089,"Turn":19,"DayValue":"一,二,四,六","RecycleDate":"四"},{"StopId":12175,"StopName":"電烤土雞","ScheduleTime":"18:02","EstimateTime":"","CarInfo":"","Lon":120.413662,"Lat":23.053662,"Turn":20,"DayValue":"一,二,四,六","RecycleDate":"四"},{"StopId":12176,"StopName":"左鎮牌樓對面紅綠燈路口","ScheduleTime":"18:07","EstimateTime":"","CarInfo":"","Lon":120.405326,"Lat":23.053306,"Turn":21,"DayValue":"一,二,四,六","RecycleDate":"四"},{"StopId":12177,"StopName":"平埔族美食","ScheduleTime":"18:10","EstimateTime":"","CarInfo":"","Lon":120.401479,"Lat":23.055835,"Turn":22,"DayValue":"一,二,四,六","RecycleDate":"四"},{"StopId":12178,"StopName":"阿興檳榔攤","ScheduleTime":"18:12","EstimateTime":"","CarInfo":"","Lon":120.398552,"Lat":23.056978,"Turn":23,"DayValue":"一,二,四,六","RecycleDate":"四"},{"StopId":12179,"StopName":"慈惠教養院","ScheduleTime":"18:13","EstimateTime":"","CarInfo":"","Lon":120.396617,"Lat":23.058869,"Turn":24,"DayValue":"一,二,四,六","RecycleDate":"四"},{"StopId":12180,"StopName":"文欽餐飲部","ScheduleTime":"18:16","EstimateTime":"","CarInfo":"","Lon":120.3891657,"Lat":23.0632212,"Turn":25,"DayValue":"一,二,四,六","RecycleDate":"四"},{"StopId":12181,"StopName":"勝利機車行","ScheduleTime":"18:18","EstimateTime":"","CarInfo":"","Lon":120.3883731,"Lat":23.0635796,"Turn":26,"DayValue":"一,二,四,六","RecycleDate":"四"},{"StopId":12182,"StopName":"化石館門前","ScheduleTime":"18:20","EstimateTime":"","CarInfo":"","Lon":120.389501,"Lat":23.06411,"Turn":27,"DayValue":"一,二,四,六","RecycleDate":"四"},{"StopId":12183,"StopName":"三井商店","ScheduleTime":"18:23","EstimateTime":"","CarInfo":"","Lon":120.386483,"Lat":23.064327,"Turn":28,"DayValue":"一,二,四,六","RecycleDate":"四"},{"StopId":12184,"StopName":"榮和里7號","ScheduleTime":"18:25","EstimateTime":"","CarInfo":"","Lon":120.38297,"Lat":23.064931,"Turn":29,"DayValue":"一,二,四,六","RecycleDate":"四"},{"StopId":12185,"StopName":"光和里19號(檳榔攤)","ScheduleTime":"18:27","EstimateTime":"","CarInfo":"","Lon":120.379549,"Lat":23.068196,"Turn":30,"DayValue":"一,二,四,六","RecycleDate":"四"},{"StopId":12186,"StopName":"光和里5號路口","ScheduleTime":"18:29","EstimateTime":"","CarInfo":"","Lon":120.376333,"Lat":23.073142,"Turn":31,"DayValue":"一,二,四,六","RecycleDate":"四"},{"StopId":12187,"StopName":"洪海波巷口","ScheduleTime":"18:29","EstimateTime":"","CarInfo":"","Lon":120.377425,"Lat":23.070244,"Turn":32,"DayValue":"一,二,四,六","RecycleDate":"四"},{"StopId":12188,"StopName":"光和教會","ScheduleTime":"18:31","EstimateTime":"","CarInfo":"","Lon":120.3793242,"Lat":23.0675601,"Turn":33,"DayValue":"一,二,四,六","RecycleDate":"四"},{"StopId":12189,"StopName":"光和里51-4號","ScheduleTime":"18:33","EstimateTime":"","CarInfo":"","Lon":120.379942,"Lat":23.067272,"Turn":34,"DayValue":"一,二,四,六","RecycleDate":"四"},{"StopId":12190,"StopName":"三重溪部落","ScheduleTime":"18:36","EstimateTime":"","CarInfo":"","Lon":120.385169,"Lat":23.059059,"Turn":35,"DayValue":"一,二,四,六","RecycleDate":"四"},{"StopId":12191,"StopName":"展仔保養廠","ScheduleTime":"18:39","EstimateTime":"","CarInfo":"","Lon":120.387775,"Lat":23.063759,"Turn":36,"DayValue":"一,二,四,六","RecycleDate":"四"},{"StopId":12192,"StopName":"榮和里長宅路口","ScheduleTime":"18:41","EstimateTime":"","CarInfo":"","Lon":120.391909,"Lat":23.060414,"Turn":37,"DayValue":"一,二,四,六","RecycleDate":"四"},{"StopId":12193,"StopName":"風從山來奇木停車場","ScheduleTime":"18:43","EstimateTime":"","CarInfo":"","Lon":120.397037,"Lat":23.058176,"Turn":38,"DayValue":"一,二,四,六","RecycleDate":"四"}],"CarData":[],"RouteId":46,"RouteName":"左鎮-1","RouteInfo":"中正里176-8號~風從山來奇木停車場","IsWork":true}]