[{"StopData":[{"StopId":15651,"StopName":"立德三路1號旁","ScheduleTime":"15:35","EstimateTime":"","CarInfo":"","Lon":120.214952,"Lat":22.975256,"Turn":1,"DayValue":"一,二,四,六","RecycleDate":"一,四"},{"StopId":15652,"StopName":"立德四路1號旁","ScheduleTime":"15:38","EstimateTime":"","CarInfo":"","Lon":120.214896,"Lat":22.975572,"Turn":2,"DayValue":"一,二,四,六","RecycleDate":"一,四"},{"StopId":15653,"StopName":"立德六路1號旁","ScheduleTime":"15:41","EstimateTime":"","CarInfo":"","Lon":120.214759,"Lat":22.976113,"Turn":3,"DayValue":"一,二,四,六","RecycleDate":"一,四"},{"StopId":15654,"StopName":"立德八路27號旁","ScheduleTime":"15:44","EstimateTime":"","CarInfo":"","Lon":120.214656,"Lat":22.976747,"Turn":4,"DayValue":"一,二,四,六","RecycleDate":"一,四"},{"StopId":15655,"StopName":"立德七路26號前","ScheduleTime":"15:47","EstimateTime":"","CarInfo":"","Lon":120.215549,"Lat":22.976552,"Turn":5,"DayValue":"一,二,四,六","RecycleDate":"一,四"},{"StopId":15656,"StopName":"立德五路25號公園旁","ScheduleTime":"15:53","EstimateTime":"","CarInfo":"","Lon":120.215638,"Lat":22.976216,"Turn":6,"DayValue":"一,二,四,六","RecycleDate":"一,四"},{"StopId":15657,"StopName":"立德二路54巷口","ScheduleTime":"15:56","EstimateTime":"","CarInfo":"","Lon":120.215731,"Lat":22.975139,"Turn":7,"DayValue":"一,二,四,六","RecycleDate":"一,四"},{"StopId":15658,"StopName":"立德二路39號前","ScheduleTime":"15:59","EstimateTime":"","CarInfo":"","Lon":120.215777,"Lat":22.975204,"Turn":8,"DayValue":"一,二,四,六","RecycleDate":"一,四"},{"StopId":15659,"StopName":"立德十路13號大樓前","ScheduleTime":"16:06","EstimateTime":"","CarInfo":"","Lon":120.214255,"Lat":22.977811,"Turn":9,"DayValue":"一,二,四,六","RecycleDate":"一,四"},{"StopId":15660,"StopName":"立德十路55號前","ScheduleTime":"16:10","EstimateTime":"","CarInfo":"","Lon":120.215183,"Lat":22.977946,"Turn":10,"DayValue":"一,二,四,六","RecycleDate":"一,四"},{"StopId":15661,"StopName":"立德九路68號","ScheduleTime":"16:13","EstimateTime":"","CarInfo":"","Lon":120.215677,"Lat":22.977231,"Turn":11,"DayValue":"一,二,四,六","RecycleDate":"一,四"},{"StopId":15662,"StopName":"立德11路2號","ScheduleTime":"16:19","EstimateTime":"","CarInfo":"","Lon":120.215717,"Lat":22.977229,"Turn":12,"DayValue":"一,二,四,六","RecycleDate":"一,四"},{"StopId":15663,"StopName":"立德11路75號前","ScheduleTime":"16:23","EstimateTime":"","CarInfo":"","Lon":120.215294,"Lat":22.97846,"Turn":13,"DayValue":"一,二,四,六","RecycleDate":"一,四"},{"StopId":15664,"StopName":"立德11路55巷24號","ScheduleTime":"16:26","EstimateTime":"","CarInfo":"","Lon":120.214795,"Lat":22.978885,"Turn":14,"DayValue":"一,二,四,六","RecycleDate":"一,四"},{"StopId":15665,"StopName":"立德11路55巷38弄口","ScheduleTime":"16:29","EstimateTime":"","CarInfo":"","Lon":120.214736,"Lat":22.979055,"Turn":15,"DayValue":"一,二,四,六","RecycleDate":"一,四"},{"StopId":15666,"StopName":"立德11路29巷轉彎口","ScheduleTime":"16:33","EstimateTime":"","CarInfo":"","Lon":120.214269,"Lat":22.978561,"Turn":16,"DayValue":"一,二,四,六","RecycleDate":"一,四"},{"StopId":15667,"StopName":"立德11路29巷7號","ScheduleTime":"16:36","EstimateTime":"","CarInfo":"","Lon":120.214256,"Lat":22.978781,"Turn":17,"DayValue":"一,二,四,六","RecycleDate":"一,四"},{"StopId":15668,"StopName":"立德11路15號大同西服前","ScheduleTime":"16:38","EstimateTime":"","CarInfo":"","Lon":120.213999,"Lat":22.978202,"Turn":18,"DayValue":"一,二,四,六","RecycleDate":"一,四"},{"StopId":15669,"StopName":"立德10路28號(公有市場前)","ScheduleTime":"16:40","EstimateTime":"","CarInfo":"","Lon":120.214432,"Lat":22.977828,"Turn":19,"DayValue":"一,二,四,六","RecycleDate":"一,四"},{"StopId":15670,"StopName":"榮譽街30號大同國小前","ScheduleTime":"16:58","EstimateTime":"","CarInfo":"","Lon":120.21573,"Lat":22.974016,"Turn":20,"DayValue":"一,二,四,六","RecycleDate":"一,四"},{"StopId":15671,"StopName":"中華東路三段399巷20弄55號","ScheduleTime":"18:45","EstimateTime":"","CarInfo":"","Lon":120.218047,"Lat":22.972101,"Turn":21,"DayValue":"一,二,四,六","RecycleDate":"一,四"},{"StopId":15672,"StopName":"中華東路三段399巷20弄32號","ScheduleTime":"18:48","EstimateTime":"","CarInfo":"","Lon":120.219195,"Lat":22.972344,"Turn":22,"DayValue":"一,二,四,六","RecycleDate":"一,四"},{"StopId":15673,"StopName":"中華東路三段399巷20弄1號","ScheduleTime":"18:51","EstimateTime":"","CarInfo":"","Lon":120.220545,"Lat":22.972612,"Turn":23,"DayValue":"一,二,四,六","RecycleDate":"一,四"},{"StopId":15674,"StopName":"中華東路三段399巷21弄10號","ScheduleTime":"18:54","EstimateTime":"","CarInfo":"","Lon":120.221159,"Lat":22.972729,"Turn":24,"DayValue":"一,二,四,六","RecycleDate":"一,四"},{"StopId":15675,"StopName":"中華東路三段377巷8號","ScheduleTime":"18:59","EstimateTime":"","CarInfo":"","Lon":120.22158,"Lat":22.973422,"Turn":25,"DayValue":"一,二,四,六","RecycleDate":"一,四"},{"StopId":15676,"StopName":"中華東路三段357巷12號邊","ScheduleTime":"19:02","EstimateTime":"","CarInfo":"","Lon":120.22333,"Lat":22.973417,"Turn":26,"DayValue":"一,二,四,六","RecycleDate":"一,四"},{"StopId":15677,"StopName":"中華東路三段357巷38號","ScheduleTime":"19:05","EstimateTime":"","CarInfo":"","Lon":120.223706,"Lat":22.973061,"Turn":27,"DayValue":"一,二,四,六","RecycleDate":"一,四"},{"StopId":15678,"StopName":"中華東路三段357巷80號","ScheduleTime":"19:09","EstimateTime":"","CarInfo":"","Lon":120.224447,"Lat":22.972428,"Turn":28,"DayValue":"一,二,四,六","RecycleDate":"一,四"},{"StopId":15679,"StopName":"崇明路650號崇明國小前","ScheduleTime":"19:13","EstimateTime":"","CarInfo":"","Lon":120.225658,"Lat":22.971429,"Turn":29,"DayValue":"一,二,四,六","RecycleDate":"一,四"},{"StopId":15680,"StopName":"崇明路738號","ScheduleTime":"19:18","EstimateTime":"","CarInfo":"","Lon":120.225556,"Lat":22.967691,"Turn":30,"DayValue":"一,二,四,六","RecycleDate":"一,四"},{"StopId":15681,"StopName":"大同路二段779號（北京理容院）","ScheduleTime":"19:27","EstimateTime":"","CarInfo":"","Lon":120.216497,"Lat":22.96486,"Turn":31,"DayValue":"一,二,四,六","RecycleDate":"一,四"},{"StopId":15682,"StopName":"大同路二段723號","ScheduleTime":"19:30","EstimateTime":"","CarInfo":"","Lon":120.216139,"Lat":22.966496,"Turn":32,"DayValue":"一,二,四,六","RecycleDate":"一,四"},{"StopId":15683,"StopName":"大同路二段615號(亞伯大樓)","ScheduleTime":"19:33","EstimateTime":"","CarInfo":"","Lon":120.215965,"Lat":22.967544,"Turn":33,"DayValue":"一,二,四,六","RecycleDate":"一,四"},{"StopId":15684,"StopName":"大同路二段及601號（國寶大樓）","ScheduleTime":"19:36","EstimateTime":"","CarInfo":"","Lon":120.215845,"Lat":22.968088,"Turn":34,"DayValue":"一,二,四,六","RecycleDate":"一,四"},{"StopId":15685,"StopName":"大同路二段497號（弘晟汽車）","ScheduleTime":"19:41","EstimateTime":"","CarInfo":"","Lon":120.215555,"Lat":22.969648,"Turn":35,"DayValue":"一,二,四,六","RecycleDate":"一,四"},{"StopId":15686,"StopName":"大同路二段449巷口（竹仔店）","ScheduleTime":"19:44","EstimateTime":"","CarInfo":"","Lon":120.215305,"Lat":22.970878,"Turn":36,"DayValue":"一,二,四,六","RecycleDate":"一,四"},{"StopId":15687,"StopName":"大同路二段449巷11號前","ScheduleTime":"19:47","EstimateTime":"","CarInfo":"","Lon":120.216152,"Lat":22.971102,"Turn":37,"DayValue":"一,二,四,六","RecycleDate":"一,四"},{"StopId":15688,"StopName":"大同路二段449巷73號（豬腸工廠）","ScheduleTime":"19:52","EstimateTime":"","CarInfo":"","Lon":120.217523,"Lat":22.972055,"Turn":38,"DayValue":"一,二,四,六","RecycleDate":"一,四"},{"StopId":15689,"StopName":"大同路二段403巷66號","ScheduleTime":"19:57","EstimateTime":"","CarInfo":"","Lon":120.216655,"Lat":22.972031,"Turn":39,"DayValue":"一,二,四,六","RecycleDate":"一,四"},{"StopId":15690,"StopName":"大同路二段403巷61號","ScheduleTime":"20:00","EstimateTime":"","CarInfo":"","Lon":120.215915,"Lat":22.971694,"Turn":40,"DayValue":"一,二,四,六","RecycleDate":"一,四"},{"StopId":15691,"StopName":"中華東路三段511號路橋下活動中心","ScheduleTime":"20:04","EstimateTime":"","CarInfo":"","Lon":120.216621,"Lat":22.972752,"Turn":41,"DayValue":"一,二,四,六","RecycleDate":"一,四"},{"StopId":15692,"StopName":"中華東路三段618巷口","ScheduleTime":"20:09","EstimateTime":"","CarInfo":"","Lon":120.215144,"Lat":22.97256,"Turn":42,"DayValue":"一,二,四,六","RecycleDate":"一,四"},{"StopId":15693,"StopName":"大同路二段261號前","ScheduleTime":"20:13","EstimateTime":"","CarInfo":"","Lon":120.214269,"Lat":22.974909,"Turn":43,"DayValue":"一,二,四,六","RecycleDate":"一,四"},{"StopId":15694,"StopName":"大同路二段205號前","ScheduleTime":"20:17","EstimateTime":"","CarInfo":"","Lon":120.214008,"Lat":22.976143,"Turn":44,"DayValue":"一,二,四,六","RecycleDate":"一,四"},{"StopId":17986,"StopName":"立德十路1巷1號","ScheduleTime":"20:20","EstimateTime":"","CarInfo":"","Lon":120.213914,"Lat":22.977724,"Turn":45,"DayValue":"一,二,四,六","RecycleDate":"一,四"}],"CarData":[],"RouteId":171,"RouteName":"東區-05","RouteInfo":"立德三路1號旁~立德十路1巷1號","IsWork":true}]