[{"StopData":[{"StopId":8732,"StopName":"柳營路二段59號","ScheduleTime":"18:00","EstimateTime":"","CarInfo":"","Lon":120.312312,"Lat":23.277816,"Turn":1,"DayValue":"一,五","RecycleDate":"三,六"},{"StopId":8733,"StopName":"柳營路二段238號博愛幼稚園","ScheduleTime":"18:03","EstimateTime":"","CarInfo":"","Lon":120.312219,"Lat":23.282291,"Turn":2,"DayValue":"一,五","RecycleDate":"三,六"},{"StopId":8734,"StopName":"光福里279之1","ScheduleTime":"18:06","EstimateTime":"","CarInfo":"","Lon":120.3129383,"Lat":23.2842166,"Turn":3,"DayValue":"一,五","RecycleDate":"三,六"},{"StopId":8735,"StopName":"建業路379巷28號","ScheduleTime":"18:08","EstimateTime":"","CarInfo":"","Lon":120.3171696,"Lat":23.2879058,"Turn":4,"DayValue":"一,五","RecycleDate":"三,六"},{"StopId":8736,"StopName":"建業路205巷198號","ScheduleTime":"18:10","EstimateTime":"","CarInfo":"","Lon":120.314541,"Lat":23.284635,"Turn":5,"DayValue":"一,五","RecycleDate":"三,六"},{"StopId":8737,"StopName":"建業路101巷262號","ScheduleTime":"18:15","EstimateTime":"","CarInfo":"","Lon":120.313305,"Lat":23.282818,"Turn":6,"DayValue":"一,五","RecycleDate":"三,六"},{"StopId":8738,"StopName":"光福七街87之1","ScheduleTime":"18:18","EstimateTime":"","CarInfo":"","Lon":120.31298,"Lat":23.281838,"Turn":7,"DayValue":"一,五","RecycleDate":"三,六"},{"StopId":8739,"StopName":"十美街650號","ScheduleTime":"18:22","EstimateTime":"","CarInfo":"","Lon":120.312372,"Lat":23.27993,"Turn":8,"DayValue":"一,五","RecycleDate":"三,六"},{"StopId":8740,"StopName":"十美街596號","ScheduleTime":"18:24","EstimateTime":"","CarInfo":"","Lon":120.313368,"Lat":23.280454,"Turn":9,"DayValue":"一,五","RecycleDate":"三,六"},{"StopId":8741,"StopName":"十美街406號","ScheduleTime":"18:28","EstimateTime":"","CarInfo":"","Lon":120.3165,"Lat":23.280815,"Turn":10,"DayValue":"一,五","RecycleDate":"三,六"},{"StopId":8742,"StopName":"十美街209號","ScheduleTime":"18:32","EstimateTime":"","CarInfo":"","Lon":120.318569,"Lat":23.280776,"Turn":11,"DayValue":"一,五","RecycleDate":"三,六"},{"StopId":8743,"StopName":"東昇一街21號","ScheduleTime":"18:36","EstimateTime":"","CarInfo":"","Lon":120.320493,"Lat":23.279579,"Turn":12,"DayValue":"一,五","RecycleDate":"三,六"},{"StopId":8744,"StopName":"十美街537-1號","ScheduleTime":"18:40","EstimateTime":"","CarInfo":"","Lon":120.314286,"Lat":23.280758,"Turn":13,"DayValue":"一,五","RecycleDate":"三,六"},{"StopId":8745,"StopName":"十美街5號","ScheduleTime":"18:45","EstimateTime":"","CarInfo":"","Lon":120.322155,"Lat":23.279406,"Turn":14,"DayValue":"一,五","RecycleDate":"三,六"},{"StopId":8746,"StopName":"建國路62巷16號","ScheduleTime":"18:48","EstimateTime":"","CarInfo":"","Lon":120.322581,"Lat":23.277545,"Turn":15,"DayValue":"一,五","RecycleDate":"三,六"},{"StopId":8747,"StopName":"太康78之80號","ScheduleTime":"18:50","EstimateTime":"","CarInfo":"","Lon":120.3285015,"Lat":23.2825846,"Turn":16,"DayValue":"一,五","RecycleDate":"三,六"},{"StopId":8748,"StopName":"太康55之21號","ScheduleTime":"18:53","EstimateTime":"","CarInfo":"","Lon":120.3280548,"Lat":23.2844975,"Turn":17,"DayValue":"一,五","RecycleDate":"三,六"},{"StopId":8749,"StopName":"太康16-56號","ScheduleTime":"18:56","EstimateTime":"","CarInfo":"","Lon":120.3260398,"Lat":23.288276,"Turn":18,"DayValue":"一,五","RecycleDate":"三,六"},{"StopId":8750,"StopName":"太康14-36號","ScheduleTime":"19:00","EstimateTime":"","CarInfo":"","Lon":120.3262987,"Lat":23.2896318,"Turn":19,"DayValue":"一,五","RecycleDate":"三,六"},{"StopId":8751,"StopName":"太康里30-35號","ScheduleTime":"19:09","EstimateTime":"","CarInfo":"","Lon":120.3282462,"Lat":23.2901668,"Turn":20,"DayValue":"一,五","RecycleDate":"三,六"},{"StopId":8752,"StopName":"太康16-15號","ScheduleTime":"19:15","EstimateTime":"","CarInfo":"","Lon":120.3348247,"Lat":23.2909229,"Turn":21,"DayValue":"一,五","RecycleDate":"三,六"},{"StopId":8753,"StopName":"五軍營34之1","ScheduleTime":"19:20","EstimateTime":"","CarInfo":"","Lon":120.3495041,"Lat":23.2957215,"Turn":22,"DayValue":"一,五","RecycleDate":"三,六"},{"StopId":8754,"StopName":"五軍營22號","ScheduleTime":"19:22","EstimateTime":"","CarInfo":"","Lon":120.3501318,"Lat":23.2962191,"Turn":23,"DayValue":"一,五","RecycleDate":"三,六"},{"StopId":8755,"StopName":"五軍營20之4號","ScheduleTime":"19:23","EstimateTime":"","CarInfo":"","Lon":120.3504751,"Lat":23.296766,"Turn":24,"DayValue":"一,五","RecycleDate":"三,六"},{"StopId":8756,"StopName":"小腳腿173之20","ScheduleTime":"19:25","EstimateTime":"","CarInfo":"","Lon":120.366352,"Lat":23.2950147,"Turn":25,"DayValue":"一,五","RecycleDate":"三,六"},{"StopId":8757,"StopName":"小腳腿173之6號","ScheduleTime":"19:29","EstimateTime":"","CarInfo":"","Lon":120.3674517,"Lat":23.2929749,"Turn":26,"DayValue":"一,五","RecycleDate":"三,六"},{"StopId":8758,"StopName":"小腳腿172號","ScheduleTime":"19:31","EstimateTime":"","CarInfo":"","Lon":120.3662345,"Lat":23.2925128,"Turn":27,"DayValue":"一,五","RecycleDate":"三,六"},{"StopId":8759,"StopName":"小腳腿137號","ScheduleTime":"19:35","EstimateTime":"","CarInfo":"","Lon":120.3658639,"Lat":23.2914031,"Turn":28,"DayValue":"一,五","RecycleDate":"三,六"},{"StopId":8760,"StopName":"小腳腿55之1號","ScheduleTime":"19:39","EstimateTime":"","CarInfo":"","Lon":120.366985,"Lat":23.2901466,"Turn":29,"DayValue":"一,五","RecycleDate":"三,六"},{"StopId":8761,"StopName":"小腳腿36之24號","ScheduleTime":"19:43","EstimateTime":"","CarInfo":"","Lon":120.3662072,"Lat":23.2893977,"Turn":30,"DayValue":"一,五","RecycleDate":"三,六"},{"StopId":8762,"StopName":"小腳腿37-7號","ScheduleTime":"19:44","EstimateTime":"","CarInfo":"","Lon":120.358005,"Lat":23.2909596,"Turn":31,"DayValue":"一,五","RecycleDate":"三,六"},{"StopId":8763,"StopName":"小腳腿2之10號","ScheduleTime":"19:47","EstimateTime":"","CarInfo":"","Lon":120.363246,"Lat":23.287683,"Turn":32,"DayValue":"一,五","RecycleDate":"三,六"},{"StopId":8764,"StopName":"小腳腿12之4號","ScheduleTime":"19:49","EstimateTime":"","CarInfo":"","Lon":120.3663788,"Lat":23.2875352,"Turn":33,"DayValue":"一,五","RecycleDate":"三,六"},{"StopId":8765,"StopName":"小腳腿12之1號","ScheduleTime":"19:51","EstimateTime":"","CarInfo":"","Lon":120.3664271,"Lat":23.2877273,"Turn":34,"DayValue":"一,五","RecycleDate":"三,六"},{"StopId":8766,"StopName":"義士路一段832巷125號","ScheduleTime":"19:55","EstimateTime":"","CarInfo":"","Lon":120.3679594,"Lat":23.2879128,"Turn":35,"DayValue":"一,五","RecycleDate":"三,六"},{"StopId":8767,"StopName":"義士路一段661號","ScheduleTime":"20:00","EstimateTime":"","CarInfo":"","Lon":120.368922,"Lat":23.284526,"Turn":36,"DayValue":"一,五","RecycleDate":"三,六"},{"StopId":8768,"StopName":"義士路一段938號","ScheduleTime":"20:03","EstimateTime":"","CarInfo":"","Lon":120.36573,"Lat":23.285375,"Turn":37,"DayValue":"一,五","RecycleDate":"三,六"},{"StopId":8769,"StopName":"小腳腿5之60號","ScheduleTime":"20:06","EstimateTime":"","CarInfo":"","Lon":120.3657566,"Lat":23.2859584,"Turn":38,"DayValue":"一,五","RecycleDate":"三,六"},{"StopId":8770,"StopName":"義士路二段6號","ScheduleTime":"20:10","EstimateTime":"","CarInfo":"","Lon":120.3637648,"Lat":23.2856809,"Turn":39,"DayValue":"一,五","RecycleDate":"三,六"},{"StopId":8771,"StopName":"義士路二段136號","ScheduleTime":"20:15","EstimateTime":"","CarInfo":"","Lon":120.3620267,"Lat":23.2858977,"Turn":40,"DayValue":"一,五","RecycleDate":"三,六"},{"StopId":8772,"StopName":"柳營路二段59號","ScheduleTime":"18:00","EstimateTime":"","CarInfo":"","Lon":120.312312,"Lat":23.277816,"Turn":1,"DayValue":"一,五","RecycleDate":"三,六"},{"StopId":8773,"StopName":"柳營路二段238號博愛幼稚園","ScheduleTime":"18:03","EstimateTime":"","CarInfo":"","Lon":120.312219,"Lat":23.282291,"Turn":2,"DayValue":"一,五","RecycleDate":"三,六"},{"StopId":8774,"StopName":"光福里279之1","ScheduleTime":"18:06","EstimateTime":"","CarInfo":"","Lon":120.3129383,"Lat":23.2842166,"Turn":3,"DayValue":"一,五","RecycleDate":"三,六"},{"StopId":8775,"StopName":"建業路379巷28號","ScheduleTime":"18:08","EstimateTime":"","CarInfo":"","Lon":120.3171696,"Lat":23.2879058,"Turn":4,"DayValue":"一,五","RecycleDate":"三,六"},{"StopId":8776,"StopName":"建業路205巷198號","ScheduleTime":"18:10","EstimateTime":"","CarInfo":"","Lon":120.314541,"Lat":23.284635,"Turn":5,"DayValue":"一,五","RecycleDate":"三,六"},{"StopId":8777,"StopName":"建業路101巷262號","ScheduleTime":"18:12","EstimateTime":"","CarInfo":"","Lon":120.313305,"Lat":23.282818,"Turn":6,"DayValue":"一,五","RecycleDate":"三,六"},{"StopId":8778,"StopName":"光福七街87之1","ScheduleTime":"18:14","EstimateTime":"","CarInfo":"","Lon":120.31298,"Lat":23.281838,"Turn":7,"DayValue":"一,五","RecycleDate":"三,六"},{"StopId":8779,"StopName":"十美街650號","ScheduleTime":"18:18","EstimateTime":"","CarInfo":"","Lon":120.312372,"Lat":23.27993,"Turn":8,"DayValue":"一,五","RecycleDate":"三,六"},{"StopId":8780,"StopName":"十美街596號","ScheduleTime":"18:21","EstimateTime":"","CarInfo":"","Lon":120.313368,"Lat":23.280454,"Turn":9,"DayValue":"一,五","RecycleDate":"三,六"},{"StopId":8781,"StopName":"十美街406號","ScheduleTime":"18:25","EstimateTime":"","CarInfo":"","Lon":120.3165,"Lat":23.280815,"Turn":10,"DayValue":"一,五","RecycleDate":"三,六"},{"StopId":8782,"StopName":"十美街209號","ScheduleTime":"18:27","EstimateTime":"","CarInfo":"","Lon":120.318569,"Lat":23.280776,"Turn":11,"DayValue":"一,五","RecycleDate":"三,六"},{"StopId":8783,"StopName":"東昇一街21號","ScheduleTime":"18:31","EstimateTime":"","CarInfo":"","Lon":120.320493,"Lat":23.279579,"Turn":12,"DayValue":"一,五","RecycleDate":"三,六"},{"StopId":8784,"StopName":"十美街537-1號","ScheduleTime":"18:34","EstimateTime":"","CarInfo":"","Lon":120.314286,"Lat":23.280758,"Turn":13,"DayValue":"一,五","RecycleDate":"三,六"},{"StopId":8785,"StopName":"十美街5號","ScheduleTime":"18:38","EstimateTime":"","CarInfo":"","Lon":120.322155,"Lat":23.279406,"Turn":14,"DayValue":"一,五","RecycleDate":"三,六"},{"StopId":8786,"StopName":"建國路62巷16號","ScheduleTime":"18:44","EstimateTime":"","CarInfo":"","Lon":120.322581,"Lat":23.277545,"Turn":15,"DayValue":"一,五","RecycleDate":"三,六"},{"StopId":8787,"StopName":"太康78之80號","ScheduleTime":"18:47","EstimateTime":"","CarInfo":"","Lon":120.3285015,"Lat":23.2825846,"Turn":16,"DayValue":"一,五","RecycleDate":"三,六"},{"StopId":8788,"StopName":"太康55之21號","ScheduleTime":"18:50","EstimateTime":"","CarInfo":"","Lon":120.3280548,"Lat":23.2844975,"Turn":17,"DayValue":"一,五","RecycleDate":"三,六"},{"StopId":8789,"StopName":"太康16-56號","ScheduleTime":"18:53","EstimateTime":"","CarInfo":"","Lon":120.3260398,"Lat":23.288276,"Turn":18,"DayValue":"一,五","RecycleDate":"三,六"},{"StopId":8790,"StopName":"太康14-36號","ScheduleTime":"18:56","EstimateTime":"","CarInfo":"","Lon":120.3262987,"Lat":23.2896318,"Turn":19,"DayValue":"一,五","RecycleDate":"三,六"},{"StopId":8791,"StopName":"太康里30-35號","ScheduleTime":"18:58","EstimateTime":"","CarInfo":"","Lon":120.3282462,"Lat":23.2901668,"Turn":20,"DayValue":"一,五","RecycleDate":"三,六"},{"StopId":8792,"StopName":"太康16-15號","ScheduleTime":"19:00","EstimateTime":"","CarInfo":"","Lon":120.3348247,"Lat":23.2909229,"Turn":21,"DayValue":"一,五","RecycleDate":"三,六"},{"StopId":8793,"StopName":"五軍營34之1","ScheduleTime":"19:02","EstimateTime":"","CarInfo":"","Lon":120.3495041,"Lat":23.2957215,"Turn":22,"DayValue":"一,五","RecycleDate":"三,六"},{"StopId":8794,"StopName":"五軍營22號","ScheduleTime":"19:06","EstimateTime":"","CarInfo":"","Lon":120.3501318,"Lat":23.2962191,"Turn":23,"DayValue":"一,五","RecycleDate":"三,六"},{"StopId":8795,"StopName":"五軍營20之4號","ScheduleTime":"19:08","EstimateTime":"","CarInfo":"","Lon":120.3504751,"Lat":23.296766,"Turn":24,"DayValue":"一,五","RecycleDate":"三,六"},{"StopId":8796,"StopName":"小腳腿173之20","ScheduleTime":"19:25","EstimateTime":"","CarInfo":"","Lon":120.366352,"Lat":23.2950147,"Turn":25,"DayValue":"一,五","RecycleDate":"三,六"},{"StopId":8797,"StopName":"小腳腿173之6號","ScheduleTime":"19:28","EstimateTime":"","CarInfo":"","Lon":120.3674517,"Lat":23.2929749,"Turn":26,"DayValue":"一,五","RecycleDate":"三,六"},{"StopId":8798,"StopName":"小腳腿172號","ScheduleTime":"19:31","EstimateTime":"","CarInfo":"","Lon":120.3662345,"Lat":23.2925128,"Turn":27,"DayValue":"一,五","RecycleDate":"三,六"},{"StopId":8799,"StopName":"小腳腿137號","ScheduleTime":"19:33","EstimateTime":"","CarInfo":"","Lon":120.3658639,"Lat":23.2914031,"Turn":28,"DayValue":"一,五","RecycleDate":"三,六"},{"StopId":8800,"StopName":"小腳腿55之1號","ScheduleTime":"19:36","EstimateTime":"","CarInfo":"","Lon":120.366985,"Lat":23.2901466,"Turn":29,"DayValue":"一,五","RecycleDate":"三,六"},{"StopId":8801,"StopName":"小腳腿36之24號","ScheduleTime":"19:37","EstimateTime":"","CarInfo":"","Lon":120.3662072,"Lat":23.2893977,"Turn":30,"DayValue":"一,五","RecycleDate":"三,六"},{"StopId":8802,"StopName":"小腳腿37-7號","ScheduleTime":"19:39","EstimateTime":"","CarInfo":"","Lon":120.358005,"Lat":23.2909596,"Turn":31,"DayValue":"一,五","RecycleDate":"三,六"},{"StopId":8803,"StopName":"小腳腿2之10號","ScheduleTime":"19:41","EstimateTime":"","CarInfo":"","Lon":120.363246,"Lat":23.287683,"Turn":32,"DayValue":"一,五","RecycleDate":"三,六"},{"StopId":8804,"StopName":"小腳腿12之4號","ScheduleTime":"19:43","EstimateTime":"","CarInfo":"","Lon":120.3663788,"Lat":23.2875352,"Turn":33,"DayValue":"一,五","RecycleDate":"三,六"},{"StopId":8805,"StopName":"小腳腿12之1號","ScheduleTime":"19:45","EstimateTime":"","CarInfo":"","Lon":120.3664271,"Lat":23.2877273,"Turn":34,"DayValue":"一,五","RecycleDate":"三,六"},{"StopId":8806,"StopName":"義士路一段832巷125號","ScheduleTime":"19:50","EstimateTime":"","CarInfo":"","Lon":120.3679594,"Lat":23.2879128,"Turn":35,"DayValue":"一,五","RecycleDate":"三,六"},{"StopId":8807,"StopName":"義士路一段661號","ScheduleTime":"19:53","EstimateTime":"","CarInfo":"","Lon":120.368922,"Lat":23.284526,"Turn":36,"DayValue":"一,五","RecycleDate":"三,六"},{"StopId":8808,"StopName":"義士路一段938號","ScheduleTime":"19:56","EstimateTime":"","CarInfo":"","Lon":120.36573,"Lat":23.285375,"Turn":37,"DayValue":"一,五","RecycleDate":"三,六"},{"StopId":8809,"StopName":"小腳腿5之60號","ScheduleTime":"19:59","EstimateTime":"","CarInfo":"","Lon":120.3657566,"Lat":23.2859584,"Turn":38,"DayValue":"一,五","RecycleDate":"三,六"}],"CarData":[],"RouteId":225,"RouteName":"柳營三線","RouteInfo":"柳營路二段59號~義士路二段136號","IsWork":false}]