[{"StopData":[{"StopId":11,"StopName":"十份里49-3號前","ScheduleTime":"16:49","EstimateTime":"","CarInfo":"","Lon":120.101589,"Lat":23.089791,"Turn":1,"DayValue":"一,三,五,六","RecycleDate":"一"},{"StopId":12,"StopName":"十份里93-1號","ScheduleTime":"16:54","EstimateTime":"","CarInfo":"","Lon":120.092057,"Lat":23.090778,"Turn":2,"DayValue":"一,三,五,六","RecycleDate":"一"},{"StopId":13,"StopName":"十份里58-19號前","ScheduleTime":"16:58","EstimateTime":"","CarInfo":"","Lon":120.099151,"Lat":23.091851,"Turn":3,"DayValue":"一,三,五,六","RecycleDate":"一"},{"StopId":14,"StopName":"十份里25-8號前","ScheduleTime":"17:03","EstimateTime":"","CarInfo":"","Lon":120.105818,"Lat":23.094136,"Turn":4,"DayValue":"一,三,五,六","RecycleDate":"一"},{"StopId":15,"StopName":"十份里17-7號路口","ScheduleTime":"17:10","EstimateTime":"","CarInfo":"","Lon":120.10594,"Lat":23.094746,"Turn":5,"DayValue":"一,三,五,六","RecycleDate":"一"},{"StopId":16,"StopName":"十份里8-1號","ScheduleTime":"17:15","EstimateTime":"","CarInfo":"","Lon":120.105613,"Lat":23.096799,"Turn":6,"DayValue":"一,三,五,六","RecycleDate":"一"},{"StopId":17,"StopName":"永吉里三和宮（三佰二十萬）","ScheduleTime":"17:25","EstimateTime":"","CarInfo":"","Lon":120.129929,"Lat":23.101354,"Turn":7,"DayValue":"一,三,五,六","RecycleDate":"一"},{"StopId":18,"StopName":"永吉里17-7號","ScheduleTime":"17:30","EstimateTime":"","CarInfo":"","Lon":120.131211,"Lat":23.093572,"Turn":8,"DayValue":"一,三,五,六","RecycleDate":"一"},{"StopId":19,"StopName":"永吉里80號","ScheduleTime":"17:34","EstimateTime":"","CarInfo":"","Lon":120.128311,"Lat":23.092905,"Turn":9,"DayValue":"一,三,五,六","RecycleDate":"一"},{"StopId":20,"StopName":"永吉里98-2前","ScheduleTime":"17:41","EstimateTime":"","CarInfo":"","Lon":120.120848,"Lat":23.09632,"Turn":10,"DayValue":"一,三,五,六","RecycleDate":"一"},{"StopId":21,"StopName":"三股里龍德宮","ScheduleTime":"17:48","EstimateTime":"","CarInfo":"","Lon":120.118517,"Lat":23.09925,"Turn":11,"DayValue":"一,三,五,六","RecycleDate":"一"},{"StopId":22,"StopName":"三股里31-5號","ScheduleTime":"17:53","EstimateTime":"","CarInfo":"","Lon":120.115864,"Lat":23.098812,"Turn":12,"DayValue":"一,三,五,六","RecycleDate":"一"},{"StopId":23,"StopName":"三股里33-8號","ScheduleTime":"18:03","EstimateTime":"","CarInfo":"","Lon":120.116895,"Lat":23.099707,"Turn":13,"DayValue":"一,三,五,六","RecycleDate":"一"},{"StopId":24,"StopName":"三股派出所前","ScheduleTime":"18:12","EstimateTime":"","CarInfo":"","Lon":120.120017,"Lat":23.101972,"Turn":14,"DayValue":"一,三,五,六","RecycleDate":"一"},{"StopId":25,"StopName":"?榔里68-8號前","ScheduleTime":"18:21","EstimateTime":"","CarInfo":"","Lon":120.142643,"Lat":23.095828,"Turn":15,"DayValue":"一,三,五,六","RecycleDate":"一"},{"StopId":26,"StopName":"?榔里30-5號前","ScheduleTime":"18:26","EstimateTime":"","CarInfo":"","Lon":120.147021,"Lat":23.096927,"Turn":16,"DayValue":"一,三,五,六","RecycleDate":"一"},{"StopId":27,"StopName":"?榔里玉安宮廟後","ScheduleTime":"18:31","EstimateTime":"","CarInfo":"","Lon":120.144687,"Lat":23.097744,"Turn":17,"DayValue":"一,三,五,六","RecycleDate":"一"},{"StopId":28,"StopName":"義合里36號","ScheduleTime":"18:38","EstimateTime":"","CarInfo":"","Lon":120.14399,"Lat":23.102571,"Turn":18,"DayValue":"一,三,五,六","RecycleDate":"一"},{"StopId":29,"StopName":"義合里85號","ScheduleTime":"18:44","EstimateTime":"","CarInfo":"","Lon":120.137958,"Lat":23.101157,"Turn":19,"DayValue":"一,三,五,六","RecycleDate":"一"},{"StopId":30,"StopName":"義合里83-3號","ScheduleTime":"18:50","EstimateTime":"","CarInfo":"","Lon":120.13888,"Lat":23.10053,"Turn":20,"DayValue":"一,三,五,六","RecycleDate":"一"},{"StopId":31,"StopName":"?榔里65-12號","ScheduleTime":"18:54","EstimateTime":"","CarInfo":"","Lon":120.142811,"Lat":23.09624,"Turn":21,"DayValue":"一,三,五,六","RecycleDate":"一"}],"CarData":[],"RouteId":2,"RouteName":"七股-2","RouteInfo":"十份里49-3號前~?榔里65-12號","IsWork":false}]