[{"StopData":[{"StopId":10129,"StopName":"忠孝路園環","ScheduleTime":"07:00","EstimateTime":"","CarInfo":"","Lon":120.300564,"Lat":23.036898,"Turn":1,"DayValue":"一,二,三,四,五,六","RecycleDate":"一,二,三,四,五,六"},{"StopId":10130,"StopName":"潭頂路十字路口","ScheduleTime":"09:10","EstimateTime":"","CarInfo":"","Lon":120.34852,"Lat":23.06758,"Turn":2,"DayValue":"一,二,三,四,五,六","RecycleDate":"一,二,三,四,五,六"},{"StopId":10131,"StopName":"那拔里廟前(清水宮)","ScheduleTime":"09:40","EstimateTime":"","CarInfo":"","Lon":120.350688,"Lat":23.065455,"Turn":3,"DayValue":"一,二,三,四,五,六","RecycleDate":"一,二,三,四,五,六"},{"StopId":10132,"StopName":"大同街86號(公有零售市場)","ScheduleTime":"13:25","EstimateTime":"","CarInfo":"","Lon":120.307245,"Lat":23.034648,"Turn":4,"DayValue":"一,二,三,四,五,六","RecycleDate":"一,二,三,四,五,六"},{"StopId":10133,"StopName":"大智路309號(週一.週三.週六)","ScheduleTime":"13:50","EstimateTime":"","CarInfo":"","Lon":120.296865,"Lat":23.030719,"Turn":5,"DayValue":"一,二,三,四,五,六","RecycleDate":"一,二,三,四,五,六"},{"StopId":10134,"StopName":"中山路997號(週三)","ScheduleTime":"14:00","EstimateTime":"","CarInfo":"","Lon":120.288914,"Lat":23.033933,"Turn":6,"DayValue":"一,二,三,四,五,六","RecycleDate":"一,二,三,四,五,六"},{"StopId":10135,"StopName":"忠孝路園環","ScheduleTime":"07:00","EstimateTime":"","CarInfo":"","Lon":120.300564,"Lat":23.036898,"Turn":1,"DayValue":"一,二,三,四,五,六","RecycleDate":"一,二,三,四,五,六"},{"StopId":10136,"StopName":"潭頂路十字路口","ScheduleTime":"09:10","EstimateTime":"","CarInfo":"","Lon":120.34852,"Lat":23.06758,"Turn":2,"DayValue":"一,二,三,四,五,六","RecycleDate":"一,二,三,四,五,六"},{"StopId":10137,"StopName":"那拔里廟前(清水宮)","ScheduleTime":"09:40","EstimateTime":"","CarInfo":"","Lon":120.350688,"Lat":23.065455,"Turn":3,"DayValue":"一,二,三,四,五,六","RecycleDate":"一,二,三,四,五,六"},{"StopId":10138,"StopName":"大同街86號(公有零售市場)","ScheduleTime":"13:25","EstimateTime":"","CarInfo":"","Lon":120.307245,"Lat":23.034648,"Turn":4,"DayValue":"一,二,三,四,五,六","RecycleDate":"一,二,三,四,五,六"},{"StopId":10139,"StopName":"大智路309號(週一.週三.週六)","ScheduleTime":"13:50","EstimateTime":"","CarInfo":"","Lon":120.296865,"Lat":23.030719,"Turn":5,"DayValue":"一,二,三,四,五,六","RecycleDate":"一,二,三,四,五,六"},{"StopId":10140,"StopName":"中山路997號(週三)","ScheduleTime":"14:00","EstimateTime":"","CarInfo":"","Lon":120.288914,"Lat":23.033933,"Turn":6,"DayValue":"一,二,三,四,五,六","RecycleDate":"一,二,三,四,五,六"},{"StopId":10141,"StopName":"忠孝路園環","ScheduleTime":"07:00","EstimateTime":"","CarInfo":"","Lon":120.300564,"Lat":23.036898,"Turn":1,"DayValue":"一,二,三,四,五,六","RecycleDate":"一,二,三,四,五,六"},{"StopId":10142,"StopName":"潭頂路十字路口","ScheduleTime":"09:10","EstimateTime":"","CarInfo":"","Lon":120.34852,"Lat":23.06758,"Turn":2,"DayValue":"一,二,三,四,五,六","RecycleDate":"一,二,三,四,五,六"},{"StopId":10143,"StopName":"那拔里廟前(清水宮)","ScheduleTime":"09:40","EstimateTime":"","CarInfo":"","Lon":120.350688,"Lat":23.065455,"Turn":3,"DayValue":"一,二,三,四,五,六","RecycleDate":"一,二,三,四,五,六"},{"StopId":10144,"StopName":"大同街86號(公有零售市場)","ScheduleTime":"13:25","EstimateTime":"","CarInfo":"","Lon":120.307245,"Lat":23.034648,"Turn":4,"DayValue":"一,二,三,四,五,六","RecycleDate":"一,二,三,四,五,六"}],"CarData":[],"RouteId":260,"RouteName":"新化-2輔助點","RouteInfo":"忠孝路園環~中山路997號(週三)","IsWork":true}]