[{"StopData":[{"StopId":6199,"StopName":"佳西路271號（夜市旁）","ScheduleTime":"18:06","EstimateTime":"","CarInfo":"","Lon":120.167678,"Lat":23.164481,"Turn":1,"DayValue":"一,三,五,六","RecycleDate":"一,六"},{"StopId":6200,"StopName":"光華街10號","ScheduleTime":"18:18","EstimateTime":"","CarInfo":"","Lon":120.174264,"Lat":23.165054,"Turn":2,"DayValue":"一,三,五,六","RecycleDate":"一,六"},{"StopId":6201,"StopName":"安西路11巷口","ScheduleTime":"18:22","EstimateTime":"","CarInfo":"","Lon":120.172487,"Lat":23.167338,"Turn":3,"DayValue":"一,三,五,六","RecycleDate":"一,六"},{"StopId":6202,"StopName":"光明街光華街130巷1號","ScheduleTime":"18:25","EstimateTime":"","CarInfo":"","Lon":120.170445,"Lat":23.166325,"Turn":4,"DayValue":"一,三,五,六","RecycleDate":"一,六"},{"StopId":6203,"StopName":"育善街219號（朱澤宮）","ScheduleTime":"18:28","EstimateTime":"","CarInfo":"","Lon":120.169127,"Lat":23.164314,"Turn":5,"DayValue":"一,三,五,六","RecycleDate":"一,六"},{"StopId":6204,"StopName":"同心街63號","ScheduleTime":"18:35","EstimateTime":"","CarInfo":"","Lon":120.169353,"Lat":23.160736,"Turn":6,"DayValue":"一,三,五,六","RecycleDate":"一,六"},{"StopId":6205,"StopName":"安西130之5號（台北小城）","ScheduleTime":"18:40","EstimateTime":"","CarInfo":"","Lon":120.163248,"Lat":23.157917,"Turn":7,"DayValue":"一,三,五,六","RecycleDate":"一,六"},{"StopId":6206,"StopName":"建南里157之36號（永順傢俱）","ScheduleTime":"18:50","EstimateTime":"","CarInfo":"","Lon":120.163263,"Lat":23.156549,"Turn":8,"DayValue":"一,三,五,六","RecycleDate":"一,六"},{"StopId":6207,"StopName":"育善街272巷10號","ScheduleTime":"18:55","EstimateTime":"","CarInfo":"","Lon":120.169648,"Lat":23.16421,"Turn":9,"DayValue":"一,三,五,六","RecycleDate":"一,六"},{"StopId":6208,"StopName":"光復路329號","ScheduleTime":"19:00","EstimateTime":"","CarInfo":"","Lon":120.174709,"Lat":23.163247,"Turn":10,"DayValue":"一,三,五,六","RecycleDate":"一,六"},{"StopId":6209,"StopName":"光復路259號","ScheduleTime":"19:03","EstimateTime":"","CarInfo":"","Lon":120.174704,"Lat":23.161627,"Turn":11,"DayValue":"一,三,五,六","RecycleDate":"一,六"},{"StopId":6210,"StopName":"光復路125號","ScheduleTime":"19:07","EstimateTime":"","CarInfo":"","Lon":120.174907,"Lat":23.158202,"Turn":12,"DayValue":"一,三,五,六","RecycleDate":"一,六"},{"StopId":6211,"StopName":"光復路25號（仁愛路）","ScheduleTime":"19:09","EstimateTime":"","CarInfo":"","Lon":120.175186,"Lat":23.156022,"Turn":13,"DayValue":"一,三,五,六","RecycleDate":"一,六"},{"StopId":6212,"StopName":"光復路70號（阿忠牛排）","ScheduleTime":"19:10","EstimateTime":"","CarInfo":"","Lon":120.175115,"Lat":23.157353,"Turn":14,"DayValue":"一,三,五,六","RecycleDate":"一,六"},{"StopId":6213,"StopName":"光復路200號","ScheduleTime":"19:14","EstimateTime":"","CarInfo":"","Lon":120.174818,"Lat":23.160912,"Turn":15,"DayValue":"一,三,五,六","RecycleDate":"一,六"},{"StopId":6214,"StopName":"光復路322號","ScheduleTime":"19:18","EstimateTime":"","CarInfo":"","Lon":120.174943,"Lat":23.164459,"Turn":16,"DayValue":"一,三,五,六","RecycleDate":"一,六"},{"StopId":6215,"StopName":"文化路425號（龍來超市）","ScheduleTime":"19:20","EstimateTime":"","CarInfo":"","Lon":120.171256,"Lat":23.163081,"Turn":17,"DayValue":"一,三,五,六","RecycleDate":"一,六"},{"StopId":6216,"StopName":"佳西路608號","ScheduleTime":"19:23","EstimateTime":"","CarInfo":"","Lon":120.170281,"Lat":23.169126,"Turn":18,"DayValue":"一,三,五,六","RecycleDate":"一,六"},{"StopId":6217,"StopName":"佳西路299巷21號（夜市旁）","ScheduleTime":"19:29","EstimateTime":"","CarInfo":"","Lon":120.167371,"Lat":23.16438,"Turn":19,"DayValue":"一,三,五,六","RecycleDate":"一,六"},{"StopId":6218,"StopName":"文化西路445號（福南山莊）","ScheduleTime":"19:35","EstimateTime":"","CarInfo":"","Lon":120.154932,"Lat":23.161835,"Turn":20,"DayValue":"一,三,五,六","RecycleDate":"一,六"},{"StopId":6219,"StopName":"佳安東路8號（多摩市)","ScheduleTime":"19:42","EstimateTime":"","CarInfo":"","Lon":120.158056,"Lat":23.161137,"Turn":21,"DayValue":"一,三,五,六","RecycleDate":"一,六"},{"StopId":6220,"StopName":"安西路95號","ScheduleTime":"20:02","EstimateTime":"","CarInfo":"","Lon":120.171044,"Lat":23.161262,"Turn":22,"DayValue":"一,三,五,六","RecycleDate":"一,六"},{"StopId":6221,"StopName":"裕善街66號","ScheduleTime":"20:06","EstimateTime":"","CarInfo":"","Lon":120.169706,"Lat":23.159798,"Turn":23,"DayValue":"一,三,五,六","RecycleDate":"一,六"}],"CarData":[],"RouteId":144,"RouteName":"佳里-1(夜)","RouteInfo":"佳西路271號（夜市旁）~裕善街66號","IsWork":false}]