[{"StopData":[{"StopId":17077,"StopName":"中興路482號","ScheduleTime":"17:00","EstimateTime":"","CarInfo":"","Lon":120.31817,"Lat":23.030562,"Turn":1,"DayValue":"六","RecycleDate":"六"},{"StopId":17078,"StopName":"中興路582號","ScheduleTime":"17:05","EstimateTime":"","CarInfo":"","Lon":120.315518,"Lat":23.031832,"Turn":2,"DayValue":"六","RecycleDate":"六"},{"StopId":17079,"StopName":"中興路680號","ScheduleTime":"17:10","EstimateTime":"","CarInfo":"","Lon":120.313358,"Lat":23.033097,"Turn":3,"DayValue":"六","RecycleDate":"六"},{"StopId":17080,"StopName":"中興路720巷77號","ScheduleTime":"17:12","EstimateTime":"","CarInfo":"","Lon":120.312232,"Lat":23.033349,"Turn":4,"DayValue":"六","RecycleDate":"六"},{"StopId":17081,"StopName":"信義路131巷96號","ScheduleTime":"17:14","EstimateTime":"","CarInfo":"","Lon":120.313805,"Lat":23.034544,"Turn":5,"DayValue":"六","RecycleDate":"六"},{"StopId":17082,"StopName":"中興路652巷24號","ScheduleTime":"17:16","EstimateTime":"","CarInfo":"","Lon":120.31424,"Lat":23.033397,"Turn":6,"DayValue":"六","RecycleDate":"六"},{"StopId":17083,"StopName":"民生路186巷19號","ScheduleTime":"17:18","EstimateTime":"","CarInfo":"","Lon":120.30852,"Lat":23.040823,"Turn":7,"DayValue":"六","RecycleDate":"六"},{"StopId":17084,"StopName":"中山路102-22號","ScheduleTime":"17:20","EstimateTime":"","CarInfo":"","Lon":120.312043,"Lat":23.042079,"Turn":8,"DayValue":"六","RecycleDate":"六"},{"StopId":17085,"StopName":"民生路234巷40號","ScheduleTime":"17:22","EstimateTime":"","CarInfo":"","Lon":120.308199,"Lat":23.041631,"Turn":9,"DayValue":"六","RecycleDate":"六"},{"StopId":17086,"StopName":"民生路234巷57弄11號","ScheduleTime":"17:24","EstimateTime":"","CarInfo":"","Lon":120.307974,"Lat":23.042616,"Turn":10,"DayValue":"六","RecycleDate":"六"},{"StopId":17087,"StopName":"民生路252巷8號","ScheduleTime":"17:26","EstimateTime":"","CarInfo":"","Lon":120.307795,"Lat":23.04173,"Turn":11,"DayValue":"六","RecycleDate":"六"},{"StopId":17088,"StopName":"民生路252巷18號","ScheduleTime":"17:28","EstimateTime":"","CarInfo":"","Lon":120.307935,"Lat":23.042045,"Turn":12,"DayValue":"六","RecycleDate":"六"},{"StopId":17089,"StopName":"中正路542巷21號","ScheduleTime":"17:30","EstimateTime":"","CarInfo":"","Lon":120.307309,"Lat":23.040753,"Turn":13,"DayValue":"六","RecycleDate":"六"},{"StopId":17090,"StopName":"民生路217巷3號","ScheduleTime":"17:32","EstimateTime":"","CarInfo":"","Lon":120.307559,"Lat":23.04054,"Turn":14,"DayValue":"六","RecycleDate":"六"},{"StopId":17091,"StopName":"民生路313號","ScheduleTime":"17:34","EstimateTime":"","CarInfo":"","Lon":120.306278,"Lat":23.042864,"Turn":15,"DayValue":"六","RecycleDate":"六"},{"StopId":17092,"StopName":"太平街1巷15號","ScheduleTime":"17:36","EstimateTime":"","CarInfo":"","Lon":120.307875,"Lat":23.039009,"Turn":16,"DayValue":"六","RecycleDate":"六"},{"StopId":17093,"StopName":"民權街196號","ScheduleTime":"17:41","EstimateTime":"","CarInfo":"","Lon":120.305161,"Lat":23.040721,"Turn":17,"DayValue":"六","RecycleDate":"六"},{"StopId":17094,"StopName":"中正路691巷13號","ScheduleTime":"17:44","EstimateTime":"","CarInfo":"","Lon":120.305021,"Lat":23.041459,"Turn":18,"DayValue":"六","RecycleDate":"六"},{"StopId":17095,"StopName":"正新北路30號大樓前","ScheduleTime":"17:47","EstimateTime":"","CarInfo":"","Lon":120.304298,"Lat":23.042014,"Turn":19,"DayValue":"六","RecycleDate":"六"},{"StopId":17096,"StopName":"正新北路82號大樓前","ScheduleTime":"17:49","EstimateTime":"","CarInfo":"","Lon":120.303188,"Lat":23.041464,"Turn":20,"DayValue":"六","RecycleDate":"六"},{"StopId":17097,"StopName":"正新路343號","ScheduleTime":"17:52","EstimateTime":"","CarInfo":"","Lon":120.302653,"Lat":23.039558,"Turn":21,"DayValue":"六","RecycleDate":"六"},{"StopId":17098,"StopName":"忠孝路166巷21號","ScheduleTime":"17:55","EstimateTime":"","CarInfo":"","Lon":120.302362,"Lat":23.038176,"Turn":22,"DayValue":"六","RecycleDate":"六"},{"StopId":17099,"StopName":"太平街134巷31號","ScheduleTime":"17:57","EstimateTime":"","CarInfo":"","Lon":120.302016,"Lat":23.038949,"Turn":23,"DayValue":"六","RecycleDate":"六"},{"StopId":17100,"StopName":"正新路341巷38號","ScheduleTime":"17:59","EstimateTime":"","CarInfo":"","Lon":120.301848,"Lat":23.039416,"Turn":24,"DayValue":"六","RecycleDate":"六"},{"StopId":17101,"StopName":"中山路502之5號","ScheduleTime":"18:04","EstimateTime":"","CarInfo":"","Lon":120.303161,"Lat":23.035895,"Turn":25,"DayValue":"六","RecycleDate":"六"},{"StopId":17102,"StopName":"中山路660巷32號","ScheduleTime":"18:06","EstimateTime":"","CarInfo":"","Lon":120.298482,"Lat":23.037573,"Turn":26,"DayValue":"六","RecycleDate":"六"},{"StopId":17103,"StopName":"大新路111巷46號","ScheduleTime":"18:08","EstimateTime":"","CarInfo":"","Lon":120.297403,"Lat":23.037847,"Turn":27,"DayValue":"六","RecycleDate":"六"},{"StopId":17104,"StopName":"大新路97號","ScheduleTime":"18:10","EstimateTime":"","CarInfo":"","Lon":120.297749,"Lat":23.038543,"Turn":28,"DayValue":"六","RecycleDate":"六"},{"StopId":17105,"StopName":"信義路443巷11號","ScheduleTime":"18:15","EstimateTime":"","CarInfo":"","Lon":120.30203,"Lat":23.033954,"Turn":29,"DayValue":"六","RecycleDate":"六"},{"StopId":17106,"StopName":"正新路239號","ScheduleTime":"18:20","EstimateTime":"","CarInfo":"","Lon":120.30281,"Lat":23.036325,"Turn":30,"DayValue":"六","RecycleDate":"六"},{"StopId":17107,"StopName":"忠孝路161巷5之5號","ScheduleTime":"18:22","EstimateTime":"","CarInfo":"","Lon":120.30358,"Lat":23.037463,"Turn":31,"DayValue":"六","RecycleDate":"六"},{"StopId":17108,"StopName":"信義路29巷30號","ScheduleTime":"19:05","EstimateTime":"","CarInfo":"","Lon":120.326564,"Lat":23.037437,"Turn":32,"DayValue":"六","RecycleDate":"六"},{"StopId":17109,"StopName":"信義路33之3號","ScheduleTime":"19:09","EstimateTime":"","CarInfo":"","Lon":120.315225,"Lat":23.039147,"Turn":33,"DayValue":"六","RecycleDate":"六"},{"StopId":17110,"StopName":"信義路86巷8號","ScheduleTime":"19:11","EstimateTime":"","CarInfo":"","Lon":120.31541,"Lat":23.038593,"Turn":34,"DayValue":"六","RecycleDate":"六"},{"StopId":17111,"StopName":"信義路113巷5之4號","ScheduleTime":"19:16","EstimateTime":"","CarInfo":"","Lon":120.314543,"Lat":23.036313,"Turn":35,"DayValue":"六","RecycleDate":"六"},{"StopId":17112,"StopName":"信義路117巷28之53號","ScheduleTime":"19:22","EstimateTime":"","CarInfo":"","Lon":120.315433,"Lat":23.034644,"Turn":36,"DayValue":"六","RecycleDate":"六"},{"StopId":17113,"StopName":"信義路117巷28之44號","ScheduleTime":"19:26","EstimateTime":"","CarInfo":"","Lon":120.315434,"Lat":23.034645,"Turn":37,"DayValue":"六","RecycleDate":"六"},{"StopId":17114,"StopName":"信義路117巷49之10號","ScheduleTime":"19:30","EstimateTime":"","CarInfo":"","Lon":120.31457,"Lat":23.03541,"Turn":38,"DayValue":"六","RecycleDate":"六"},{"StopId":17115,"StopName":"信義路117巷11號","ScheduleTime":"19:36","EstimateTime":"","CarInfo":"","Lon":120.314141,"Lat":23.035749,"Turn":39,"DayValue":"六","RecycleDate":"六"},{"StopId":17116,"StopName":"復興路282號","ScheduleTime":"19:38","EstimateTime":"","CarInfo":"","Lon":120.310531,"Lat":23.036011,"Turn":40,"DayValue":"六","RecycleDate":"六"},{"StopId":17117,"StopName":"民權街57號","ScheduleTime":"19:44","EstimateTime":"","CarInfo":"","Lon":120.304634,"Lat":23.03732,"Turn":41,"DayValue":"六","RecycleDate":"六"},{"StopId":17118,"StopName":"中山路403-1號","ScheduleTime":"19:47","EstimateTime":"","CarInfo":"","Lon":120.304947,"Lat":23.035779,"Turn":42,"DayValue":"六","RecycleDate":"六"},{"StopId":17119,"StopName":"信義路412巷22號","ScheduleTime":"19:49","EstimateTime":"","CarInfo":"","Lon":120.304479,"Lat":23.03517,"Turn":43,"DayValue":"六","RecycleDate":"六"},{"StopId":17120,"StopName":"信義路400號","ScheduleTime":"19:51","EstimateTime":"","CarInfo":"","Lon":120.304783,"Lat":23.034684,"Turn":44,"DayValue":"六","RecycleDate":"六"},{"StopId":17121,"StopName":"信義路339巷22號","ScheduleTime":"19:53","EstimateTime":"","CarInfo":"","Lon":120.305587,"Lat":23.034225,"Turn":45,"DayValue":"六","RecycleDate":"六"},{"StopId":17122,"StopName":"和平街199號","ScheduleTime":"19:55","EstimateTime":"","CarInfo":"","Lon":120.306041,"Lat":23.035431,"Turn":46,"DayValue":"六","RecycleDate":"六"},{"StopId":17123,"StopName":"民族街20號","ScheduleTime":"19:57","EstimateTime":"","CarInfo":"","Lon":120.306116,"Lat":23.036795,"Turn":47,"DayValue":"六","RecycleDate":"六"},{"StopId":17124,"StopName":"仁愛街65巷35號","ScheduleTime":"20:00","EstimateTime":"","CarInfo":"","Lon":120.307014,"Lat":23.03666,"Turn":48,"DayValue":"六","RecycleDate":"六"},{"StopId":17125,"StopName":"仁愛街9巷37號","ScheduleTime":"20:07","EstimateTime":"","CarInfo":"","Lon":120.309824,"Lat":23.037586,"Turn":49,"DayValue":"六","RecycleDate":"六"},{"StopId":17126,"StopName":"護安街89號","ScheduleTime":"20:10","EstimateTime":"","CarInfo":"","Lon":120.309095,"Lat":23.035821,"Turn":50,"DayValue":"六","RecycleDate":"六"},{"StopId":17127,"StopName":"復興路235號","ScheduleTime":"20:13","EstimateTime":"","CarInfo":"","Lon":120.310965,"Lat":23.033464,"Turn":51,"DayValue":"六","RecycleDate":"六"},{"StopId":17128,"StopName":"和平街71號","ScheduleTime":"20:15","EstimateTime":"","CarInfo":"","Lon":120.307877,"Lat":23.033428,"Turn":52,"DayValue":"六","RecycleDate":"六"},{"StopId":17129,"StopName":"大同街14號","ScheduleTime":"20:17","EstimateTime":"","CarInfo":"","Lon":120.307675,"Lat":23.032765,"Turn":53,"DayValue":"六","RecycleDate":"六"},{"StopId":17130,"StopName":"正新南路61巷11號","ScheduleTime":"20:19","EstimateTime":"","CarInfo":"","Lon":120.30748,"Lat":23.032231,"Turn":54,"DayValue":"六","RecycleDate":"六"},{"StopId":17131,"StopName":"中正路310之10號","ScheduleTime":"20:25","EstimateTime":"","CarInfo":"","Lon":120.309589,"Lat":23.032243,"Turn":55,"DayValue":"六","RecycleDate":"六"},{"StopId":17132,"StopName":"光明路27號","ScheduleTime":"20:27","EstimateTime":"","CarInfo":"","Lon":120.308753,"Lat":23.032565,"Turn":56,"DayValue":"六","RecycleDate":"六"},{"StopId":17133,"StopName":"復興路198號","ScheduleTime":"20:32","EstimateTime":"","CarInfo":"","Lon":120.311324,"Lat":23.033029,"Turn":57,"DayValue":"六","RecycleDate":"六"},{"StopId":17134,"StopName":"信義路276號","ScheduleTime":"20:35","EstimateTime":"","CarInfo":"","Lon":120.307395,"Lat":23.034904,"Turn":58,"DayValue":"六","RecycleDate":"六"}],"CarData":[],"RouteId":423,"RouteName":"新化-3.6(夜間)","RouteInfo":"中興路482號~信義路276號","IsWork":false}]