[{"StopData":[{"StopId":7569,"StopName":"林森路二段與長榮路三段66巷尾交叉口","ScheduleTime":"16:25","EstimateTime":"","CarInfo":"","Lon":120.2238353,"Lat":22.9934509,"Turn":1,"DayValue":"一,二,四,六","RecycleDate":"二,六"},{"StopId":7570,"StopName":"東寧路93巷口","ScheduleTime":"16:31","EstimateTime":"","CarInfo":"","Lon":120.2227403,"Lat":22.9916704,"Turn":2,"DayValue":"一,二,四,六","RecycleDate":"二,六"},{"StopId":7571,"StopName":"長榮路三段30巷口","ScheduleTime":"16:36","EstimateTime":"","CarInfo":"","Lon":120.2217284,"Lat":22.9928487,"Turn":3,"DayValue":"一,二,四,六","RecycleDate":"二,六"},{"StopId":7572,"StopName":"長榮路三段58號","ScheduleTime":"16:40","EstimateTime":"","CarInfo":"","Lon":120.221799,"Lat":22.993639,"Turn":4,"DayValue":"一,二,四,六","RecycleDate":"二,六"},{"StopId":7573,"StopName":"長榮路三段86巷口","ScheduleTime":"16:42","EstimateTime":"","CarInfo":"","Lon":120.2218225,"Lat":22.994239,"Turn":5,"DayValue":"一,二,四,六","RecycleDate":"二,六"},{"StopId":7574,"StopName":"長榮路三段86巷20號公寓","ScheduleTime":"16:45","EstimateTime":"","CarInfo":"","Lon":120.2222218,"Lat":22.9943021,"Turn":6,"DayValue":"一,二,四,六","RecycleDate":"二,六"},{"StopId":7575,"StopName":"大學路西段49號(統一超商)","ScheduleTime":"16:51","EstimateTime":"","CarInfo":"","Lon":120.2170166,"Lat":22.9963709,"Turn":7,"DayValue":"一,二,四,六","RecycleDate":"二,六"},{"StopId":7576,"StopName":"勝利路103號","ScheduleTime":"17:00","EstimateTime":"","CarInfo":"","Lon":120.2179966,"Lat":22.9943164,"Turn":8,"DayValue":"一,二,四,六","RecycleDate":"二,六"},{"StopId":7577,"StopName":"育樂街與勝利路口","ScheduleTime":"17:06","EstimateTime":"","CarInfo":"","Lon":120.2181405,"Lat":22.9953671,"Turn":9,"DayValue":"一,二,四,六","RecycleDate":"二,六"},{"StopId":7578,"StopName":"大學路12巷口","ScheduleTime":"17:13","EstimateTime":"","CarInfo":"","Lon":120.2204056,"Lat":22.9960402,"Turn":10,"DayValue":"一,二,四,六","RecycleDate":"二,六"},{"StopId":7579,"StopName":"長榮路三段133號（聚餐廳）","ScheduleTime":"17:17","EstimateTime":"","CarInfo":"","Lon":120.2217932,"Lat":22.9955367,"Turn":11,"DayValue":"一,二,四,六","RecycleDate":"二,六"},{"StopId":7580,"StopName":"長榮路三段45~51號前（阿伯冰店）","ScheduleTime":"17:22","EstimateTime":"","CarInfo":"","Lon":120.2216477,"Lat":22.9938746,"Turn":12,"DayValue":"一,二,四,六","RecycleDate":"二,六"},{"StopId":7581,"StopName":"東興路123號","ScheduleTime":"17:32","EstimateTime":"","CarInfo":"","Lon":120.2291257,"Lat":22.992646,"Turn":13,"DayValue":"一,二,四,六","RecycleDate":"二,六"},{"StopId":7582,"StopName":"東興路31巷口","ScheduleTime":"17:38","EstimateTime":"","CarInfo":"","Lon":120.228721,"Lat":22.990741,"Turn":14,"DayValue":"一,二,四,六","RecycleDate":"二,六"},{"StopId":7583,"StopName":"東興路11巷口","ScheduleTime":"17:40","EstimateTime":"","CarInfo":"","Lon":120.228582,"Lat":22.990336,"Turn":15,"DayValue":"一,二,四,六","RecycleDate":"二,六"},{"StopId":7584,"StopName":"怡東路22號（郵局旁）","ScheduleTime":"17:42","EstimateTime":"","CarInfo":"","Lon":120.2276074,"Lat":22.9906783,"Turn":16,"DayValue":"一,二,四,六","RecycleDate":"二,六"},{"StopId":7585,"StopName":"怡東路58巷口","ScheduleTime":"17:47","EstimateTime":"","CarInfo":"","Lon":120.2279204,"Lat":22.9918536,"Turn":17,"DayValue":"一,二,四,六","RecycleDate":"二,六"},{"StopId":7586,"StopName":"怡東路86巷口","ScheduleTime":"17:52","EstimateTime":"","CarInfo":"","Lon":120.2281416,"Lat":22.9928655,"Turn":18,"DayValue":"一,二,四,六","RecycleDate":"二,六"},{"StopId":7587,"StopName":"東安路12巷口","ScheduleTime":"19:30","EstimateTime":"","CarInfo":"","Lon":120.226105,"Lat":22.991022,"Turn":19,"DayValue":"一,二,四,六","RecycleDate":"二,六"},{"StopId":7588,"StopName":"東安路30巷口","ScheduleTime":"19:32","EstimateTime":"","CarInfo":"","Lon":120.2262939,"Lat":22.9915596,"Turn":20,"DayValue":"一,二,四,六","RecycleDate":"二,六"},{"StopId":7589,"StopName":"東安路48巷口","ScheduleTime":"19:35","EstimateTime":"","CarInfo":"","Lon":120.2263384,"Lat":22.9919804,"Turn":21,"DayValue":"一,二,四,六","RecycleDate":"二,六"},{"StopId":7590,"StopName":"東安路92巷口","ScheduleTime":"19:38","EstimateTime":"","CarInfo":"","Lon":120.2266021,"Lat":22.9929328,"Turn":22,"DayValue":"一,二,四,六","RecycleDate":"二,六"},{"StopId":7591,"StopName":"東寧路201巷119號前","ScheduleTime":"19:42","EstimateTime":"","CarInfo":"","Lon":120.2261642,"Lat":22.9935607,"Turn":23,"DayValue":"一,二,四,六","RecycleDate":"二,六"},{"StopId":7592,"StopName":"東寧路201巷95號前","ScheduleTime":"19:43","EstimateTime":"","CarInfo":"","Lon":120.2260204,"Lat":22.993052,"Turn":24,"DayValue":"一,二,四,六","RecycleDate":"二,六"},{"StopId":7593,"StopName":"東寧路201巷51號前","ScheduleTime":"19:45","EstimateTime":"","CarInfo":"","Lon":120.2258192,"Lat":22.992191,"Turn":25,"DayValue":"一,二,四,六","RecycleDate":"二,六"},{"StopId":7594,"StopName":"東平路12巷7號（國產大樓）","ScheduleTime":"19:52","EstimateTime":"","CarInfo":"","Lon":120.2337806,"Lat":22.9951908,"Turn":26,"DayValue":"一,二,四,六","RecycleDate":"二,六"},{"StopId":7595,"StopName":"莊敬路136巷23號","ScheduleTime":"19:54","EstimateTime":"","CarInfo":"","Lon":120.2338578,"Lat":22.995827,"Turn":27,"DayValue":"一,二,四,六","RecycleDate":"二,六"},{"StopId":7596,"StopName":"莊敬路158巷23號","ScheduleTime":"19:55","EstimateTime":"","CarInfo":"","Lon":120.2338909,"Lat":22.9963544,"Turn":28,"DayValue":"一,二,四,六","RecycleDate":"二,六"},{"StopId":7597,"StopName":"中華東路一段80巷13號（一心加油站）","ScheduleTime":"19:56","EstimateTime":"","CarInfo":"","Lon":120.2332997,"Lat":22.9969352,"Turn":29,"DayValue":"一,二,四,六","RecycleDate":"二,六"},{"StopId":7598,"StopName":"莊敬路205巷口","ScheduleTime":"19:57","EstimateTime":"","CarInfo":"","Lon":120.2330644,"Lat":22.9968669,"Turn":30,"DayValue":"一,二,四,六","RecycleDate":"二,六"},{"StopId":7599,"StopName":"莊敬路181巷口","ScheduleTime":"19:58","EstimateTime":"","CarInfo":"","Lon":120.2330236,"Lat":22.9964148,"Turn":31,"DayValue":"一,二,四,六","RecycleDate":"二,六"},{"StopId":7600,"StopName":"莊敬路123巷口","ScheduleTime":"20:00","EstimateTime":"","CarInfo":"","Lon":120.2329106,"Lat":22.9952252,"Turn":32,"DayValue":"一,二,四,六","RecycleDate":"二,六"},{"StopId":7601,"StopName":"東平路60號（兩棟大樓）","ScheduleTime":"20:02","EstimateTime":"","CarInfo":"","Lon":120.2317689,"Lat":22.9950398,"Turn":33,"DayValue":"一,二,四,六","RecycleDate":"二,六"},{"StopId":7602,"StopName":"莊敬路與小東路口","ScheduleTime":"20:08","EstimateTime":"","CarInfo":"","Lon":120.2333706,"Lat":22.9984122,"Turn":34,"DayValue":"一,二,四,六","RecycleDate":"二,六"},{"StopId":7603,"StopName":"小東路與中華東路口","ScheduleTime":"20:10","EstimateTime":"","CarInfo":"","Lon":120.2345311,"Lat":22.9982666,"Turn":35,"DayValue":"一,二,四,六","RecycleDate":"二,六"},{"StopId":7604,"StopName":"小東路與東和路口（7-11超商）","ScheduleTime":"20:13","EstimateTime":"","CarInfo":"","Lon":120.230587,"Lat":22.9988674,"Turn":36,"DayValue":"一,二,四,六","RecycleDate":"二,六"},{"StopId":7605,"StopName":"東光路二段121巷38號（公園旁）","ScheduleTime":"20:18","EstimateTime":"","CarInfo":"","Lon":120.230738,"Lat":22.997496,"Turn":37,"DayValue":"一,二,四,六","RecycleDate":"二,六"},{"StopId":7606,"StopName":"東光路二段121巷1號","ScheduleTime":"20:22","EstimateTime":"","CarInfo":"","Lon":120.2316034,"Lat":22.9978251,"Turn":38,"DayValue":"一,二,四,六","RecycleDate":"二,六"},{"StopId":7607,"StopName":"東光路二段109巷口","ScheduleTime":"20:23","EstimateTime":"","CarInfo":"","Lon":120.2316055,"Lat":22.9975233,"Turn":39,"DayValue":"一,二,四,六","RecycleDate":"二,六"},{"StopId":7608,"StopName":"東光路二段77巷口","ScheduleTime":"20:24","EstimateTime":"","CarInfo":"","Lon":120.2315054,"Lat":22.9968554,"Turn":40,"DayValue":"一,二,四,六","RecycleDate":"二,六"},{"StopId":7609,"StopName":"東光路二段55巷口","ScheduleTime":"20:26","EstimateTime":"","CarInfo":"","Lon":120.2315044,"Lat":22.9964881,"Turn":41,"DayValue":"一,二,四,六","RecycleDate":"二,六"},{"StopId":7610,"StopName":"東光路二段25巷口","ScheduleTime":"20:28","EstimateTime":"","CarInfo":"","Lon":120.2314188,"Lat":22.9958467,"Turn":42,"DayValue":"一,二,四,六","RecycleDate":"二,六"},{"StopId":7611,"StopName":"東光路二段11巷口","ScheduleTime":"20:29","EstimateTime":"","CarInfo":"","Lon":120.2314028,"Lat":22.995541,"Turn":43,"DayValue":"一,二,四,六","RecycleDate":"二,六"},{"StopId":7612,"StopName":"東光路二段雙號沿路收","ScheduleTime":"20:30","EstimateTime":"","CarInfo":"","Lon":120.231443,"Lat":22.9951204,"Turn":44,"DayValue":"一,二,四,六","RecycleDate":"二,六"},{"StopId":7613,"StopName":"東光路二段128巷口","ScheduleTime":"20:32","EstimateTime":"","CarInfo":"","Lon":120.2317653,"Lat":22.9980466,"Turn":45,"DayValue":"一,二,四,六","RecycleDate":"二,六"}],"CarData":[],"RouteId":185,"RouteName":"東區-19","RouteInfo":"林森路二段與長榮路三段66巷尾交叉口~東光路二段128巷口","IsWork":true}]