[{"StopData":[{"StopId":14633,"StopName":"友愛街58號","ScheduleTime":"14:50","EstimateTime":"","CarInfo":"","Lon":120.200389,"Lat":22.991395,"Turn":1,"DayValue":"一,二,四,六","RecycleDate":"二,六"},{"StopId":14634,"StopName":"友愛街82號","ScheduleTime":"14:54","EstimateTime":"","CarInfo":"","Lon":120.199755,"Lat":22.991583,"Turn":2,"DayValue":"一,二,四,六","RecycleDate":"二,六"},{"StopId":14635,"StopName":"友愛街98號","ScheduleTime":"14:55","EstimateTime":"","CarInfo":"","Lon":120.199168,"Lat":22.991699,"Turn":3,"DayValue":"一,二,四,六","RecycleDate":"二,六"},{"StopId":14636,"StopName":"友愛街118號","ScheduleTime":"14:56","EstimateTime":"","CarInfo":"","Lon":120.198835,"Lat":22.991758,"Turn":4,"DayValue":"一,二,四,六","RecycleDate":"二,六"},{"StopId":14637,"StopName":"友愛街134號","ScheduleTime":"14:57","EstimateTime":"","CarInfo":"","Lon":120.198001,"Lat":22.991922,"Turn":5,"DayValue":"一,二,四,六","RecycleDate":"二,六"},{"StopId":14638,"StopName":"西門路2段76號","ScheduleTime":"15:00","EstimateTime":"","CarInfo":"","Lon":120.198486,"Lat":22.992186,"Turn":6,"DayValue":"一,二,四,六","RecycleDate":"二,六"},{"StopId":14639,"StopName":"中正路161號","ScheduleTime":"15:03","EstimateTime":"","CarInfo":"","Lon":120.1990202,"Lat":22.9925936,"Turn":7,"DayValue":"一,二,四,六","RecycleDate":"二,六"},{"StopId":14640,"StopName":"中正路131巷口","ScheduleTime":"15:06","EstimateTime":"","CarInfo":"","Lon":120.199745,"Lat":22.992101,"Turn":8,"DayValue":"一,二,四,六","RecycleDate":"二,六"},{"StopId":14641,"StopName":"中正路111巷口","ScheduleTime":"15:08","EstimateTime":"","CarInfo":"","Lon":120.200739,"Lat":22.9920017,"Turn":9,"DayValue":"一,二,四,六","RecycleDate":"二,六"},{"StopId":14642,"StopName":"中正路97號","ScheduleTime":"15:11","EstimateTime":"","CarInfo":"","Lon":120.2004732,"Lat":22.9922356,"Turn":10,"DayValue":"一,二,四,六","RecycleDate":"二,六"},{"StopId":14643,"StopName":"永福路 2段63巷口","ScheduleTime":"15:14","EstimateTime":"","CarInfo":"","Lon":120.200244,"Lat":22.991867,"Turn":11,"DayValue":"一,二,四,六","RecycleDate":"二,六"},{"StopId":14644,"StopName":"永福路2段49號","ScheduleTime":"15:16","EstimateTime":"","CarInfo":"","Lon":120.200462,"Lat":22.991437,"Turn":12,"DayValue":"一,二,四,六","RecycleDate":"二,六"},{"StopId":14645,"StopName":"永福路 2段35巷口","ScheduleTime":"15:18","EstimateTime":"","CarInfo":"","Lon":120.200127,"Lat":22.990646,"Turn":13,"DayValue":"一,二,四,六","RecycleDate":"二,六"},{"StopId":14646,"StopName":"永福路 2段11號","ScheduleTime":"15:21","EstimateTime":"","CarInfo":"","Lon":120.200127,"Lat":22.990646,"Turn":14,"DayValue":"一,二,四,六","RecycleDate":"二,六"},{"StopId":14647,"StopName":"府前路1段272巷口","ScheduleTime":"15:24","EstimateTime":"","CarInfo":"","Lon":120.199966,"Lat":22.99038,"Turn":15,"DayValue":"一,二,四,六","RecycleDate":"二,六"},{"StopId":14648,"StopName":"府前路1段290號","ScheduleTime":"15:27","EstimateTime":"","CarInfo":"","Lon":120.1993,"Lat":22.99027,"Turn":16,"DayValue":"一,二,四,六","RecycleDate":"二,六"},{"StopId":14649,"StopName":"府前路1段304巷口","ScheduleTime":"15:30","EstimateTime":"","CarInfo":"","Lon":120.198993,"Lat":22.990814,"Turn":17,"DayValue":"一,二,四,六","RecycleDate":"二,六"},{"StopId":14650,"StopName":"府前路1段330號","ScheduleTime":"15:33","EstimateTime":"","CarInfo":"","Lon":120.198534,"Lat":22.990425,"Turn":18,"DayValue":"一,二,四,六","RecycleDate":"二,六"},{"StopId":14651,"StopName":"西門路2段2號(保生大帝旁)","ScheduleTime":"15:35","EstimateTime":"","CarInfo":"","Lon":120.198173,"Lat":22.990562,"Turn":19,"DayValue":"一,二,四,六","RecycleDate":"二,六"},{"StopId":14652,"StopName":"西門路2段24號","ScheduleTime":"15:37","EstimateTime":"","CarInfo":"","Lon":120.197697,"Lat":22.990867,"Turn":20,"DayValue":"一,二,四,六","RecycleDate":"二,六"},{"StopId":14653,"StopName":"西門路2段48、50號","ScheduleTime":"15:39","EstimateTime":"","CarInfo":"","Lon":120.198294,"Lat":22.991409,"Turn":21,"DayValue":"一,二,四,六","RecycleDate":"二,六"},{"StopId":14654,"StopName":"南門路42之5號","ScheduleTime":"17:11","EstimateTime":"","CarInfo":"","Lon":120.205008,"Lat":22.9831025,"Turn":22,"DayValue":"一,二,四,六","RecycleDate":"二,六"},{"StopId":14655,"StopName":"南門路46號之10","ScheduleTime":"17:14","EstimateTime":"","CarInfo":"","Lon":120.2041669,"Lat":22.9855873,"Turn":23,"DayValue":"一,二,四,六","RecycleDate":"二,六"},{"StopId":14656,"StopName":"南門路68巷旁","ScheduleTime":"17:17","EstimateTime":"","CarInfo":"","Lon":120.2017363,"Lat":22.9819037,"Turn":24,"DayValue":"一,二,四,六","RecycleDate":"二,六"},{"StopId":14657,"StopName":"健康路1段（296巷口）","ScheduleTime":"17:21","EstimateTime":"","CarInfo":"","Lon":120.2033,"Lat":22.982024,"Turn":25,"DayValue":"一,二,四,六","RecycleDate":"二,六"},{"StopId":14658,"StopName":"健康路1段334號","ScheduleTime":"17:23","EstimateTime":"","CarInfo":"","Lon":120.202171,"Lat":22.9814422,"Turn":26,"DayValue":"一,二,四,六","RecycleDate":"二,六"},{"StopId":14659,"StopName":"健康路1段340號旁巷道（靠南門路68巷）","ScheduleTime":"17:25","EstimateTime":"","CarInfo":"","Lon":120.201729,"Lat":22.981481,"Turn":27,"DayValue":"一,二,四,六","RecycleDate":"二,六"},{"StopId":14660,"StopName":"五妃街259號","ScheduleTime":"17:27","EstimateTime":"","CarInfo":"","Lon":120.202373,"Lat":22.982528,"Turn":28,"DayValue":"一,二,四,六","RecycleDate":"二,六"},{"StopId":14661,"StopName":"五妃街243號","ScheduleTime":"17:29","EstimateTime":"","CarInfo":"","Lon":120.2027419,"Lat":22.9825554,"Turn":29,"DayValue":"一,二,四,六","RecycleDate":"二,六"},{"StopId":14662,"StopName":"五妃街、健康路1段296巷口","ScheduleTime":"17:31","EstimateTime":"","CarInfo":"","Lon":120.203386,"Lat":22.98261,"Turn":30,"DayValue":"一,二,四,六","RecycleDate":"二,六"},{"StopId":14663,"StopName":"南門路44巷10號","ScheduleTime":"17:35","EstimateTime":"","CarInfo":"","Lon":120.2034381,"Lat":22.9856233,"Turn":31,"DayValue":"一,二,四,六","RecycleDate":"二,六"},{"StopId":14664,"StopName":"南門路44巷48巷之間與樹林街2段125巷交會點","ScheduleTime":"17:39","EstimateTime":"","CarInfo":"","Lon":120.204234,"Lat":22.985862,"Turn":32,"DayValue":"一,二,四,六","RecycleDate":"二,六"},{"StopId":14665,"StopName":"南門路48巷9號","ScheduleTime":"17:42","EstimateTime":"","CarInfo":"","Lon":120.203435,"Lat":22.985242,"Turn":33,"DayValue":"一,二,四,六","RecycleDate":"二,六"},{"StopId":14666,"StopName":"南寧街46號","ScheduleTime":"17:45","EstimateTime":"","CarInfo":"","Lon":120.2033437,"Lat":22.9848961,"Turn":34,"DayValue":"一,二,四,六","RecycleDate":"二,六"},{"StopId":14667,"StopName":"南寧街78號","ScheduleTime":"17:47","EstimateTime":"","CarInfo":"","Lon":120.2025956,"Lat":22.9850013,"Turn":35,"DayValue":"一,二,四,六","RecycleDate":"二,六"},{"StopId":14668,"StopName":"忠義路1段24巷口","ScheduleTime":"17:50","EstimateTime":"","CarInfo":"","Lon":120.2018148,"Lat":22.9854492,"Turn":36,"DayValue":"一,二,四,六","RecycleDate":"二,六"},{"StopId":14669,"StopName":"樹林街二段149號","ScheduleTime":"17:52","EstimateTime":"","CarInfo":"","Lon":120.202328,"Lat":22.985978,"Turn":37,"DayValue":"一,二,四,六","RecycleDate":"二,六"},{"StopId":14670,"StopName":"樹林街2段111號","ScheduleTime":"17:53","EstimateTime":"","CarInfo":"","Lon":120.2034938,"Lat":22.98592,"Turn":38,"DayValue":"一,二,四,六","RecycleDate":"二,六"},{"StopId":14671,"StopName":"健康路1段260號","ScheduleTime":"18:01","EstimateTime":"","CarInfo":"","Lon":120.204602,"Lat":22.9814136,"Turn":39,"DayValue":"一,二,四,六","RecycleDate":"二,六"},{"StopId":14672,"StopName":"南門路243號","ScheduleTime":"18:05","EstimateTime":"","CarInfo":"","Lon":120.2038247,"Lat":22.9823331,"Turn":40,"DayValue":"一,二,四,六","RecycleDate":"二,六"},{"StopId":14673,"StopName":"南門路235號之2","ScheduleTime":"18:08","EstimateTime":"","CarInfo":"","Lon":120.203933,"Lat":22.983387,"Turn":41,"DayValue":"一,二,四,六","RecycleDate":"二,六"},{"StopId":14674,"StopName":"南寧街37巷口","ScheduleTime":"18:11","EstimateTime":"","CarInfo":"","Lon":120.204454,"Lat":22.984284,"Turn":42,"DayValue":"一,二,四,六","RecycleDate":"二,六"},{"StopId":14675,"StopName":"南寧街17號","ScheduleTime":"18:14","EstimateTime":"","CarInfo":"","Lon":120.205073,"Lat":22.984403,"Turn":43,"DayValue":"一,二,四,六","RecycleDate":"二,六"},{"StopId":14676,"StopName":"慶中街206巷口","ScheduleTime":"18:18","EstimateTime":"","CarInfo":"","Lon":120.20569,"Lat":22.9847659,"Turn":44,"DayValue":"一,二,四,六","RecycleDate":"二,六"},{"StopId":14677,"StopName":"南門路209巷17號","ScheduleTime":"18:21","EstimateTime":"","CarInfo":"","Lon":120.204997,"Lat":22.98507,"Turn":45,"DayValue":"一,二,四,六","RecycleDate":"二,六"},{"StopId":14678,"StopName":"南門路211號","ScheduleTime":"18:24","EstimateTime":"","CarInfo":"","Lon":120.2041532,"Lat":22.9849787,"Turn":46,"DayValue":"一,二,四,六","RecycleDate":"二,六"},{"StopId":14679,"StopName":"南門路185號之4","ScheduleTime":"18:26","EstimateTime":"","CarInfo":"","Lon":120.2042816,"Lat":22.9856652,"Turn":47,"DayValue":"一,二,四,六","RecycleDate":"二,六"},{"StopId":14680,"StopName":"樹林街2段93號","ScheduleTime":"18:28","EstimateTime":"","CarInfo":"","Lon":120.2046813,"Lat":22.9857303,"Turn":48,"DayValue":"一,二,四,六","RecycleDate":"二,六"},{"StopId":14681,"StopName":"樹林街2段75號","ScheduleTime":"18:31","EstimateTime":"","CarInfo":"","Lon":120.2051588,"Lat":22.9856539,"Turn":49,"DayValue":"一,二,四,六","RecycleDate":"二,六"},{"StopId":14682,"StopName":"慶中街63號","ScheduleTime":"18:34","EstimateTime":"","CarInfo":"","Lon":120.2058072,"Lat":22.9854378,"Turn":50,"DayValue":"一,二,四,六","RecycleDate":"二,六"},{"StopId":14683,"StopName":"五妃街204號","ScheduleTime":"18:36","EstimateTime":"","CarInfo":"","Lon":120.2053053,"Lat":22.9825716,"Turn":51,"DayValue":"一,二,四,六","RecycleDate":"二,六"},{"StopId":14684,"StopName":"五妃街224號","ScheduleTime":"18:39","EstimateTime":"","CarInfo":"","Lon":120.2043937,"Lat":22.982594,"Turn":52,"DayValue":"一,二,四,六","RecycleDate":"二,六"},{"StopId":14685,"StopName":"慶中街62號","ScheduleTime":"18:42","EstimateTime":"","CarInfo":"","Lon":120.205608,"Lat":22.982821,"Turn":53,"DayValue":"一,二,四,六","RecycleDate":"二,六"},{"StopId":14686,"StopName":"慶中街86號","ScheduleTime":"18:44","EstimateTime":"","CarInfo":"","Lon":120.2055955,"Lat":22.9830635,"Turn":54,"DayValue":"一,二,四,六","RecycleDate":"二,六"},{"StopId":14687,"StopName":"慶中街108號","ScheduleTime":"18:47","EstimateTime":"","CarInfo":"","Lon":120.2056188,"Lat":22.9834164,"Turn":55,"DayValue":"一,二,四,六","RecycleDate":"二,六"},{"StopId":14688,"StopName":"慶中街132號","ScheduleTime":"18:49","EstimateTime":"","CarInfo":"","Lon":120.2056099,"Lat":22.9837169,"Turn":56,"DayValue":"一,二,四,六","RecycleDate":"二,六"},{"StopId":14689,"StopName":"慶中街138~150號","ScheduleTime":"18:52","EstimateTime":"","CarInfo":"","Lon":120.205623,"Lat":22.9839864,"Turn":57,"DayValue":"一,二,四,六","RecycleDate":"二,六"},{"StopId":14690,"StopName":"慶中街192~196號","ScheduleTime":"18:54","EstimateTime":"","CarInfo":"","Lon":120.205626,"Lat":22.9844292,"Turn":58,"DayValue":"一,二,四,六","RecycleDate":"二,六"},{"StopId":14691,"StopName":"南寧街71巷口","ScheduleTime":"20:12","EstimateTime":"","CarInfo":"","Lon":120.198679,"Lat":22.984702,"Turn":59,"DayValue":"一,二,四,六","RecycleDate":"二,六"},{"StopId":14692,"StopName":"永福路1段97號","ScheduleTime":"20:16","EstimateTime":"","CarInfo":"","Lon":120.200109,"Lat":22.984004,"Turn":60,"DayValue":"一,二,四,六","RecycleDate":"二,六"},{"StopId":14693,"StopName":"永福路1段85號(捐血中心旁)","ScheduleTime":"20:18","EstimateTime":"","CarInfo":"","Lon":120.1998496,"Lat":22.9837933,"Turn":61,"DayValue":"一,二,四,六","RecycleDate":"二,六"},{"StopId":14694,"StopName":"永福路1段49號","ScheduleTime":"20:20","EstimateTime":"","CarInfo":"","Lon":120.200106,"Lat":22.982885,"Turn":62,"DayValue":"一,二,四,六","RecycleDate":"二,六"},{"StopId":14695,"StopName":"永福路1段25號","ScheduleTime":"20:23","EstimateTime":"","CarInfo":"","Lon":120.2000654,"Lat":22.9822414,"Turn":63,"DayValue":"一,二,四,六","RecycleDate":"二,六"},{"StopId":14696,"StopName":"健康路1段與永福路路口（永福1號旁）","ScheduleTime":"20:25","EstimateTime":"","CarInfo":"","Lon":120.200058,"Lat":22.981358,"Turn":64,"DayValue":"一,二,四,六","RecycleDate":"二,六"},{"StopId":14697,"StopName":"健康路1段390巷口","ScheduleTime":"20:27","EstimateTime":"","CarInfo":"","Lon":120.1987406,"Lat":22.9815286,"Turn":65,"DayValue":"一,二,四,六","RecycleDate":"二,六"},{"StopId":14698,"StopName":"健康路1段420巷口","ScheduleTime":"20:29","EstimateTime":"","CarInfo":"","Lon":120.1979976,"Lat":22.9815274,"Turn":66,"DayValue":"一,二,四,六","RecycleDate":"二,六"},{"StopId":14699,"StopName":"府緯街57號","ScheduleTime":"20:33","EstimateTime":"","CarInfo":"","Lon":120.198235,"Lat":22.983792,"Turn":67,"DayValue":"一,二,四,六","RecycleDate":"二,六"},{"StopId":14700,"StopName":"府緯街19號","ScheduleTime":"20:36","EstimateTime":"","CarInfo":"","Lon":120.199317,"Lat":22.983783,"Turn":68,"DayValue":"一,二,四,六","RecycleDate":"二,六"},{"StopId":14701,"StopName":"府緯街9巷29號前面轉彎處","ScheduleTime":"20:40","EstimateTime":"","CarInfo":"","Lon":120.198778,"Lat":22.983475,"Turn":69,"DayValue":"一,二,四,六","RecycleDate":"二,六"},{"StopId":14702,"StopName":"府緯街4巷33號","ScheduleTime":"20:43","EstimateTime":"","CarInfo":"","Lon":120.199521,"Lat":22.984497,"Turn":70,"DayValue":"一,二,四,六","RecycleDate":"二,六"},{"StopId":14703,"StopName":"府緯街4巷6號","ScheduleTime":"20:45","EstimateTime":"","CarInfo":"","Lon":120.1990678,"Lat":22.9842713,"Turn":71,"DayValue":"一,二,四,六","RecycleDate":"二,六"},{"StopId":14704,"StopName":"府緯街4巷口","ScheduleTime":"20:47","EstimateTime":"","CarInfo":"","Lon":120.199521,"Lat":22.984497,"Turn":72,"DayValue":"一,二,四,六","RecycleDate":"二,六"}],"CarData":[],"RouteId":347,"RouteName":"中區-2","RouteInfo":"友愛街58號~府緯街4巷口","IsWork":true}]