[{"StopData":[{"StopId":10330,"StopName":"台南市中西區府前路1段、舊地方法院前","ScheduleTime":"06:30","EstimateTime":"","CarInfo":"","Lon":120.200977,"Lat":22.989737,"Turn":1,"DayValue":"一,二,三,四,五,六","RecycleDate":""},{"StopId":10331,"StopName":"台南市中西區南門路159號對面（舊中廣前）","ScheduleTime":"07:05","EstimateTime":"","CarInfo":"","Lon":120.204219,"Lat":22.986484,"Turn":2,"DayValue":"一,二,三,四,五,六","RecycleDate":""},{"StopId":10332,"StopName":"台南市中西區大埔街49號對面 (延平郡王祠停車場入口處旁)","ScheduleTime":"07:45","EstimateTime":"","CarInfo":"","Lon":120.208661,"Lat":22.987201,"Turn":3,"DayValue":"一,二,三,四,五,六","RecycleDate":""},{"StopId":10333,"StopName":"台南市中西區西門路1段674號 (通訊行)","ScheduleTime":"08:25","EstimateTime":"","CarInfo":"","Lon":120.197635,"Lat":22.989124,"Turn":4,"DayValue":"一,二,三,四,五,六","RecycleDate":""},{"StopId":10334,"StopName":"台南市中西區忠義路1段85巷口","ScheduleTime":"09:05","EstimateTime":"","CarInfo":"","Lon":120.20179,"Lat":22.987053,"Turn":5,"DayValue":"一,二,三,四,五,六","RecycleDate":""},{"StopId":10335,"StopName":"台南市中西區五妃街與南門路口（中山館前）","ScheduleTime":"09:30","EstimateTime":"","CarInfo":"","Lon":120.203813,"Lat":22.983,"Turn":6,"DayValue":"一,二,三,四,五,六","RecycleDate":""},{"StopId":10336,"StopName":"台南市中西區健康路1段與忠義路1段路口","ScheduleTime":"10:05","EstimateTime":"","CarInfo":"","Lon":120.201738,"Lat":22.981486,"Turn":7,"DayValue":"一,二,三,四,五,六","RecycleDate":""},{"StopId":10337,"StopName":"台南市中西區西門路1段442號旁(嘉南停車場前)","ScheduleTime":"10:25","EstimateTime":"","CarInfo":"","Lon":120.197717,"Lat":22.982514,"Turn":8,"DayValue":"一,二,三,四,五,六","RecycleDate":""},{"StopId":10338,"StopName":"台南市中西區民生路1段80號前","ScheduleTime":"10:45","EstimateTime":"","CarInfo":"","Lon":120.202281,"Lat":22.993619,"Turn":9,"DayValue":"一,二,三,四,五,六","RecycleDate":""}],"CarData":[{"CarNo":"KEA-1006","Angle":308,"Lon":120.168785,"Lat":23.00274},{"CarNo":"KEA-1006","Angle":181,"Lon":120.201822,"Lat":22.986975}],"RouteId":352,"RouteName":"中區-第1車輔助點","RouteInfo":"台南市中西區府前路1段、舊地方法院前~台南市中西區民生路1段80號前","IsWork":true}]