[{"StopData":[{"StopId":3842,"StopName":"和緯路3段399號(五分局對面)","ScheduleTime":"06:15","EstimateTime":"","CarInfo":"前往焚化爐","Lon":120.1941227,"Lat":23.0096621,"Turn":1,"DayValue":"一,二,三,四,五,六","RecycleDate":""},{"StopId":3843,"StopName":"公園路750號","ScheduleTime":"06:40","EstimateTime":"","CarInfo":"前往焚化爐","Lon":120.2105113,"Lat":23.0092326,"Turn":2,"DayValue":"一,二,三,四,五,六","RecycleDate":""},{"StopId":3844,"StopName":"大興街285巷8號(大興宮廟前)","ScheduleTime":"07:00","EstimateTime":"","CarInfo":"前往焚化爐","Lon":120.1873175,"Lat":23.0106021,"Turn":3,"DayValue":"一,二,三,四,五,六","RecycleDate":""},{"StopId":3845,"StopName":"文賢路313巷66號","ScheduleTime":"07:08","EstimateTime":"","CarInfo":"前往焚化爐","Lon":120.1915514,"Lat":23.0068541,"Turn":4,"DayValue":"一,二,三,四,五,六","RecycleDate":""},{"StopId":3846,"StopName":"和緯路三段335號","ScheduleTime":"07:16","EstimateTime":"","CarInfo":"前往焚化爐","Lon":120.1957986,"Lat":23.00985,"Turn":5,"DayValue":"一,二,三,四,五,六","RecycleDate":""},{"StopId":3847,"StopName":"文賢一路117號","ScheduleTime":"07:23","EstimateTime":"","CarInfo":"前往焚化爐","Lon":120.196021,"Lat":23.0067404,"Turn":6,"DayValue":"一,二,三,四,五,六","RecycleDate":""},{"StopId":3848,"StopName":"中華北路二段194巷57號","ScheduleTime":"07:37","EstimateTime":"","CarInfo":"前往焚化爐","Lon":120.1995737,"Lat":23.0203547,"Turn":7,"DayValue":"一,二,三,四,五,六","RecycleDate":""},{"StopId":3849,"StopName":"國華街4段5巷13號","ScheduleTime":"07:52","EstimateTime":"","CarInfo":"前往焚化爐","Lon":120.1993389,"Lat":23.000623,"Turn":8,"DayValue":"一,二,三,四,五,六","RecycleDate":""},{"StopId":3850,"StopName":"臨安路二段219號","ScheduleTime":"07:58","EstimateTime":"","CarInfo":"前往焚化爐","Lon":120.2002179,"Lat":23.004443,"Turn":9,"DayValue":"一,二,三,四,五,六","RecycleDate":""},{"StopId":3851,"StopName":"北門路二段103號","ScheduleTime":"08:13","EstimateTime":"","CarInfo":"前往焚化爐","Lon":120.2124812,"Lat":22.9994828,"Turn":10,"DayValue":"一,二,三,四,五,六","RecycleDate":""},{"StopId":3852,"StopName":"實踐街85巷25號","ScheduleTime":"08:28","EstimateTime":"","CarInfo":"前往焚化爐","Lon":120.2195684,"Lat":23.0145383,"Turn":11,"DayValue":"一,二,三,四,五,六","RecycleDate":""},{"StopId":3853,"StopName":"公園路910號前","ScheduleTime":"08:40","EstimateTime":"","CarInfo":"前往焚化爐","Lon":120.2134447,"Lat":23.0149297,"Turn":12,"DayValue":"一,二,三,四,五,六","RecycleDate":""},{"StopId":3854,"StopName":"正覺街104號","ScheduleTime":"08:48","EstimateTime":"","CarInfo":"前往焚化爐","Lon":120.2130848,"Lat":23.0180192,"Turn":13,"DayValue":"一,二,三,四,五,六","RecycleDate":""},{"StopId":3855,"StopName":"臨安路2段53號(大聖國家大樓前)2500183","ScheduleTime":"09:05","EstimateTime":"","CarInfo":"前往焚化爐","Lon":120.1965608,"Lat":23.0027691,"Turn":14,"DayValue":"一,二,三,四,五,六","RecycleDate":""},{"StopId":3856,"StopName":"中華北路一段105巷46號(儷園大樓3580787)","ScheduleTime":"10:20","EstimateTime":"","CarInfo":"前往焚化爐","Lon":120.1855198,"Lat":23.0089594,"Turn":15,"DayValue":"一,二,三,四,五,六","RecycleDate":""},{"StopId":3857,"StopName":"賢北街27巷6號前","ScheduleTime":"10:26","EstimateTime":"","CarInfo":"前往焚化爐","Lon":120.182349,"Lat":23.007883,"Turn":16,"DayValue":"一,二,三,四,五,六","RecycleDate":""},{"StopId":3858,"StopName":"賢北街27巷125號","ScheduleTime":"10:31","EstimateTime":"","CarInfo":"前往焚化爐","Lon":120.1805123,"Lat":23.0067591,"Turn":17,"DayValue":"一,二,三,四,五,六","RecycleDate":""},{"StopId":3859,"StopName":"長德街40號(新巢生活大樓2201001)","ScheduleTime":"10:48","EstimateTime":"","CarInfo":"前往焚化爐","Lon":120.2056314,"Lat":23.0031513,"Turn":18,"DayValue":"一,二,三,四,五,六","RecycleDate":""},{"StopId":3860,"StopName":"長北街172號(名人家園大樓2253734)","ScheduleTime":"10:52","EstimateTime":"","CarInfo":"前往焚化爐","Lon":120.2052241,"Lat":23.0038226,"Turn":19,"DayValue":"一,二,三,四,五,六","RecycleDate":""},{"StopId":3861,"StopName":"西門路三段232巷18號(西門經典大樓2212456)","ScheduleTime":"10:54","EstimateTime":"","CarInfo":"前往焚化爐","Lon":120.204973,"Lat":23.003987,"Turn":20,"DayValue":"一,二,三,四,五,六","RecycleDate":""},{"StopId":3862,"StopName":"長北街125號(四季風情大樓2111448)","ScheduleTime":"10:57","EstimateTime":"","CarInfo":"前往焚化爐","Lon":120.2045762,"Lat":23.0026552,"Turn":21,"DayValue":"一,二,三,四,五,六","RecycleDate":""},{"StopId":3863,"StopName":"公園南路366號(太皇園大樓2206137)","ScheduleTime":"11:03","EstimateTime":"","CarInfo":"前往焚化爐","Lon":120.2018698,"Lat":23.003162,"Turn":22,"DayValue":"一,二,三,四,五,六","RecycleDate":""},{"StopId":3864,"StopName":"臨安路二段250號(只收星期三、星期五)","ScheduleTime":"11:15","EstimateTime":"","CarInfo":"前往焚化爐","Lon":120.2003191,"Lat":23.0039431,"Turn":23,"DayValue":"一,二,三,四,五,六","RecycleDate":""},{"StopId":3865,"StopName":"長榮路5段397號對面(延平市場)(單月)","ScheduleTime":"11:30","EstimateTime":"","CarInfo":"前往焚化爐","Lon":120.2132041,"Lat":23.0130567,"Turn":24,"DayValue":"一,二,三,四,五,六","RecycleDate":""}],"CarData":[],"RouteId":32,"RouteName":"北區-03(日間輔助點)","RouteInfo":"和緯路3段399號(五分局對面)~長榮路5段397號對面(延平市場)(單月)","IsWork":true}]