[{"StopData":[{"StopId":9456,"StopName":"中山路一段485號","ScheduleTime":"15:50","EstimateTime":"","CarInfo":"","Lon":120.2735045,"Lat":23.2407327,"Turn":1,"DayValue":"一,三,五,六","RecycleDate":"三,六"},{"StopId":9457,"StopName":"慈濟回收站中山路一段483號","ScheduleTime":"15:53","EstimateTime":"","CarInfo":"","Lon":120.273247,"Lat":23.2405947,"Turn":2,"DayValue":"一,三,五,六","RecycleDate":"三,六"},{"StopId":9458,"StopName":"中山路一段361號","ScheduleTime":"15:56","EstimateTime":"","CarInfo":"","Lon":120.2697709,"Lat":23.2387019,"Turn":3,"DayValue":"一,三,五,六","RecycleDate":"三,六"},{"StopId":9459,"StopName":"下營國小天橋中山路二段107號","ScheduleTime":"15:59","EstimateTime":"","CarInfo":"","Lon":120.261988,"Lat":23.2321736,"Turn":4,"DayValue":"一,三,五,六","RecycleDate":"三,六"},{"StopId":9460,"StopName":"金光海產店中山路二段85號","ScheduleTime":"16:02","EstimateTime":"","CarInfo":"","Lon":120.2616822,"Lat":23.2328342,"Turn":5,"DayValue":"一,三,五,六","RecycleDate":"三,六"},{"StopId":9461,"StopName":"守仁中山路二段39號","ScheduleTime":"16:03","EstimateTime":"","CarInfo":"","Lon":120.2612328,"Lat":23.2338705,"Turn":6,"DayValue":"一,三,五,六","RecycleDate":"三,六"},{"StopId":9462,"StopName":"桂林堂藥局中山路二段1號","ScheduleTime":"16:04","EstimateTime":"","CarInfo":"","Lon":120.2612156,"Lat":23.2347382,"Turn":7,"DayValue":"一,三,五,六","RecycleDate":"三,六"},{"StopId":9463,"StopName":"永川花店中山路一段16號","ScheduleTime":"16:05","EstimateTime":"","CarInfo":"","Lon":120.2615154,"Lat":23.2348025,"Turn":8,"DayValue":"一,三,五,六","RecycleDate":"三,六"},{"StopId":9464,"StopName":"中山路一段38號","ScheduleTime":"16:06","EstimateTime":"","CarInfo":"","Lon":120.2619735,"Lat":23.2349805,"Turn":9,"DayValue":"一,三,五,六","RecycleDate":"三,六"},{"StopId":9465,"StopName":"7-11門口中山路一段58號","ScheduleTime":"16:07","EstimateTime":"","CarInfo":"","Lon":120.2621813,"Lat":23.235028,"Turn":10,"DayValue":"一,三,五,六","RecycleDate":"三,六"},{"StopId":9466,"StopName":"日立中山路一段96號","ScheduleTime":"16:08","EstimateTime":"","CarInfo":"","Lon":120.2631492,"Lat":23.2353333,"Turn":11,"DayValue":"一,三,五,六","RecycleDate":"三,六"},{"StopId":9467,"StopName":"三陽機車中山路一段116號","ScheduleTime":"16:09","EstimateTime":"","CarInfo":"","Lon":120.2635201,"Lat":23.2354516,"Turn":12,"DayValue":"一,三,五,六","RecycleDate":"三,六"},{"StopId":9468,"StopName":"牛肉店中山路一段146號","ScheduleTime":"16:10","EstimateTime":"","CarInfo":"","Lon":120.2639546,"Lat":23.2355831,"Turn":13,"DayValue":"一,三,五,六","RecycleDate":"三,六"},{"StopId":9469,"StopName":"下營區公所中山路一段170號","ScheduleTime":"16:11","EstimateTime":"","CarInfo":"","Lon":120.2644011,"Lat":23.2357259,"Turn":14,"DayValue":"一,三,五,六","RecycleDate":"三,六"},{"StopId":9470,"StopName":"水電材料行中山路一段176號","ScheduleTime":"16:12","EstimateTime":"","CarInfo":"","Lon":120.2648488,"Lat":23.2359065,"Turn":15,"DayValue":"一,三,五,六","RecycleDate":"三,六"},{"StopId":9471,"StopName":"下營派出所中山路一段226號","ScheduleTime":"16:14","EstimateTime":"","CarInfo":"","Lon":120.2659087,"Lat":23.2364666,"Turn":16,"DayValue":"一,三,五,六","RecycleDate":"三,六"},{"StopId":9472,"StopName":"立昇眼睛行中山路一段268號","ScheduleTime":"16:24","EstimateTime":"","CarInfo":"","Lon":120.26686,"Lat":23.2370448,"Turn":17,"DayValue":"一,三,五,六","RecycleDate":"三,六"},{"StopId":9473,"StopName":"下營農會超市中山路一段301號","ScheduleTime":"16:34","EstimateTime":"","CarInfo":"","Lon":120.2673358,"Lat":23.237482,"Turn":18,"DayValue":"一,三,五,六","RecycleDate":"三,六"},{"StopId":9474,"StopName":"友愛街口97巷2號(整隊出發)","ScheduleTime":"16:40","EstimateTime":"","CarInfo":"","Lon":120.2589595,"Lat":23.2379921,"Turn":19,"DayValue":"一,三,五,六","RecycleDate":"三,六"},{"StopId":9475,"StopName":"友愛街25號","ScheduleTime":"16:41","EstimateTime":"","CarInfo":"","Lon":120.2593805,"Lat":23.2338591,"Turn":20,"DayValue":"一,三,五,六","RecycleDate":"三,六"},{"StopId":9476,"StopName":"真讚鵝肉公園路31號","ScheduleTime":"16:42","EstimateTime":"","CarInfo":"","Lon":120.2596583,"Lat":23.2332957,"Turn":21,"DayValue":"一,三,五,六","RecycleDate":"三,六"},{"StopId":9477,"StopName":"席捲文補習班公園路17號","ScheduleTime":"16:43","EstimateTime":"","CarInfo":"","Lon":120.2599681,"Lat":23.2334091,"Turn":22,"DayValue":"一,三,五,六","RecycleDate":"三,六"},{"StopId":9478,"StopName":"?佑公園路3號","ScheduleTime":"16:44","EstimateTime":"","CarInfo":"","Lon":120.2602617,"Lat":23.2335027,"Turn":23,"DayValue":"一,三,五,六","RecycleDate":"三,六"},{"StopId":9479,"StopName":"傑克小子公園路28號","ScheduleTime":"16:45","EstimateTime":"","CarInfo":"","Lon":120.2606329,"Lat":23.2336493,"Turn":24,"DayValue":"一,三,五,六","RecycleDate":"三,六"},{"StopId":9480,"StopName":"仁美街與仁里街10號街口","ScheduleTime":"16:46","EstimateTime":"","CarInfo":"","Lon":120.2603618,"Lat":23.232936,"Turn":25,"DayValue":"一,三,五,六","RecycleDate":"三,六"},{"StopId":9481,"StopName":"仁里街38號","ScheduleTime":"16:47","EstimateTime":"","CarInfo":"","Lon":120.260261,"Lat":23.2325574,"Turn":26,"DayValue":"一,三,五,六","RecycleDate":"三,六"},{"StopId":9482,"StopName":"宏昌商店仁里街17號","ScheduleTime":"16:48","EstimateTime":"","CarInfo":"","Lon":120.2601786,"Lat":23.2323044,"Turn":27,"DayValue":"一,三,五,六","RecycleDate":"三,六"},{"StopId":9483,"StopName":"仁里街106號","ScheduleTime":"16:49","EstimateTime":"","CarInfo":"","Lon":120.2598342,"Lat":23.2309689,"Turn":28,"DayValue":"一,三,五,六","RecycleDate":"三,六"},{"StopId":9484,"StopName":"功學社仁里街160號","ScheduleTime":"16:50","EstimateTime":"","CarInfo":"","Lon":120.2594564,"Lat":23.2292114,"Turn":29,"DayValue":"一,三,五,六","RecycleDate":"三,六"},{"StopId":9485,"StopName":"阿霞花店仁里街180號","ScheduleTime":"16:52","EstimateTime":"","CarInfo":"","Lon":120.2591568,"Lat":23.2281931,"Turn":30,"DayValue":"一,三,五,六","RecycleDate":"三,六"},{"StopId":9486,"StopName":"仁里街103巷6號","ScheduleTime":"16:53","EstimateTime":"","CarInfo":"","Lon":120.2594749,"Lat":23.2280035,"Turn":31,"DayValue":"一,三,五,六","RecycleDate":"三,六"},{"StopId":9487,"StopName":"仁信街65號","ScheduleTime":"16:54","EstimateTime":"","CarInfo":"","Lon":120.2598247,"Lat":23.2278971,"Turn":32,"DayValue":"一,三,五,六","RecycleDate":"三,六"},{"StopId":9488,"StopName":"仁信街1號","ScheduleTime":"16:55","EstimateTime":"","CarInfo":"","Lon":120.2610154,"Lat":23.2278975,"Turn":33,"DayValue":"一,三,五,六","RecycleDate":"三,六"},{"StopId":9489,"StopName":"仁南街41巷2號前","ScheduleTime":"16:56","EstimateTime":"","CarInfo":"","Lon":120.2626224,"Lat":23.2276875,"Turn":34,"DayValue":"一,三,五,六","RecycleDate":"三,六"},{"StopId":9490,"StopName":"仁南街16號","ScheduleTime":"16:57","EstimateTime":"","CarInfo":"","Lon":120.2632729,"Lat":23.2276449,"Turn":35,"DayValue":"一,三,五,六","RecycleDate":"三,六"},{"StopId":9491,"StopName":"新進東街77號","ScheduleTime":"16:59","EstimateTime":"","CarInfo":"","Lon":120.2648375,"Lat":23.22944,"Turn":36,"DayValue":"一,三,五,六","RecycleDate":"三,六"},{"StopId":9492,"StopName":"中正南路207號","ScheduleTime":"17:01","EstimateTime":"","CarInfo":"","Lon":120.264392,"Lat":23.2305094,"Turn":37,"DayValue":"一,三,五,六","RecycleDate":"三,六"},{"StopId":9493,"StopName":"資優生中正南路173號","ScheduleTime":"17:02","EstimateTime":"","CarInfo":"","Lon":120.2640245,"Lat":23.2313795,"Turn":38,"DayValue":"一,三,五,六","RecycleDate":"三,六"},{"StopId":9494,"StopName":"健康路與中正南路136號","ScheduleTime":"17:03","EstimateTime":"","CarInfo":"","Lon":120.263776,"Lat":23.232051,"Turn":39,"DayValue":"一,三,五,六","RecycleDate":"三,六"},{"StopId":9495,"StopName":"陳金能中山南路127號","ScheduleTime":"17:04","EstimateTime":"","CarInfo":"","Lon":120.2636306,"Lat":23.2325078,"Turn":40,"DayValue":"一,三,五,六","RecycleDate":"三,六"},{"StopId":9496,"StopName":"中正南路103號","ScheduleTime":"17:05","EstimateTime":"","CarInfo":"","Lon":120.2635314,"Lat":23.2328977,"Turn":41,"DayValue":"一,三,五,六","RecycleDate":"三,六"},{"StopId":9497,"StopName":"全國五金中正南路81號","ScheduleTime":"17:06","EstimateTime":"","CarInfo":"","Lon":120.2632746,"Lat":23.2336021,"Turn":42,"DayValue":"一,三,五,六","RecycleDate":"三,六"},{"StopId":9498,"StopName":"晨祐診所中正南55號","ScheduleTime":"17:07","EstimateTime":"","CarInfo":"","Lon":120.2631477,"Lat":23.2340326,"Turn":43,"DayValue":"一,三,五,六","RecycleDate":"三,六"},{"StopId":9499,"StopName":"杏芳自助餐中正南路13號","ScheduleTime":"17:08","EstimateTime":"","CarInfo":"","Lon":120.2628582,"Lat":23.2348661,"Turn":44,"DayValue":"一,三,五,六","RecycleDate":"三,六"},{"StopId":9500,"StopName":"姜協成中正北路38號","ScheduleTime":"17:09","EstimateTime":"","CarInfo":"","Lon":120.262464,"Lat":23.2358735,"Turn":45,"DayValue":"一,三,五,六","RecycleDate":"三,六"},{"StopId":9501,"StopName":"中正北路72號","ScheduleTime":"17:10","EstimateTime":"","CarInfo":"","Lon":120.2622886,"Lat":23.2362865,"Turn":46,"DayValue":"一,三,五,六","RecycleDate":"三,六"},{"StopId":9502,"StopName":"洪外科前中正北路108號","ScheduleTime":"17:11","EstimateTime":"","CarInfo":"","Lon":120.2618739,"Lat":23.2370709,"Turn":47,"DayValue":"一,三,五,六","RecycleDate":"三,六"},{"StopId":9503,"StopName":"瑪展茶行中正北路162號","ScheduleTime":"17:12","EstimateTime":"","CarInfo":"","Lon":120.2615432,"Lat":23.2377482,"Turn":48,"DayValue":"一,三,五,六","RecycleDate":"三,六"},{"StopId":9504,"StopName":"香腸旺巷口中正北288號","ScheduleTime":"17:14","EstimateTime":"","CarInfo":"","Lon":120.2604295,"Lat":23.2400538,"Turn":49,"DayValue":"一,三,五,六","RecycleDate":"三,六"},{"StopId":9505,"StopName":"華翰安親人和街111號","ScheduleTime":"17:20","EstimateTime":"","CarInfo":"","Lon":120.2633209,"Lat":23.2416728,"Turn":50,"DayValue":"一,三,五,六","RecycleDate":"三,六"},{"StopId":9506,"StopName":"何光厝前自由街218號","ScheduleTime":"17:24","EstimateTime":"","CarInfo":"","Lon":120.2660998,"Lat":23.2411522,"Turn":51,"DayValue":"一,三,五,六","RecycleDate":"三,六"},{"StopId":9507,"StopName":"東興別墅口自由街147號","ScheduleTime":"17:26","EstimateTime":"","CarInfo":"","Lon":120.2655554,"Lat":23.2397573,"Turn":52,"DayValue":"一,三,五,六","RecycleDate":"三,六"},{"StopId":9508,"StopName":"自由街77號","ScheduleTime":"17:27","EstimateTime":"","CarInfo":"","Lon":120.2650174,"Lat":23.2380825,"Turn":53,"DayValue":"一,三,五,六","RecycleDate":"三,六"},{"StopId":9509,"StopName":"自由街39號","ScheduleTime":"17:28","EstimateTime":"","CarInfo":"","Lon":120.2650508,"Lat":23.2370354,"Turn":54,"DayValue":"一,三,五,六","RecycleDate":"三,六"},{"StopId":9510,"StopName":"下營別館自由街17號","ScheduleTime":"17:29","EstimateTime":"","CarInfo":"","Lon":120.2650788,"Lat":23.2366094,"Turn":55,"DayValue":"一,三,五,六","RecycleDate":"三,六"},{"StopId":9511,"StopName":"世樺通訊中山路一段109號","ScheduleTime":"17:30","EstimateTime":"","CarInfo":"","Lon":120.2637702,"Lat":23.2355871,"Turn":56,"DayValue":"一,三,五,六","RecycleDate":"三,六"},{"StopId":9512,"StopName":"龍泰堂中山路一段81號","ScheduleTime":"17:31","EstimateTime":"","CarInfo":"","Lon":120.2632479,"Lat":23.2354238,"Turn":57,"DayValue":"一,三,五,六","RecycleDate":"三,六"},{"StopId":9513,"StopName":"仲仔檳榔中山路一段47號","ScheduleTime":"17:32","EstimateTime":"","CarInfo":"","Lon":120.2622543,"Lat":23.2351192,"Turn":58,"DayValue":"一,三,五,六","RecycleDate":"三,六"},{"StopId":9514,"StopName":"中山路一段7號","ScheduleTime":"17:34","EstimateTime":"","CarInfo":"","Lon":120.2613447,"Lat":23.2348214,"Turn":59,"DayValue":"一,三,五,六","RecycleDate":"三,六"},{"StopId":9515,"StopName":"壹勝藥局中山路二段64號","ScheduleTime":"17:36","EstimateTime":"","CarInfo":"","Lon":120.2611341,"Lat":23.2339668,"Turn":60,"DayValue":"一,三,五,六","RecycleDate":"三,六"},{"StopId":9516,"StopName":"夜市入口中山路一段151號","ScheduleTime":"17:38","EstimateTime":"","CarInfo":"","Lon":120.2626596,"Lat":23.2309156,"Turn":61,"DayValue":"一,三,五,六","RecycleDate":"三,六"},{"StopId":9517,"StopName":"衛生所下營區中山路二段137號","ScheduleTime":"17:40","EstimateTime":"","CarInfo":"","Lon":120.2625225,"Lat":23.2316948,"Turn":62,"DayValue":"一,三,五,六","RecycleDate":"三,六"},{"StopId":9518,"StopName":"姜長林牙科健康路35號","ScheduleTime":"17:42","EstimateTime":"","CarInfo":"","Lon":120.2633115,"Lat":23.2318661,"Turn":63,"DayValue":"一,三,五,六","RecycleDate":"三,六"},{"StopId":9519,"StopName":"楊豐輝厝前健康路78號","ScheduleTime":"17:43","EstimateTime":"","CarInfo":"","Lon":120.2643958,"Lat":23.2321256,"Turn":64,"DayValue":"一,三,五,六","RecycleDate":"三,六"},{"StopId":9520,"StopName":"鐘漢瑋厝前健康路100號","ScheduleTime":"17:44","EstimateTime":"","CarInfo":"","Lon":120.2650653,"Lat":23.2322768,"Turn":65,"DayValue":"一,三,五,六","RecycleDate":"三,六"},{"StopId":9521,"StopName":"長頸鹿美語健康路122號","ScheduleTime":"17:45","EstimateTime":"","CarInfo":"","Lon":120.2654677,"Lat":23.2323803,"Turn":66,"DayValue":"一,三,五,六","RecycleDate":"三,六"},{"StopId":9522,"StopName":"金玉堂健康路160號","ScheduleTime":"17:46","EstimateTime":"","CarInfo":"","Lon":120.2659766,"Lat":23.2324789,"Turn":67,"DayValue":"一,三,五,六","RecycleDate":"三,六"},{"StopId":9523,"StopName":"香腸興厝前健康路188號","ScheduleTime":"17:47","EstimateTime":"","CarInfo":"","Lon":120.2665016,"Lat":23.2326083,"Turn":68,"DayValue":"一,三,五,六","RecycleDate":"三,六"},{"StopId":9524,"StopName":"宏展電腦健康路280號","ScheduleTime":"17:48","EstimateTime":"","CarInfo":"","Lon":120.2669062,"Lat":23.2339235,"Turn":69,"DayValue":"一,三,五,六","RecycleDate":"三,六"},{"StopId":9525,"StopName":"健康路255號","ScheduleTime":"17:49","EstimateTime":"","CarInfo":"","Lon":120.2667337,"Lat":23.2348205,"Turn":70,"DayValue":"一,三,五,六","RecycleDate":"三,六"},{"StopId":9526,"StopName":"派出所對面中山路一段253號","ScheduleTime":"17:52","EstimateTime":"","CarInfo":"","Lon":120.2660376,"Lat":23.2366205,"Turn":71,"DayValue":"一,三,五,六","RecycleDate":"三,六"},{"StopId":9527,"StopName":"小天使文化街107號","ScheduleTime":"17:55","EstimateTime":"","CarInfo":"","Lon":120.2647775,"Lat":23.2350407,"Turn":72,"DayValue":"一,三,五,六","RecycleDate":"三,六"},{"StopId":9528,"StopName":"姜三龍厝前文化街22號","ScheduleTime":"17:57","EstimateTime":"","CarInfo":"","Lon":120.2654266,"Lat":23.2329244,"Turn":73,"DayValue":"一,三,五,六","RecycleDate":"三,六"},{"StopId":9529,"StopName":"中山路一段366號","ScheduleTime":"17:58","EstimateTime":"","CarInfo":"","Lon":120.269335,"Lat":23.2384081,"Turn":74,"DayValue":"一,三,五,六","RecycleDate":"三,六"},{"StopId":9530,"StopName":"東興一街122號前","ScheduleTime":"17:59","EstimateTime":"","CarInfo":"","Lon":120.2664355,"Lat":23.2386036,"Turn":75,"DayValue":"一,三,五,六","RecycleDate":"三,六"},{"StopId":9531,"StopName":"東興一街150號","ScheduleTime":"18:00","EstimateTime":"","CarInfo":"","Lon":120.2658669,"Lat":23.2384988,"Turn":76,"DayValue":"一,三,五,六","RecycleDate":"三,六"},{"StopId":9532,"StopName":"牛奶厝前巷口東興二街76號","ScheduleTime":"18:05","EstimateTime":"","CarInfo":"","Lon":120.2632889,"Lat":23.2384986,"Turn":77,"DayValue":"一,三,五,六","RecycleDate":"三,六"},{"StopId":9533,"StopName":"東興二街136號","ScheduleTime":"18:06","EstimateTime":"","CarInfo":"","Lon":120.2619755,"Lat":23.238557,"Turn":78,"DayValue":"一,三,五,六","RecycleDate":"三,六"},{"StopId":9534,"StopName":"涼泰冰城二街163號","ScheduleTime":"18:07","EstimateTime":"","CarInfo":"","Lon":120.2615611,"Lat":23.2385821,"Turn":79,"DayValue":"一,三,五,六","RecycleDate":"三,六"},{"StopId":9535,"StopName":"豐輝商店公園路110號","ScheduleTime":"18:09","EstimateTime":"","CarInfo":"","Lon":120.2591273,"Lat":23.2330267,"Turn":80,"DayValue":"一,三,五,六","RecycleDate":"三,六"},{"StopId":9536,"StopName":"世貿保養廠前公園路220號","ScheduleTime":"18:11","EstimateTime":"","CarInfo":"","Lon":120.256958,"Lat":23.2328976,"Turn":81,"DayValue":"一,三,五,六","RecycleDate":"三,六"},{"StopId":9537,"StopName":"阿來機車行公園路278號","ScheduleTime":"18:13","EstimateTime":"","CarInfo":"","Lon":120.2558186,"Lat":23.2329076,"Turn":82,"DayValue":"一,三,五,六","RecycleDate":"三,六"},{"StopId":9538,"StopName":"終點站公園路468號","ScheduleTime":"18:17","EstimateTime":"","CarInfo":"","Lon":120.2495968,"Lat":23.2332989,"Turn":83,"DayValue":"一,三,五,六","RecycleDate":"三,六"}],"CarData":[],"RouteId":5,"RouteName":"下營-1","RouteInfo":"中山路一段485號~終點站公園路468號","IsWork":false}]