[{"StopData":[{"StopId":3261,"StopName":"三民路383號","ScheduleTime":"17:00","EstimateTime":"","CarInfo":"","Lon":120.4156264,"Lat":23.3514331,"Turn":1,"DayValue":"一,三,五,六","RecycleDate":"一,五"},{"StopId":3262,"StopName":"新興路561號","ScheduleTime":"17:06","EstimateTime":"","CarInfo":"","Lon":120.4171802,"Lat":23.3528393,"Turn":2,"DayValue":"一,三,五,六","RecycleDate":"一,五"},{"StopId":3263,"StopName":"富民路612號","ScheduleTime":"17:12","EstimateTime":"","CarInfo":"","Lon":120.4102886,"Lat":23.3525564,"Turn":3,"DayValue":"一,三,五,六","RecycleDate":"一,五"},{"StopId":3264,"StopName":"四維街19號","ScheduleTime":"17:18","EstimateTime":"","CarInfo":"","Lon":120.413273,"Lat":23.350539,"Turn":4,"DayValue":"一,三,五,六","RecycleDate":"一,五"},{"StopId":3265,"StopName":"一心街12號","ScheduleTime":"17:24","EstimateTime":"","CarInfo":"","Lon":120.4136179,"Lat":23.351775,"Turn":5,"DayValue":"一,三,五,六","RecycleDate":"一,五"},{"StopId":3266,"StopName":"中正路85號","ScheduleTime":"17:30","EstimateTime":"","CarInfo":"","Lon":120.4127535,"Lat":23.3495904,"Turn":6,"DayValue":"一,三,五,六","RecycleDate":"一,五"},{"StopId":3267,"StopName":"九龍街50號","ScheduleTime":"17:36","EstimateTime":"","CarInfo":"","Lon":120.4140704,"Lat":23.3482098,"Turn":7,"DayValue":"一,三,五,六","RecycleDate":"一,五"},{"StopId":3268,"StopName":"康樂路43號","ScheduleTime":"17:42","EstimateTime":"","CarInfo":"","Lon":120.4149198,"Lat":23.3481817,"Turn":8,"DayValue":"一,三,五,六","RecycleDate":"一,五"},{"StopId":3269,"StopName":"康樂路1-89號","ScheduleTime":"17:48","EstimateTime":"","CarInfo":"","Lon":120.4161404,"Lat":23.3451839,"Turn":9,"DayValue":"一,三,五,六","RecycleDate":"一,五"},{"StopId":3270,"StopName":"國泰路102號","ScheduleTime":"17:55","EstimateTime":"","CarInfo":"","Lon":120.4131918,"Lat":23.3479576,"Turn":10,"DayValue":"一,三,五,六","RecycleDate":"一,五"},{"StopId":3271,"StopName":"中正路179號","ScheduleTime":"18:02","EstimateTime":"","CarInfo":"","Lon":120.4102666,"Lat":23.3491066,"Turn":11,"DayValue":"一,三,五,六","RecycleDate":"一,五"},{"StopId":3272,"StopName":"民安路86號","ScheduleTime":"18:08","EstimateTime":"","CarInfo":"","Lon":120.4121606,"Lat":23.3473403,"Turn":12,"DayValue":"一,三,五,六","RecycleDate":"一,五"},{"StopId":3273,"StopName":"富民路288號","ScheduleTime":"18:16","EstimateTime":"","CarInfo":"","Lon":120.4103981,"Lat":23.3462615,"Turn":13,"DayValue":"一,三,五,六","RecycleDate":"一,五"},{"StopId":3274,"StopName":"中正路59號","ScheduleTime":"18:22","EstimateTime":"","CarInfo":"","Lon":120.4137555,"Lat":23.3497087,"Turn":14,"DayValue":"一,三,五,六","RecycleDate":"一,五"},{"StopId":3275,"StopName":"中山路2號","ScheduleTime":"18:35","EstimateTime":"","CarInfo":"","Lon":120.4140343,"Lat":23.3474966,"Turn":15,"DayValue":"一,三,五,六","RecycleDate":"一,五"},{"StopId":3276,"StopName":"中山路133號","ScheduleTime":"18:43","EstimateTime":"","CarInfo":"","Lon":120.4166299,"Lat":23.3517578,"Turn":16,"DayValue":"一,三,五,六","RecycleDate":"一,五"},{"StopId":3277,"StopName":"新厝子70-8號","ScheduleTime":"18:53","EstimateTime":"","CarInfo":"","Lon":120.4091301,"Lat":23.3472337,"Turn":17,"DayValue":"一,三,五,六","RecycleDate":"一,五"},{"StopId":3278,"StopName":"光明街15號","ScheduleTime":"19:03","EstimateTime":"","CarInfo":"","Lon":120.418457,"Lat":23.351213,"Turn":18,"DayValue":"一,三,五,六","RecycleDate":"一,五"},{"StopId":3279,"StopName":"開明街153號","ScheduleTime":"19:09","EstimateTime":"","CarInfo":"","Lon":120.4188764,"Lat":23.3502312,"Turn":19,"DayValue":"一,三,五,六","RecycleDate":"一,五"},{"StopId":3280,"StopName":"新起街5號","ScheduleTime":"19:15","EstimateTime":"","CarInfo":"","Lon":120.4158769,"Lat":23.3477828,"Turn":20,"DayValue":"一,三,五,六","RecycleDate":"一,五"}],"CarData":[],"RouteId":81,"RouteName":"白河-1","RouteInfo":"三民路383號~新起街5號","IsWork":false}]