[{"StopData":[{"StopId":17575,"StopName":"建國街55號","ScheduleTime":"16:50","EstimateTime":"","CarInfo":"","Lon":120.30873,"Lat":23.039516,"Turn":1,"DayValue":"一","RecycleDate":"一"},{"StopId":17576,"StopName":"忠孝路26之2號","ScheduleTime":"16:52","EstimateTime":"","CarInfo":"","Lon":120.308608,"Lat":23.038773,"Turn":2,"DayValue":"一","RecycleDate":"一"},{"StopId":17577,"StopName":"中正路520號","ScheduleTime":"16:54","EstimateTime":"","CarInfo":"","Lon":120.306967,"Lat":23.039086,"Turn":3,"DayValue":"一","RecycleDate":"一"},{"StopId":17578,"StopName":"中正路586號(稅捐處)","ScheduleTime":"16:58","EstimateTime":"","CarInfo":"","Lon":120.305572,"Lat":23.041957,"Turn":4,"DayValue":"一","RecycleDate":"一"},{"StopId":17579,"StopName":"中正路588號(國稅局)","ScheduleTime":"17:00","EstimateTime":"","CarInfo":"","Lon":120.305161,"Lat":23.042568,"Turn":5,"DayValue":"一","RecycleDate":"一"},{"StopId":17580,"StopName":"中正路662巷口","ScheduleTime":"17:03","EstimateTime":"","CarInfo":"","Lon":120.303727,"Lat":23.045289,"Turn":6,"DayValue":"一","RecycleDate":"一"},{"StopId":17581,"StopName":"中正路686巷A農路","ScheduleTime":"17:05","EstimateTime":"","CarInfo":"","Lon":120.303226,"Lat":23.046284,"Turn":7,"DayValue":"一","RecycleDate":"一"},{"StopId":17582,"StopName":"中正路686巷B農路","ScheduleTime":"17:11","EstimateTime":"","CarInfo":"","Lon":120.301522,"Lat":23.049743,"Turn":8,"DayValue":"一","RecycleDate":"一"},{"StopId":17583,"StopName":"中正路690巷之56號","ScheduleTime":"17:21","EstimateTime":"","CarInfo":"","Lon":120.302911,"Lat":23.0468843,"Turn":9,"DayValue":"一","RecycleDate":"一"},{"StopId":17584,"StopName":"中正路(地政)","ScheduleTime":"17:28","EstimateTime":"","CarInfo":"","Lon":120.29917,"Lat":23.055217,"Turn":10,"DayValue":"一","RecycleDate":"一"},{"StopId":17585,"StopName":"中正路(永新社區)","ScheduleTime":"17:29","EstimateTime":"","CarInfo":"","Lon":120.296682,"Lat":23.05972,"Turn":11,"DayValue":"一","RecycleDate":"一"},{"StopId":17586,"StopName":"中正路777巷口","ScheduleTime":"17:38","EstimateTime":"","CarInfo":"","Lon":120.304111,"Lat":23.044063,"Turn":12,"DayValue":"一","RecycleDate":"一"},{"StopId":17587,"StopName":"中正路637號","ScheduleTime":"17:40","EstimateTime":"","CarInfo":"","Lon":120.306133,"Lat":23.04063,"Turn":13,"DayValue":"一","RecycleDate":"一"},{"StopId":17588,"StopName":"忠孝路68號","ScheduleTime":"17:45","EstimateTime":"","CarInfo":"","Lon":120.306212,"Lat":23.038364,"Turn":14,"DayValue":"一","RecycleDate":"一"},{"StopId":17589,"StopName":"忠孝路116之1號","ScheduleTime":"17:48","EstimateTime":"","CarInfo":"","Lon":120.304508,"Lat":23.038026,"Turn":15,"DayValue":"一","RecycleDate":"一"},{"StopId":17590,"StopName":"忠孝路190巷口","ScheduleTime":"17:52","EstimateTime":"","CarInfo":"","Lon":120.301432,"Lat":23.037267,"Turn":16,"DayValue":"一","RecycleDate":"一"},{"StopId":17591,"StopName":"太平街125號","ScheduleTime":"17:57","EstimateTime":"","CarInfo":"","Lon":120.300869,"Lat":23.038225,"Turn":17,"DayValue":"一","RecycleDate":"一"},{"StopId":17592,"StopName":"忠孝路190巷口(太平街)","ScheduleTime":"17:58","EstimateTime":"","CarInfo":"","Lon":120.301367,"Lat":23.038284,"Turn":18,"DayValue":"一","RecycleDate":"一"},{"StopId":17593,"StopName":"太平街99之4號","ScheduleTime":"18:01","EstimateTime":"","CarInfo":"","Lon":120.30308,"Lat":23.038637,"Turn":19,"DayValue":"一","RecycleDate":"一"},{"StopId":17594,"StopName":"太平街69號","ScheduleTime":"18:03","EstimateTime":"","CarInfo":"","Lon":120.305102,"Lat":23.039042,"Turn":20,"DayValue":"一","RecycleDate":"一"},{"StopId":17595,"StopName":"太平街13之2號","ScheduleTime":"18:08","EstimateTime":"","CarInfo":"","Lon":120.307596,"Lat":23.039562,"Turn":21,"DayValue":"一","RecycleDate":"一"},{"StopId":17596,"StopName":"中正路539號","ScheduleTime":"18:12","EstimateTime":"","CarInfo":"","Lon":120.30724,"Lat":23.037731,"Turn":22,"DayValue":"一","RecycleDate":"一"},{"StopId":17597,"StopName":"中正路453號","ScheduleTime":"18:15","EstimateTime":"","CarInfo":"","Lon":120.307796,"Lat":23.036242,"Turn":23,"DayValue":"一","RecycleDate":"一"},{"StopId":17598,"StopName":"中山路213號","ScheduleTime":"18:18","EstimateTime":"","CarInfo":"","Lon":120.309223,"Lat":23.036171,"Turn":24,"DayValue":"一","RecycleDate":"一"},{"StopId":17599,"StopName":"中山路163之2號","ScheduleTime":"18:23","EstimateTime":"","CarInfo":"","Lon":120.311237,"Lat":23.03861,"Turn":25,"DayValue":"一","RecycleDate":"一"},{"StopId":17600,"StopName":"信義路187號","ScheduleTime":"18:28","EstimateTime":"","CarInfo":"","Lon":120.309093,"Lat":23.035102,"Turn":26,"DayValue":"一","RecycleDate":"一"},{"StopId":17601,"StopName":"信義路171號","ScheduleTime":"18:30","EstimateTime":"","CarInfo":"","Lon":120.309514,"Lat":23.035207,"Turn":27,"DayValue":"一","RecycleDate":"一"},{"StopId":17602,"StopName":"信義路137號","ScheduleTime":"18:33","EstimateTime":"","CarInfo":"","Lon":120.311136,"Lat":23.035947,"Turn":28,"DayValue":"一","RecycleDate":"一"},{"StopId":17603,"StopName":"信義路111巷29之3號","ScheduleTime":"19:10","EstimateTime":"","CarInfo":"","Lon":120.316628,"Lat":23.03714,"Turn":29,"DayValue":"一","RecycleDate":"一"},{"StopId":17604,"StopName":"中山路202號","ScheduleTime":"19:17","EstimateTime":"","CarInfo":"","Lon":120.308927,"Lat":23.036233,"Turn":30,"DayValue":"一","RecycleDate":"一"},{"StopId":17605,"StopName":"中正路369號","ScheduleTime":"19:20","EstimateTime":"","CarInfo":"","Lon":120.308301,"Lat":23.034637,"Turn":31,"DayValue":"一","RecycleDate":"一"},{"StopId":17606,"StopName":"中正路301之1號","ScheduleTime":"19:25","EstimateTime":"","CarInfo":"","Lon":120.308507,"Lat":23.033235,"Turn":32,"DayValue":"一","RecycleDate":"一"},{"StopId":17607,"StopName":"公園路18號","ScheduleTime":"19:28","EstimateTime":"","CarInfo":"","Lon":120.307877,"Lat":23.029618,"Turn":33,"DayValue":"一","RecycleDate":"一"},{"StopId":17608,"StopName":"中正路244巷口","ScheduleTime":"19:35","EstimateTime":"","CarInfo":"","Lon":120.30835,"Lat":23.029911,"Turn":34,"DayValue":"一","RecycleDate":"一"},{"StopId":17609,"StopName":"和平街45巷口","ScheduleTime":"19:40","EstimateTime":"","CarInfo":"","Lon":120.309356,"Lat":23.033542,"Turn":35,"DayValue":"一","RecycleDate":"一"},{"StopId":17610,"StopName":"和平街13號","ScheduleTime":"19:42","EstimateTime":"","CarInfo":"","Lon":120.310698,"Lat":23.033675,"Turn":36,"DayValue":"一","RecycleDate":"一"},{"StopId":17611,"StopName":"中興路812號","ScheduleTime":"19:46","EstimateTime":"","CarInfo":"","Lon":120.309477,"Lat":23.034578,"Turn":37,"DayValue":"一","RecycleDate":"一"},{"StopId":17612,"StopName":"中正路418號","ScheduleTime":"19:50","EstimateTime":"","CarInfo":"","Lon":120.30797,"Lat":23.036316,"Turn":38,"DayValue":"一","RecycleDate":"一"},{"StopId":17613,"StopName":"仁愛街40號","ScheduleTime":"19:53","EstimateTime":"","CarInfo":"","Lon":120.307898,"Lat":23.037438,"Turn":39,"DayValue":"一","RecycleDate":"一"},{"StopId":17614,"StopName":"仁愛街9號","ScheduleTime":"19:57","EstimateTime":"","CarInfo":"","Lon":120.309814,"Lat":23.037682,"Turn":40,"DayValue":"一","RecycleDate":"一"},{"StopId":17615,"StopName":"建國街3號","ScheduleTime":"20:00","EstimateTime":"","CarInfo":"","Lon":120.30948,"Lat":23.036531,"Turn":41,"DayValue":"一","RecycleDate":"一"},{"StopId":17616,"StopName":"中山路252號","ScheduleTime":"20:02","EstimateTime":"","CarInfo":"","Lon":120.307846,"Lat":23.036049,"Turn":42,"DayValue":"一","RecycleDate":"一"},{"StopId":17617,"StopName":"中山路406號","ScheduleTime":"20:06","EstimateTime":"","CarInfo":"","Lon":120.305156,"Lat":23.035873,"Turn":43,"DayValue":"一","RecycleDate":"一"},{"StopId":17618,"StopName":"中山路522號","ScheduleTime":"20:10","EstimateTime":"","CarInfo":"","Lon":120.30261,"Lat":23.036028,"Turn":44,"DayValue":"一","RecycleDate":"一"},{"StopId":17619,"StopName":"忠孝路271號","ScheduleTime":"20:13","EstimateTime":"","CarInfo":"","Lon":120.301188,"Lat":23.037045,"Turn":45,"DayValue":"一","RecycleDate":"一"},{"StopId":17620,"StopName":"忠孝路141號","ScheduleTime":"20:17","EstimateTime":"","CarInfo":"","Lon":120.304091,"Lat":23.037802,"Turn":46,"DayValue":"一","RecycleDate":"一"},{"StopId":17621,"StopName":"忠孝路45號","ScheduleTime":"20:20","EstimateTime":"","CarInfo":"","Lon":120.306834,"Lat":23.03832,"Turn":47,"DayValue":"一","RecycleDate":"一"},{"StopId":17622,"StopName":"忠孝路11號","ScheduleTime":"20:23","EstimateTime":"","CarInfo":"","Lon":120.309218,"Lat":23.038627,"Turn":48,"DayValue":"一","RecycleDate":"一"}],"CarData":[],"RouteId":264,"RouteName":"新化-6.1(夜間)","RouteInfo":"建國街55號~忠孝路11號","IsWork":false}]