[{"StopData":[{"StopId":3521,"StopName":"外角三民西巷350巷323號","ScheduleTime":"16:30","EstimateTime":"","CarInfo":"","Lon":120.4179975,"Lat":23.3505105,"Turn":1,"DayValue":"五","RecycleDate":""},{"StopId":3522,"StopName":"三官保殿41號","ScheduleTime":"16:34","EstimateTime":"","CarInfo":"","Lon":120.4186063,"Lat":23.3498136,"Turn":2,"DayValue":"五","RecycleDate":""},{"StopId":3523,"StopName":"酒廠工作站光明街69號","ScheduleTime":"16:38","EstimateTime":"","CarInfo":"","Lon":120.4184787,"Lat":23.3516031,"Turn":3,"DayValue":"五","RecycleDate":""},{"StopId":3524,"StopName":"中正路190號","ScheduleTime":"16:40","EstimateTime":"","CarInfo":"","Lon":120.4086172,"Lat":23.3491896,"Turn":4,"DayValue":"五","RecycleDate":""},{"StopId":3525,"StopName":"下秀祐793號","ScheduleTime":"16:42","EstimateTime":"","CarInfo":"","Lon":120.3987121,"Lat":23.3475321,"Turn":5,"DayValue":"五","RecycleDate":""},{"StopId":3526,"StopName":"下秀祐731巷20號","ScheduleTime":"16:44","EstimateTime":"","CarInfo":"","Lon":120.4009225,"Lat":23.3480928,"Turn":6,"DayValue":"五","RecycleDate":""},{"StopId":3527,"StopName":"頂秀祐65號","ScheduleTime":"16:50","EstimateTime":"","CarInfo":"","Lon":120.4021161,"Lat":23.3506492,"Turn":7,"DayValue":"五","RecycleDate":""},{"StopId":3528,"StopName":"舉人街256號","ScheduleTime":"17:07","EstimateTime":"","CarInfo":"","Lon":120.4014702,"Lat":23.3536381,"Turn":8,"DayValue":"五","RecycleDate":""},{"StopId":3529,"StopName":"明晃電機行(中正路117號)","ScheduleTime":"17:17","EstimateTime":"","CarInfo":"","Lon":120.4088451,"Lat":23.3489209,"Turn":9,"DayValue":"五","RecycleDate":""},{"StopId":3530,"StopName":"瓦?子9-5號","ScheduleTime":"17:20","EstimateTime":"","CarInfo":"","Lon":120.4168871,"Lat":23.3440292,"Turn":10,"DayValue":"五","RecycleDate":""},{"StopId":3531,"StopName":"西勢尾159號","ScheduleTime":"17:25","EstimateTime":"","CarInfo":"","Lon":120.4159452,"Lat":23.3404744,"Turn":11,"DayValue":"五","RecycleDate":""},{"StopId":3532,"StopName":"保安宮20-13號","ScheduleTime":"17:35","EstimateTime":"","CarInfo":"","Lon":120.4183796,"Lat":23.3280046,"Turn":12,"DayValue":"五","RecycleDate":""},{"StopId":3533,"StopName":"檨仔林11號","ScheduleTime":"17:45","EstimateTime":"","CarInfo":"","Lon":120.4422126,"Lat":23.3377591,"Turn":13,"DayValue":"五","RecycleDate":""},{"StopId":3534,"StopName":"頂林66號.","ScheduleTime":"17:54","EstimateTime":"","CarInfo":"","Lon":120.4435858,"Lat":23.3420886,"Turn":14,"DayValue":"五","RecycleDate":""},{"StopId":3535,"StopName":"河東顯濟宮80-18號","ScheduleTime":"18:00","EstimateTime":"","CarInfo":"","Lon":120.4362404,"Lat":23.3436819,"Turn":15,"DayValue":"五","RecycleDate":""},{"StopId":3536,"StopName":"潭墘潭底84 -3號","ScheduleTime":"18:05","EstimateTime":"","CarInfo":"","Lon":120.4373739,"Lat":23.3461273,"Turn":16,"DayValue":"五","RecycleDate":""},{"StopId":3537,"StopName":"檨仔坑2鄰15號.","ScheduleTime":"18:30","EstimateTime":"","CarInfo":"","Lon":120.4427007,"Lat":23.3242244,"Turn":17,"DayValue":"五","RecycleDate":""},{"StopId":3538,"StopName":"弄仔內4鄰14號","ScheduleTime":"18:35","EstimateTime":"","CarInfo":"","Lon":120.453714,"Lat":23.3153562,"Turn":18,"DayValue":"五","RecycleDate":""},{"StopId":3539,"StopName":"六重溪22號","ScheduleTime":"18:40","EstimateTime":"","CarInfo":"","Lon":120.4588586,"Lat":23.3098525,"Turn":19,"DayValue":"五","RecycleDate":""},{"StopId":3540,"StopName":"頂埔83號","ScheduleTime":"18:45","EstimateTime":"","CarInfo":"","Lon":120.4698896,"Lat":23.3079309,"Turn":20,"DayValue":"五","RecycleDate":""},{"StopId":3541,"StopName":"六重溪47號","ScheduleTime":"18:50","EstimateTime":"","CarInfo":"","Lon":120.4612456,"Lat":23.3110743,"Turn":21,"DayValue":"五","RecycleDate":""}],"CarData":[],"RouteId":92,"RouteName":"白河-4-5","RouteInfo":"外角三民西巷350巷323號~六重溪47號","IsWork":false}]