[{"StopData":[{"StopId":15525,"StopName":"後鎮63-8號","ScheduleTime":"08:15","EstimateTime":"","CarInfo":"","Lon":120.328279,"Lat":23.3186863,"Turn":1,"DayValue":"一,二,三,四,五","RecycleDate":"三"},{"StopId":15526,"StopName":"長榮路一段501號","ScheduleTime":"08:25","EstimateTime":"","CarInfo":"","Lon":120.3192175,"Lat":23.3196802,"Turn":2,"DayValue":"一,二,三,四,五","RecycleDate":"三"},{"StopId":15527,"StopName":"長榮路一段510號","ScheduleTime":"08:27","EstimateTime":"","CarInfo":"","Lon":120.3186438,"Lat":23.3201812,"Turn":3,"DayValue":"一,二,三,四,五","RecycleDate":"三"},{"StopId":15528,"StopName":"中正路41號","ScheduleTime":"08:32","EstimateTime":"","CarInfo":"","Lon":120.3163448,"Lat":23.3151674,"Turn":4,"DayValue":"一,二,三,四,五","RecycleDate":"三"},{"StopId":15529,"StopName":"中正路30號","ScheduleTime":"08:34","EstimateTime":"","CarInfo":"","Lon":120.316576,"Lat":23.3102765,"Turn":5,"DayValue":"一,二,三,四,五","RecycleDate":"三"},{"StopId":15530,"StopName":"民治路34號","ScheduleTime":"08:36","EstimateTime":"","CarInfo":"","Lon":120.3162537,"Lat":23.310966,"Turn":6,"DayValue":"一,二,三,四,五","RecycleDate":"三"},{"StopId":15531,"StopName":"民治路38號","ScheduleTime":"08:37","EstimateTime":"","CarInfo":"","Lon":120.315636,"Lat":23.311064,"Turn":7,"DayValue":"一,二,三,四,五","RecycleDate":"三"},{"StopId":15532,"StopName":"民治路36號","ScheduleTime":"08:38","EstimateTime":"","CarInfo":"","Lon":120.3147263,"Lat":23.3115468,"Turn":8,"DayValue":"一,二,三,四,五","RecycleDate":"三"},{"StopId":15533,"StopName":"民治路50-2號","ScheduleTime":"08:41","EstimateTime":"","CarInfo":"","Lon":120.3133236,"Lat":23.3107609,"Turn":9,"DayValue":"一,二,三,四,五","RecycleDate":"三"},{"StopId":15534,"StopName":"民治路146-2號","ScheduleTime":"08:42","EstimateTime":"","CarInfo":"","Lon":120.3083485,"Lat":23.3097583,"Turn":10,"DayValue":"一,二,三,四,五","RecycleDate":"三"},{"StopId":15535,"StopName":"民治路160號","ScheduleTime":"08:43","EstimateTime":"","CarInfo":"","Lon":120.3070434,"Lat":23.309316,"Turn":11,"DayValue":"一,二,三,四,五","RecycleDate":"三"},{"StopId":15536,"StopName":"民治路310號","ScheduleTime":"08:45","EstimateTime":"","CarInfo":"","Lon":120.3037435,"Lat":23.3071859,"Turn":12,"DayValue":"一,二,三,四,五","RecycleDate":"三"},{"StopId":15537,"StopName":"新進路二段109號","ScheduleTime":"08:49","EstimateTime":"","CarInfo":"","Lon":120.3100641,"Lat":23.3003527,"Turn":13,"DayValue":"一,二,三,四,五","RecycleDate":"三"},{"StopId":15538,"StopName":"文化街17號","ScheduleTime":"08:52","EstimateTime":"","CarInfo":"","Lon":120.3137819,"Lat":23.3035779,"Turn":14,"DayValue":"一,二,三,四,五","RecycleDate":"三"},{"StopId":15539,"StopName":"新進路230-2號","ScheduleTime":"08:58","EstimateTime":"","CarInfo":"","Lon":120.318544,"Lat":23.301923,"Turn":15,"DayValue":"一,二,三,四,五","RecycleDate":"三"},{"StopId":15540,"StopName":"新進路69-8號(如意大樓)","ScheduleTime":"09:00","EstimateTime":"","CarInfo":"","Lon":120.320885,"Lat":23.304451,"Turn":16,"DayValue":"一,二,三,四,五","RecycleDate":"三"},{"StopId":15541,"StopName":"新進路2-1號","ScheduleTime":"09:14","EstimateTime":"","CarInfo":"","Lon":120.3135005,"Lat":23.3006271,"Turn":17,"DayValue":"一,二,三,四,五","RecycleDate":"三"},{"StopId":15542,"StopName":"東山路12號","ScheduleTime":"09:17","EstimateTime":"","CarInfo":"","Lon":120.3252878,"Lat":23.3090053,"Turn":18,"DayValue":"一,二,三,四,五","RecycleDate":"三"},{"StopId":15543,"StopName":"開元路81號","ScheduleTime":"09:19","EstimateTime":"","CarInfo":"","Lon":120.325038,"Lat":23.3106209,"Turn":19,"DayValue":"一,二,三,四,五","RecycleDate":"三"},{"StopId":15544,"StopName":"大同路16-5號","ScheduleTime":"09:22","EstimateTime":"","CarInfo":"","Lon":120.3229421,"Lat":23.3089413,"Turn":20,"DayValue":"一,二,三,四,五","RecycleDate":"三"},{"StopId":15545,"StopName":"大同路16-10號","ScheduleTime":"09:23","EstimateTime":"","CarInfo":"","Lon":120.3226897,"Lat":23.3092126,"Turn":21,"DayValue":"一,二,三,四,五","RecycleDate":"三"},{"StopId":15546,"StopName":"綠川路22號","ScheduleTime":"09:25","EstimateTime":"","CarInfo":"","Lon":120.3238512,"Lat":23.3105026,"Turn":22,"DayValue":"一,二,三,四,五","RecycleDate":"三"},{"StopId":15547,"StopName":"東興六街49號","ScheduleTime":"09:29","EstimateTime":"","CarInfo":"","Lon":120.3240158,"Lat":23.3141933,"Turn":23,"DayValue":"一,二,三,四,五","RecycleDate":"三"},{"StopId":15548,"StopName":"東興路163號","ScheduleTime":"09:31","EstimateTime":"","CarInfo":"","Lon":120.3228532,"Lat":23.3152922,"Turn":24,"DayValue":"一,二,三,四,五","RecycleDate":"三"},{"StopId":15549,"StopName":"民治路6號","ScheduleTime":"09:35","EstimateTime":"","CarInfo":"","Lon":120.3211904,"Lat":23.311189,"Turn":25,"DayValue":"一,二,三,四,五","RecycleDate":"三"},{"StopId":15550,"StopName":"義和街36號","ScheduleTime":"09:38","EstimateTime":"","CarInfo":"","Lon":120.3190108,"Lat":23.3125438,"Turn":26,"DayValue":"一,二,三,四,五","RecycleDate":"三"},{"StopId":15551,"StopName":"民治路24-2號","ScheduleTime":"09:40","EstimateTime":"","CarInfo":"","Lon":120.3211519,"Lat":23.3118681,"Turn":27,"DayValue":"一,二,三,四,五","RecycleDate":"三"},{"StopId":15552,"StopName":"中正路23號","ScheduleTime":"09:43","EstimateTime":"","CarInfo":"","Lon":120.3162071,"Lat":23.3097445,"Turn":28,"DayValue":"一,二,三,四,五","RecycleDate":"三"},{"StopId":15553,"StopName":"中正路115號","ScheduleTime":"09:45","EstimateTime":"","CarInfo":"","Lon":120.3162234,"Lat":23.3180155,"Turn":29,"DayValue":"一,二,三,四,五","RecycleDate":"三"},{"StopId":15554,"StopName":"中正路5號","ScheduleTime":"09:46","EstimateTime":"","CarInfo":"","Lon":120.315677,"Lat":23.318702,"Turn":30,"DayValue":"一,二,三,四,五","RecycleDate":"三"},{"StopId":15555,"StopName":"中華路1號","ScheduleTime":"09:47","EstimateTime":"","CarInfo":"","Lon":120.314458,"Lat":23.3051219,"Turn":31,"DayValue":"一,二,三,四,五","RecycleDate":"三"},{"StopId":15556,"StopName":"中山路119號","ScheduleTime":"09:49","EstimateTime":"","CarInfo":"","Lon":120.3176725,"Lat":23.3046742,"Turn":32,"DayValue":"一,二,三,四,五","RecycleDate":"三"},{"StopId":15557,"StopName":"中山路115號","ScheduleTime":"09:51","EstimateTime":"","CarInfo":"","Lon":120.3184642,"Lat":23.3050795,"Turn":33,"DayValue":"一,二,三,四,五","RecycleDate":"三"},{"StopId":15558,"StopName":"中山路79號","ScheduleTime":"09:52","EstimateTime":"","CarInfo":"","Lon":120.320855,"Lat":23.306026,"Turn":34,"DayValue":"一,二,三,四,五","RecycleDate":"三"},{"StopId":15559,"StopName":"文昌街34號","ScheduleTime":"09:54","EstimateTime":"","CarInfo":"","Lon":120.3191326,"Lat":23.3062776,"Turn":35,"DayValue":"一,二,三,四,五","RecycleDate":"三"},{"StopId":15560,"StopName":"三民路70號","ScheduleTime":"09:57","EstimateTime":"","CarInfo":"","Lon":120.317381,"Lat":23.307475,"Turn":36,"DayValue":"一,二,三,四,五","RecycleDate":"三"},{"StopId":15561,"StopName":"綠川路北街1-1號","ScheduleTime":"10:00","EstimateTime":"","CarInfo":"","Lon":120.3238524,"Lat":23.3107987,"Turn":37,"DayValue":"一,二,三,四,五","RecycleDate":"三"},{"StopId":15562,"StopName":"中正路8號","ScheduleTime":"10:11","EstimateTime":"","CarInfo":"","Lon":120.31634,"Lat":23.308356,"Turn":38,"DayValue":"一,二,三,四,五","RecycleDate":"三"},{"StopId":15563,"StopName":"中正路479巷45號","ScheduleTime":"10:25","EstimateTime":"","CarInfo":"","Lon":120.313105,"Lat":23.324913,"Turn":39,"DayValue":"一,二,三,四,五","RecycleDate":"三"},{"StopId":15564,"StopName":"中正路439巷128號","ScheduleTime":"10:27","EstimateTime":"","CarInfo":"","Lon":120.31269,"Lat":23.314143,"Turn":40,"DayValue":"一,二,三,四,五","RecycleDate":"三"},{"StopId":15565,"StopName":"長榮路二段78號","ScheduleTime":"10:29","EstimateTime":"","CarInfo":"","Lon":120.309962,"Lat":23.321291,"Turn":41,"DayValue":"一,二,三,四,五","RecycleDate":"三"},{"StopId":15566,"StopName":"三興街380號","ScheduleTime":"10:32","EstimateTime":"","CarInfo":"","Lon":120.3094534,"Lat":23.3226937,"Turn":42,"DayValue":"一,二,三,四,五","RecycleDate":"三"},{"StopId":15567,"StopName":"建國路302號","ScheduleTime":"10:35","EstimateTime":"","CarInfo":"","Lon":120.3076561,"Lat":23.3303155,"Turn":43,"DayValue":"一,二,三,四,五","RecycleDate":"三"},{"StopId":15568,"StopName":"建國路350-1號(每一.四收運)","ScheduleTime":"10:37","EstimateTime":"","CarInfo":"","Lon":120.305931,"Lat":23.33044,"Turn":44,"DayValue":"一,二,三,四,五","RecycleDate":"三"},{"StopId":15569,"StopName":"後鎮63-5號(每一.四收運)","ScheduleTime":"10:38","EstimateTime":"","CarInfo":"","Lon":120.274907,"Lat":23.319948,"Turn":45,"DayValue":"一,二,三,四,五","RecycleDate":"三"}],"CarData":[],"RouteId":362,"RouteName":"新營-輔助點","RouteInfo":"後鎮63-8號~後鎮63-5號(每一.四收運)","IsWork":true}]