[{"StopData":[{"StopId":15872,"StopName":"崇明11街與崇明路口","ScheduleTime":"16:00","EstimateTime":"","CarInfo":"","Lon":120.22217,"Lat":22.975395,"Turn":1,"DayValue":"一,二,四,六","RecycleDate":"一,四"},{"StopId":15873,"StopName":"崇明11街10巷22號前","ScheduleTime":"16:02","EstimateTime":"","CarInfo":"","Lon":120.223206,"Lat":22.975722,"Turn":2,"DayValue":"一,二,四,六","RecycleDate":"一,四"},{"StopId":15874,"StopName":"崇明12街26號前","ScheduleTime":"16:05","EstimateTime":"","CarInfo":"","Lon":120.223413,"Lat":22.975272,"Turn":3,"DayValue":"一,二,四,六","RecycleDate":"一,四"},{"StopId":15875,"StopName":"崇明12街62號前","ScheduleTime":"16:07","EstimateTime":"","CarInfo":"","Lon":120.223888,"Lat":22.975799,"Turn":4,"DayValue":"一,二,四,六","RecycleDate":"一,四"},{"StopId":15876,"StopName":"崇明11街31巷號前","ScheduleTime":"16:10","EstimateTime":"","CarInfo":"","Lon":120.22286,"Lat":22.976099,"Turn":5,"DayValue":"一,二,四,六","RecycleDate":"一,四"},{"StopId":15877,"StopName":"崇明11街3號前","ScheduleTime":"16:13","EstimateTime":"","CarInfo":"","Lon":120.222481,"Lat":22.975748,"Turn":6,"DayValue":"一,二,四,六","RecycleDate":"一,四"},{"StopId":15878,"StopName":"崇明10街70巷口(光寶眼鏡)","ScheduleTime":"16:15","EstimateTime":"","CarInfo":"","Lon":120.22193,"Lat":22.976463,"Turn":7,"DayValue":"一,二,四,六","RecycleDate":"一,四"},{"StopId":15879,"StopName":"榮譽街290巷7號(老地方停車場前","ScheduleTime":"16:21","EstimateTime":"","CarInfo":"","Lon":120.221946,"Lat":22.977278,"Turn":8,"DayValue":"一,二,四,六","RecycleDate":"一,四"},{"StopId":15880,"StopName":"崇明9街108號前","ScheduleTime":"16:23","EstimateTime":"","CarInfo":"","Lon":120.221534,"Lat":22.976714,"Turn":9,"DayValue":"一,二,四,六","RecycleDate":"一,四"},{"StopId":15881,"StopName":"榮譽街及崇學路16巷口","ScheduleTime":"16:25","EstimateTime":"","CarInfo":"","Lon":120.221127,"Lat":22.977118,"Turn":10,"DayValue":"一,二,四,六","RecycleDate":"一,四"},{"StopId":15882,"StopName":"崇學路16巷口(文化大廈)","ScheduleTime":"16:27","EstimateTime":"","CarInfo":"","Lon":120.220719,"Lat":22.977647,"Turn":11,"DayValue":"一,二,四,六","RecycleDate":"一,四"},{"StopId":15883,"StopName":"崇學路56巷24號前","ScheduleTime":"16:29","EstimateTime":"","CarInfo":"","Lon":120.222355,"Lat":22.978144,"Turn":12,"DayValue":"一,二,四,六","RecycleDate":"一,四"},{"StopId":15884,"StopName":"崇學路56巷53號巷口","ScheduleTime":"16:34","EstimateTime":"","CarInfo":"","Lon":120.223575,"Lat":22.97766,"Turn":13,"DayValue":"一,二,四,六","RecycleDate":"一,四"},{"StopId":15885,"StopName":"崇德四街3巷1號前","ScheduleTime":"16:38","EstimateTime":"","CarInfo":"","Lon":120.224461,"Lat":22.97671,"Turn":14,"DayValue":"一,二,四,六","RecycleDate":"一,四"},{"StopId":15886,"StopName":"崇德四街5巷3號前","ScheduleTime":"16:40","EstimateTime":"","CarInfo":"","Lon":120.224652,"Lat":22.97702,"Turn":15,"DayValue":"一,二,四,六","RecycleDate":"一,四"},{"StopId":15887,"StopName":"崇德四街5巷38號前","ScheduleTime":"16:44","EstimateTime":"","CarInfo":"","Lon":120.223723,"Lat":22.97776,"Turn":16,"DayValue":"一,二,四,六","RecycleDate":"一,四"},{"StopId":15888,"StopName":"崇德路333巷23弄口","ScheduleTime":"16:46","EstimateTime":"","CarInfo":"","Lon":120.222756,"Lat":22.978463,"Turn":17,"DayValue":"一,二,四,六","RecycleDate":"一,四"},{"StopId":15889,"StopName":"崇德路333巷23弄38號前","ScheduleTime":"16:48","EstimateTime":"","CarInfo":"","Lon":120.223392,"Lat":22.97861,"Turn":18,"DayValue":"一,二,四,六","RecycleDate":"一,四"},{"StopId":15890,"StopName":"崇學路96巷8弄口","ScheduleTime":"16:50","EstimateTime":"","CarInfo":"","Lon":120.222745,"Lat":22.97844,"Turn":19,"DayValue":"一,二,四,六","RecycleDate":"一,四"},{"StopId":15891,"StopName":"崇德四街7巷47號前","ScheduleTime":"16:52","EstimateTime":"","CarInfo":"","Lon":120.224403,"Lat":22.977883,"Turn":20,"DayValue":"一,二,四,六","RecycleDate":"一,四"},{"StopId":15892,"StopName":"崇德四街7巷9號前","ScheduleTime":"16:54","EstimateTime":"","CarInfo":"","Lon":120.225143,"Lat":22.977441,"Turn":21,"DayValue":"一,二,四,六","RecycleDate":"一,四"},{"StopId":15893,"StopName":"崇德四街37號(托兒所)前","ScheduleTime":"16:57","EstimateTime":"","CarInfo":"","Lon":120.225802,"Lat":22.978084,"Turn":22,"DayValue":"一,二,四,六","RecycleDate":"一,四"},{"StopId":15894,"StopName":"崇善路182巷3弄口","ScheduleTime":"17:00","EstimateTime":"","CarInfo":"","Lon":120.225461,"Lat":22.97829,"Turn":23,"DayValue":"一,二,四,六","RecycleDate":"一,四"},{"StopId":15895,"StopName":"中華東路三段170號中油西站","ScheduleTime":"19:00","EstimateTime":"","CarInfo":"","Lon":120.226141,"Lat":22.977641,"Turn":24,"DayValue":"一,二,四,六","RecycleDate":"一,四"},{"StopId":15896,"StopName":"崇德四街7巷口","ScheduleTime":"19:02","EstimateTime":"","CarInfo":"","Lon":120.225192,"Lat":22.97734,"Turn":25,"DayValue":"一,二,四,六","RecycleDate":"一,四"},{"StopId":15897,"StopName":"崇德四街5巷38號前","ScheduleTime":"19:04","EstimateTime":"","CarInfo":"","Lon":120.224163,"Lat":22.977437,"Turn":26,"DayValue":"一,二,四,六","RecycleDate":"一,四"},{"StopId":15898,"StopName":"崇德路333巷23弄口","ScheduleTime":"19:06","EstimateTime":"","CarInfo":"","Lon":120.223654,"Lat":22.977764,"Turn":27,"DayValue":"一,二,四,六","RecycleDate":"一,四"},{"StopId":15899,"StopName":"崇德路與崇德4街口","ScheduleTime":"19:08","EstimateTime":"","CarInfo":"","Lon":120.223139,"Lat":22.977064,"Turn":28,"DayValue":"一,二,四,六","RecycleDate":"一,四"},{"StopId":15900,"StopName":"崇德路333巷口","ScheduleTime":"19:10","EstimateTime":"","CarInfo":"","Lon":120.223706,"Lat":22.977759,"Turn":29,"DayValue":"一,二,四,六","RecycleDate":"一,四"},{"StopId":15901,"StopName":"崇德路288號對面","ScheduleTime":"19:12","EstimateTime":"","CarInfo":"","Lon":120.222768,"Lat":22.977343,"Turn":30,"DayValue":"一,二,四,六","RecycleDate":"一,四"},{"StopId":15902,"StopName":"崇學路96巷口","ScheduleTime":"19:15","EstimateTime":"","CarInfo":"","Lon":120.222641,"Lat":22.979031,"Turn":31,"DayValue":"一,二,四,六","RecycleDate":"一,四"},{"StopId":15903,"StopName":"崇學路188巷17號前","ScheduleTime":"19:17","EstimateTime":"","CarInfo":"","Lon":120.225706,"Lat":22.981628,"Turn":32,"DayValue":"一,二,四,六","RecycleDate":"一,四"},{"StopId":15904,"StopName":"崇學路188巷48號前與142巷口","ScheduleTime":"19:21","EstimateTime":"","CarInfo":"","Lon":120.224923,"Lat":22.980753,"Turn":33,"DayValue":"一,二,四,六","RecycleDate":"一,四"},{"StopId":15905,"StopName":"崇學路142巷10弄18號前","ScheduleTime":"19:25","EstimateTime":"","CarInfo":"","Lon":120.224516,"Lat":22.980258,"Turn":34,"DayValue":"一,二,四,六","RecycleDate":"一,四"},{"StopId":15906,"StopName":"崇善路205巷3號(建台公司)前","ScheduleTime":"19:29","EstimateTime":"","CarInfo":"","Lon":120.224995,"Lat":22.979991,"Turn":35,"DayValue":"一,二,四,六","RecycleDate":"一,四"},{"StopId":15907,"StopName":"崇學路230巷108號前","ScheduleTime":"19:32","EstimateTime":"","CarInfo":"","Lon":120.225662,"Lat":22.980005,"Turn":36,"DayValue":"一,二,四,六","RecycleDate":"一,四"},{"StopId":15908,"StopName":"崇善路231巷12號前","ScheduleTime":"19:34","EstimateTime":"","CarInfo":"","Lon":120.225863,"Lat":22.979435,"Turn":37,"DayValue":"一,二,四,六","RecycleDate":"一,四"},{"StopId":15909,"StopName":"崇善一街5號(計程車工會)前","ScheduleTime":"19:37","EstimateTime":"","CarInfo":"","Lon":120.22655,"Lat":22.978859,"Turn":38,"DayValue":"一,二,四,六","RecycleDate":"一,四"},{"StopId":15910,"StopName":"崇善一街43巷4號前","ScheduleTime":"19:41","EstimateTime":"","CarInfo":"","Lon":120.226848,"Lat":22.979534,"Turn":39,"DayValue":"一,二,四,六","RecycleDate":"一,四"},{"StopId":15911,"StopName":"崇善一街43巷32號前","ScheduleTime":"19:43","EstimateTime":"","CarInfo":"","Lon":120.226715,"Lat":22.979967,"Turn":40,"DayValue":"一,二,四,六","RecycleDate":"一,四"},{"StopId":15912,"StopName":"崇學路230巷60號前","ScheduleTime":"19:47","EstimateTime":"","CarInfo":"","Lon":120.225911,"Lat":22.980743,"Turn":41,"DayValue":"一,二,四,六","RecycleDate":"一,四"},{"StopId":15913,"StopName":"崇信街50巷8號前","ScheduleTime":"19:52","EstimateTime":"","CarInfo":"","Lon":120.226153,"Lat":22.981785,"Turn":42,"DayValue":"一,二,四,六","RecycleDate":"一,四"},{"StopId":15914,"StopName":"崇學路212號前","ScheduleTime":"19:54","EstimateTime":"","CarInfo":"","Lon":120.225814,"Lat":22.982352,"Turn":43,"DayValue":"一,二,四,六","RecycleDate":"一,四"},{"StopId":15915,"StopName":"崇信街51號前","ScheduleTime":"19:56","EstimateTime":"","CarInfo":"","Lon":120.227106,"Lat":22.981885,"Turn":44,"DayValue":"一,二,四,六","RecycleDate":"一,四"},{"StopId":15916,"StopName":"崇信街87號前","ScheduleTime":"19:59","EstimateTime":"","CarInfo":"","Lon":120.226984,"Lat":22.980643,"Turn":45,"DayValue":"一,二,四,六","RecycleDate":"一,四"},{"StopId":15917,"StopName":"崇信街134號前","ScheduleTime":"20:01","EstimateTime":"","CarInfo":"","Lon":120.227294,"Lat":22.979831,"Turn":46,"DayValue":"一,二,四,六","RecycleDate":"一,四"},{"StopId":15918,"StopName":"崇善一街116號前","ScheduleTime":"20:03","EstimateTime":"","CarInfo":"","Lon":120.227487,"Lat":22.980742,"Turn":47,"DayValue":"一,二,四,六","RecycleDate":"一,四"},{"StopId":15919,"StopName":"崇善一街149號前","ScheduleTime":"20:05","EstimateTime":"","CarInfo":"","Lon":120.227642,"Lat":22.981391,"Turn":48,"DayValue":"一,二,四,六","RecycleDate":"一,四"},{"StopId":15920,"StopName":"東門路二段390巷19號","ScheduleTime":"20:07","EstimateTime":"","CarInfo":"","Lon":120.227473,"Lat":22.981806,"Turn":49,"DayValue":"一,二,四,六","RecycleDate":"一,四"},{"StopId":15921,"StopName":"崇信街8號對面","ScheduleTime":"20:09","EstimateTime":"","CarInfo":"","Lon":120.226421,"Lat":22.982689,"Turn":50,"DayValue":"一,二,四,六","RecycleDate":"一,四"},{"StopId":15922,"StopName":"東門路二段390巷口","ScheduleTime":"20:12","EstimateTime":"","CarInfo":"","Lon":120.227229,"Lat":22.982598,"Turn":51,"DayValue":"一,二,四,六","RecycleDate":"一,四"},{"StopId":15923,"StopName":"東門路二段436號(慈惠堂)前","ScheduleTime":"20:14","EstimateTime":"","CarInfo":"","Lon":120.228556,"Lat":22.981579,"Turn":52,"DayValue":"一,二,四,六","RecycleDate":"一,四"}],"CarData":[],"RouteId":176,"RouteName":"東區-10","RouteInfo":"崇明11街與崇明路口~東門路二段436號(慈惠堂)前","IsWork":true}]