[{"StopData":[{"StopId":11056,"StopName":"建平路上瑪莉洋房餐廳","ScheduleTime":"14:20","EstimateTime":"","CarInfo":"","Lon":120.183135,"Lat":22.992621,"Turn":1,"DayValue":"一,二,四,六","RecycleDate":"一,四"},{"StopId":11057,"StopName":"選舉委員會、華平派出所、地政事務所、永華路消防隊、調查局","ScheduleTime":"14:25","EstimateTime":"","CarInfo":"","Lon":120.181898,"Lat":22.990984,"Turn":2,"DayValue":"一,二,四,六","RecycleDate":"一,四"},{"StopId":11058,"StopName":"永華路二段216號(中油加油站)","ScheduleTime":"14:30","EstimateTime":"","CarInfo":"","Lon":120.180938,"Lat":22.989961,"Turn":3,"DayValue":"一,二,四,六","RecycleDate":"一,四"},{"StopId":11059,"StopName":"建平十七街65號前","ScheduleTime":"14:37","EstimateTime":"","CarInfo":"","Lon":120.181455,"Lat":22.99745,"Turn":4,"DayValue":"一,二,四,六","RecycleDate":"一,四"},{"StopId":11060,"StopName":"府前三街155號前","ScheduleTime":"14:42","EstimateTime":"","CarInfo":"","Lon":120.185616,"Lat":22.99572,"Turn":5,"DayValue":"一,二,四,六","RecycleDate":"一,四"},{"StopId":11061,"StopName":"府前三街129號","ScheduleTime":"14:44","EstimateTime":"","CarInfo":"","Lon":120.185591,"Lat":22.995178,"Turn":6,"DayValue":"一,二,四,六","RecycleDate":"一,四"},{"StopId":11062,"StopName":"府前三街與府前路二段口","ScheduleTime":"14:47","EstimateTime":"","CarInfo":"","Lon":120.185999,"Lat":22.992954,"Turn":7,"DayValue":"一,二,四,六","RecycleDate":"一,四"},{"StopId":11063,"StopName":"府前四街98號前(基督教)","ScheduleTime":"14:49","EstimateTime":"","CarInfo":"","Lon":120.18514,"Lat":22.995163,"Turn":8,"DayValue":"一,二,四,六","RecycleDate":"一,四"},{"StopId":11064,"StopName":"府前四街111號前","ScheduleTime":"14:51","EstimateTime":"","CarInfo":"","Lon":120.185041,"Lat":22.995533,"Turn":9,"DayValue":"一,二,四,六","RecycleDate":"一,四"},{"StopId":11065,"StopName":"建平十街37號前","ScheduleTime":"14:53","EstimateTime":"","CarInfo":"","Lon":120.184223,"Lat":22.993865,"Turn":10,"DayValue":"一,二,四,六","RecycleDate":"一,四"},{"StopId":11066,"StopName":"慶平路62號","ScheduleTime":"14:56","EstimateTime":"","CarInfo":"","Lon":120.182789,"Lat":22.997038,"Turn":11,"DayValue":"一,二,四,六","RecycleDate":"一,四"},{"StopId":11067,"StopName":"慶平路88號","ScheduleTime":"14:58","EstimateTime":"","CarInfo":"","Lon":120.181888,"Lat":22.997098,"Turn":12,"DayValue":"一,二,四,六","RecycleDate":"一,四"},{"StopId":11068,"StopName":"慶平路98號","ScheduleTime":"15:00","EstimateTime":"","CarInfo":"","Lon":120.181401,"Lat":22.99713,"Turn":13,"DayValue":"一,二,四,六","RecycleDate":"一,四"},{"StopId":11069,"StopName":"慶平路166號","ScheduleTime":"15:02","EstimateTime":"","CarInfo":"","Lon":120.18009,"Lat":22.997173,"Turn":14,"DayValue":"一,二,四,六","RecycleDate":"一,四"},{"StopId":11070,"StopName":"建平十二街134號","ScheduleTime":"15:04","EstimateTime":"","CarInfo":"","Lon":120.180678,"Lat":22.995207,"Turn":15,"DayValue":"一,二,四,六","RecycleDate":"一,四"},{"StopId":11071,"StopName":"建平十二街80號","ScheduleTime":"15:05","EstimateTime":"","CarInfo":"","Lon":120.182633,"Lat":22.99498,"Turn":16,"DayValue":"一,二,四,六","RecycleDate":"一,四"},{"StopId":11072,"StopName":"建平十三街23號","ScheduleTime":"15:07","EstimateTime":"","CarInfo":"","Lon":120.183299,"Lat":22.995397,"Turn":17,"DayValue":"一,二,四,六","RecycleDate":"一,四"},{"StopId":11073,"StopName":"建平十三街47號","ScheduleTime":"15:09","EstimateTime":"","CarInfo":"","Lon":120.182695,"Lat":22.99547,"Turn":18,"DayValue":"一,二,四,六","RecycleDate":"一,四"},{"StopId":11074,"StopName":"建平十三街與永華三街口","ScheduleTime":"15:11","EstimateTime":"","CarInfo":"","Lon":120.181997,"Lat":22.995544,"Turn":19,"DayValue":"一,二,四,六","RecycleDate":"一,四"},{"StopId":11075,"StopName":"建平十三街90號","ScheduleTime":"15:13","EstimateTime":"","CarInfo":"","Lon":120.18119,"Lat":22.995633,"Turn":20,"DayValue":"一,二,四,六","RecycleDate":"一,四"},{"StopId":11076,"StopName":"建平十四街122號","ScheduleTime":"15:15","EstimateTime":"","CarInfo":"","Lon":120.181326,"Lat":22.995984,"Turn":21,"DayValue":"一,二,四,六","RecycleDate":"一,四"},{"StopId":11077,"StopName":"建平十四街55號","ScheduleTime":"15:17","EstimateTime":"","CarInfo":"","Lon":120.182613,"Lat":22.995836,"Turn":22,"DayValue":"一,二,四,六","RecycleDate":"一,四"},{"StopId":11078,"StopName":"建平十五街131號","ScheduleTime":"15:19","EstimateTime":"","CarInfo":"","Lon":120.183021,"Lat":22.996369,"Turn":23,"DayValue":"一,二,四,六","RecycleDate":"一,四"},{"StopId":11079,"StopName":"建平十五街56號","ScheduleTime":"15:21","EstimateTime":"","CarInfo":"","Lon":120.182628,"Lat":22.996404,"Turn":24,"DayValue":"一,二,四,六","RecycleDate":"一,四"},{"StopId":11080,"StopName":"建平十五街187號","ScheduleTime":"15:23","EstimateTime":"","CarInfo":"","Lon":120.181483,"Lat":22.996509,"Turn":25,"DayValue":"一,二,四,六","RecycleDate":"一,四"},{"StopId":11081,"StopName":"慶平路45號","ScheduleTime":"15:25","EstimateTime":"","CarInfo":"","Lon":120.183443,"Lat":22.996814,"Turn":26,"DayValue":"一,二,四,六","RecycleDate":"一,四"},{"StopId":11082,"StopName":"建平十一街82號旁","ScheduleTime":"15:27","EstimateTime":"","CarInfo":"","Lon":120.182707,"Lat":22.994589,"Turn":27,"DayValue":"一,二,四,六","RecycleDate":"一,四"},{"StopId":11083,"StopName":"建平十一街126號前","ScheduleTime":"15:28","EstimateTime":"","CarInfo":"","Lon":120.181376,"Lat":22.994746,"Turn":28,"DayValue":"一,二,四,六","RecycleDate":"一,四"},{"StopId":11084,"StopName":"建平十一街166號前","ScheduleTime":"15:29","EstimateTime":"","CarInfo":"","Lon":120.180406,"Lat":22.994858,"Turn":29,"DayValue":"一,二,四,六","RecycleDate":"一,四"},{"StopId":11085,"StopName":"怡平路140巷37弄1之5號","ScheduleTime":"15:31","EstimateTime":"","CarInfo":"","Lon":120.179641,"Lat":22.994481,"Turn":30,"DayValue":"一,二,四,六","RecycleDate":"一,四"},{"StopId":11086,"StopName":"文平路479號","ScheduleTime":"15:33","EstimateTime":"","CarInfo":"","Lon":120.178822,"Lat":22.994515,"Turn":31,"DayValue":"一,二,四,六","RecycleDate":"一,四"},{"StopId":11087,"StopName":"怡平路140巷27弄7號","ScheduleTime":"15:35","EstimateTime":"","CarInfo":"","Lon":120.179443,"Lat":22.994009,"Turn":32,"DayValue":"一,二,四,六","RecycleDate":"一,四"},{"StopId":11088,"StopName":"怡平路140巷17弄3號","ScheduleTime":"15:37","EstimateTime":"","CarInfo":"","Lon":120.179245,"Lat":22.993687,"Turn":33,"DayValue":"一,二,四,六","RecycleDate":"一,四"},{"StopId":11089,"StopName":"怡平路123號","ScheduleTime":"15:39","EstimateTime":"","CarInfo":"","Lon":120.179518,"Lat":22.993087,"Turn":34,"DayValue":"一,二,四,六","RecycleDate":"一,四"},{"StopId":11090,"StopName":"平通路口與永華五街113號前","ScheduleTime":"15:41","EstimateTime":"","CarInfo":"","Lon":120.179716,"Lat":22.992613,"Turn":35,"DayValue":"一,二,四,六","RecycleDate":"一,四"},{"StopId":11091,"StopName":"平通路84巷3號","ScheduleTime":"15:43","EstimateTime":"","CarInfo":"","Lon":120.180948,"Lat":22.992365,"Turn":36,"DayValue":"一,二,四,六","RecycleDate":"一,四"},{"StopId":11092,"StopName":"平通路60號前","ScheduleTime":"15:45","EstimateTime":"","CarInfo":"","Lon":120.18146,"Lat":22.992301,"Turn":37,"DayValue":"一,二,四,六","RecycleDate":"一,四"},{"StopId":11093,"StopName":"平通路27號口","ScheduleTime":"15:47","EstimateTime":"","CarInfo":"","Lon":120.1822,"Lat":22.99222,"Turn":38,"DayValue":"一,二,四,六","RecycleDate":"一,四"},{"StopId":11094,"StopName":"永華三街75號","ScheduleTime":"15:49","EstimateTime":"","CarInfo":"","Lon":120.181556,"Lat":22.991939,"Turn":39,"DayValue":"一,二,四,六","RecycleDate":"一,四"},{"StopId":11095,"StopName":"建平九街48號前","ScheduleTime":"15:51","EstimateTime":"","CarInfo":"","Lon":120.181077,"Lat":22.99109,"Turn":40,"DayValue":"一,二,四,六","RecycleDate":"一,四"},{"StopId":11096,"StopName":"建平九街60巷33號口","ScheduleTime":"15:53","EstimateTime":"","CarInfo":"","Lon":120.180927,"Lat":22.991472,"Turn":41,"DayValue":"一,二,四,六","RecycleDate":"一,四"},{"StopId":11097,"StopName":"建平九街60巷31弄16號","ScheduleTime":"15:54","EstimateTime":"","CarInfo":"","Lon":120.180535,"Lat":22.99205,"Turn":42,"DayValue":"一,二,四,六","RecycleDate":"一,四"},{"StopId":11098,"StopName":"建平九街60巷31弄38號口與永華五街89號口","ScheduleTime":"15:56","EstimateTime":"","CarInfo":"","Lon":120.179664,"Lat":22.992168,"Turn":43,"DayValue":"一,二,四,六","RecycleDate":"一,四"},{"StopId":11099,"StopName":"永華五街75號與建平九街60巷13弄29號十字路口","ScheduleTime":"15:58","EstimateTime":"","CarInfo":"","Lon":120.179564,"Lat":22.99172,"Turn":44,"DayValue":"一,二,四,六","RecycleDate":"一,四"},{"StopId":11100,"StopName":"建平八街108巷36號","ScheduleTime":"16:01","EstimateTime":"","CarInfo":"","Lon":120.179072,"Lat":22.99162,"Turn":45,"DayValue":"一,二,四,六","RecycleDate":"一,四"},{"StopId":11101,"StopName":"永華五街與建平八街路口","ScheduleTime":"16:03","EstimateTime":"","CarInfo":"","Lon":120.17946,"Lat":22.990639,"Turn":46,"DayValue":"一,二,四,六","RecycleDate":"一,四"},{"StopId":11102,"StopName":"永華路470號","ScheduleTime":"16:05","EstimateTime":"","CarInfo":"","Lon":120.176184,"Lat":22.990579,"Turn":47,"DayValue":"一,二,四,六","RecycleDate":"一,四"},{"StopId":11103,"StopName":"永華路二段與華平路口","ScheduleTime":"16:07","EstimateTime":"","CarInfo":"","Lon":120.175107,"Lat":22.990771,"Turn":48,"DayValue":"一,二,四,六","RecycleDate":"一,四"},{"StopId":11104,"StopName":"華平路472號旁空地","ScheduleTime":"16:09","EstimateTime":"","CarInfo":"","Lon":120.175351,"Lat":22.992467,"Turn":49,"DayValue":"一,二,四,六","RecycleDate":"一,四"},{"StopId":11105,"StopName":"國平路552巷與永華八街路口","ScheduleTime":"16:12","EstimateTime":"","CarInfo":"","Lon":120.172841,"Lat":22.996597,"Turn":50,"DayValue":"一,二,四,六","RecycleDate":"一,四"},{"StopId":11106,"StopName":"育平九街142巷73號","ScheduleTime":"16:14","EstimateTime":"","CarInfo":"","Lon":120.172322,"Lat":22.996411,"Turn":51,"DayValue":"一,二,四,六","RecycleDate":"一,四"},{"StopId":11107,"StopName":"育平九街142巷46號","ScheduleTime":"16:16","EstimateTime":"","CarInfo":"","Lon":120.172274,"Lat":22.996077,"Turn":52,"DayValue":"一,二,四,六","RecycleDate":"一,四"},{"StopId":11108,"StopName":"永華八街325號","ScheduleTime":"16:18","EstimateTime":"","CarInfo":"","Lon":120.172891,"Lat":22.995724,"Turn":53,"DayValue":"一,二,四,六","RecycleDate":"一,四"},{"StopId":11109,"StopName":"怡平路468巷72號","ScheduleTime":"16:20","EstimateTime":"","CarInfo":"","Lon":120.173347,"Lat":22.995582,"Turn":54,"DayValue":"一,二,四,六","RecycleDate":"一,四"},{"StopId":11110,"StopName":"怡平路468巷31號","ScheduleTime":"16:22","EstimateTime":"","CarInfo":"","Lon":120.173194,"Lat":22.994483,"Turn":55,"DayValue":"一,二,四,六","RecycleDate":"一,四"},{"StopId":11111,"StopName":"怡平路475號","ScheduleTime":"16:24","EstimateTime":"","CarInfo":"","Lon":120.173108,"Lat":22.993862,"Turn":56,"DayValue":"一,二,四,六","RecycleDate":"一,四"},{"StopId":11112,"StopName":"怡平路442巷16號","ScheduleTime":"16:26","EstimateTime":"","CarInfo":"","Lon":120.173812,"Lat":22.994389,"Turn":57,"DayValue":"一,二,四,六","RecycleDate":"一,四"},{"StopId":11113,"StopName":"怡平路442巷61號","ScheduleTime":"16:28","EstimateTime":"","CarInfo":"","Lon":120.173925,"Lat":22.99522,"Turn":58,"DayValue":"一,二,四,六","RecycleDate":"一,四"},{"StopId":11114,"StopName":"怡平路442巷105號","ScheduleTime":"16:30","EstimateTime":"","CarInfo":"","Lon":120.174023,"Lat":22.995903,"Turn":59,"DayValue":"一,二,四,六","RecycleDate":"一,四"},{"StopId":11115,"StopName":"健康二街527號","ScheduleTime":"16:32","EstimateTime":"","CarInfo":"","Lon":120.17448,"Lat":22.995951,"Turn":60,"DayValue":"一,二,四,六","RecycleDate":"一,四"},{"StopId":11116,"StopName":"健康二街453號","ScheduleTime":"16:34","EstimateTime":"","CarInfo":"","Lon":120.174184,"Lat":22.993888,"Turn":61,"DayValue":"一,二,四,六","RecycleDate":"一,四"},{"StopId":11117,"StopName":"平通路446號","ScheduleTime":"16:36","EstimateTime":"","CarInfo":"","Lon":120.173606,"Lat":22.993367,"Turn":62,"DayValue":"一,二,四,六","RecycleDate":"一,四"},{"StopId":11118,"StopName":"平通路與永華八街街口","ScheduleTime":"16:38","EstimateTime":"","CarInfo":"","Lon":120.172615,"Lat":22.9935,"Turn":63,"DayValue":"一,二,四,六","RecycleDate":"一,四"}],"CarData":[],"RouteId":335,"RouteName":"安平區-3(下午)","RouteInfo":"建平路上瑪莉洋房餐廳~平通路與永華八街街口","IsWork":true}]