[{"StopData":[{"StopId":8180,"StopName":"裕農路198號","ScheduleTime":"16:30","EstimateTime":"","CarInfo":"","Lon":120.424497,"Lat":23.352274,"Turn":1,"DayValue":"三","RecycleDate":""},{"StopId":8181,"StopName":"北勢頭7-11中山路169號","ScheduleTime":"16:58","EstimateTime":"","CarInfo":"","Lon":120.417519,"Lat":23.353124,"Turn":2,"DayValue":"三","RecycleDate":""},{"StopId":8182,"StopName":"昇安7-11三間厝2-56號","ScheduleTime":"17:05","EstimateTime":"","CarInfo":"","Lon":120.4253,"Lat":23.363101,"Turn":3,"DayValue":"三","RecycleDate":""},{"StopId":8183,"StopName":"全安宮大廟三間厝29號","ScheduleTime":"17:10","EstimateTime":"","CarInfo":"","Lon":120.429829,"Lat":23.364175,"Turn":4,"DayValue":"三","RecycleDate":""},{"StopId":8184,"StopName":"財星社區三間厝399號","ScheduleTime":"17:40","EstimateTime":"","CarInfo":"","Lon":120.428898,"Lat":23.373779,"Turn":5,"DayValue":"三","RecycleDate":""},{"StopId":8185,"StopName":"埤子頭大廟埤子頭6號","ScheduleTime":"17:45","EstimateTime":"","CarInfo":"","Lon":120.438104,"Lat":23.367746,"Turn":6,"DayValue":"三","RecycleDate":""},{"StopId":8186,"StopName":"美雅傢俱甘宅101-1號","ScheduleTime":"18:15","EstimateTime":"","CarInfo":"","Lon":120.43325,"Lat":23.383072,"Turn":7,"DayValue":"三","RecycleDate":""},{"StopId":8187,"StopName":"女媧娘娘","ScheduleTime":"18:40","EstimateTime":"","CarInfo":"","Lon":120.434467,"Lat":23.401121,"Turn":8,"DayValue":"三","RecycleDate":""},{"StopId":8188,"StopName":"關帝廟草店135號","ScheduleTime":"18:58","EstimateTime":"","CarInfo":"","Lon":120.426153,"Lat":23.3959,"Turn":9,"DayValue":"三","RecycleDate":""},{"StopId":8189,"StopName":"日光幼稚園","ScheduleTime":"19:10","EstimateTime":"","CarInfo":"","Lon":120.421024,"Lat":23.35823,"Turn":10,"DayValue":"三","RecycleDate":""}],"CarData":[],"RouteId":398,"RouteName":"白河-2-3","RouteInfo":"裕農路198號~日光幼稚園","IsWork":false}]