[{"StopData":[{"StopId":6189,"StopName":"番子寮41之11號（佳里山莊前）","ScheduleTime":"14:36","EstimateTime":"","CarInfo":"","Lon":120.163217,"Lat":23.179463,"Turn":1,"DayValue":"一,三,五,六","RecycleDate":"一,五"},{"StopId":6190,"StopName":"番子寮26之10號","ScheduleTime":"14:39","EstimateTime":"","CarInfo":"","Lon":120.162272,"Lat":23.182031,"Turn":2,"DayValue":"一,三,五,六","RecycleDate":"一,五"},{"StopId":6191,"StopName":"番子寮102之10號","ScheduleTime":"14:42","EstimateTime":"","CarInfo":"","Lon":120.160791,"Lat":23.181678,"Turn":3,"DayValue":"一,三,五,六","RecycleDate":"一,五"},{"StopId":6192,"StopName":"番子寮151之2號","ScheduleTime":"14:44","EstimateTime":"","CarInfo":"","Lon":120.158084,"Lat":23.180979,"Turn":4,"DayValue":"一,三,五,六","RecycleDate":"一,五"},{"StopId":6193,"StopName":"番子寮253號","ScheduleTime":"14:46","EstimateTime":"","CarInfo":"","Lon":120.155315,"Lat":23.180857,"Turn":5,"DayValue":"一,三,五,六","RecycleDate":"一,五"},{"StopId":6194,"StopName":"番子寮200號（應元宮）","ScheduleTime":"14:50","EstimateTime":"","CarInfo":"","Lon":120.154609,"Lat":23.179863,"Turn":6,"DayValue":"一,三,五,六","RecycleDate":"一,五"},{"StopId":6195,"StopName":"番子寮243號(小圓環)","ScheduleTime":"14:54","EstimateTime":"","CarInfo":"","Lon":120.15548,"Lat":23.1819,"Turn":7,"DayValue":"一,三,五,六","RecycleDate":"一,五"},{"StopId":6196,"StopName":"番子寮265號","ScheduleTime":"14:57","EstimateTime":"","CarInfo":"","Lon":120.153907,"Lat":23.179165,"Turn":8,"DayValue":"一,三,五,六","RecycleDate":"一,五"},{"StopId":6197,"StopName":"番子寮288號（西方堂）","ScheduleTime":"15:00","EstimateTime":"","CarInfo":"","Lon":120.152191,"Lat":23.184727,"Turn":9,"DayValue":"一,三,五,六","RecycleDate":"一,五"},{"StopId":6198,"StopName":"番子寮102號","ScheduleTime":"15:04","EstimateTime":"","CarInfo":"","Lon":120.160872,"Lat":23.182041,"Turn":10,"DayValue":"一,三,五,六","RecycleDate":"一,五"},{"StopId":6199,"StopName":"番子寮136之2號（輝陽山莊）","ScheduleTime":"15:10","EstimateTime":"","CarInfo":"","Lon":120.158486,"Lat":23.180783,"Turn":11,"DayValue":"一,三,五,六","RecycleDate":"一,五"},{"StopId":6200,"StopName":"番子寮41之63號（佳里山莊後）","ScheduleTime":"15:13","EstimateTime":"","CarInfo":"","Lon":120.161257,"Lat":23.178933,"Turn":12,"DayValue":"一,三,五,六","RecycleDate":"一,五"},{"StopId":6201,"StopName":"海澄里66之3號(五府千歲)","ScheduleTime":"16:52","EstimateTime":"","CarInfo":"","Lon":120.162507,"Lat":23.172174,"Turn":24,"DayValue":"一,三,五,六","RecycleDate":"一,五"},{"StopId":6202,"StopName":"番子寮北投洋49之5號","ScheduleTime":"15:56","EstimateTime":"","CarInfo":"","Lon":120.164018,"Lat":23.173125,"Turn":25,"DayValue":"一,三,五,六","RecycleDate":"一,五"},{"StopId":13795,"StopName":"下?113號","ScheduleTime":"15:46","EstimateTime":"","CarInfo":"","Lon":120.153235,"Lat":23.171314,"Turn":22,"DayValue":"一,三,五,六","RecycleDate":"一,五"},{"StopId":13796,"StopName":"下?115之22號(鎮安宮)","ScheduleTime":"15:34","EstimateTime":"","CarInfo":"","Lon":120.150437,"Lat":23.169289,"Turn":17,"DayValue":"一,三,五,六","RecycleDate":"一,五"},{"StopId":13797,"StopName":"下?120號（里長家）","ScheduleTime":"15:44","EstimateTime":"","CarInfo":"","Lon":120.151656,"Lat":23.170004,"Turn":21,"DayValue":"一,三,五,六","RecycleDate":"一,五"},{"StopId":13798,"StopName":"下?165號","ScheduleTime":"15:38","EstimateTime":"","CarInfo":"","Lon":120.15266,"Lat":23.169154,"Turn":18,"DayValue":"一,三,五,六","RecycleDate":"一,五"},{"StopId":13799,"StopName":"下?33號","ScheduleTime":"15:40","EstimateTime":"","CarInfo":"","Lon":120.151515,"Lat":23.172711,"Turn":19,"DayValue":"一,三,五,六","RecycleDate":"一,五"},{"StopId":13800,"StopName":"下?9之1號","ScheduleTime":"15:42","EstimateTime":"","CarInfo":"","Lon":120.15089,"Lat":23.172554,"Turn":20,"DayValue":"一,三,五,六","RecycleDate":"一,五"},{"StopId":13801,"StopName":"頂?116號（永安宮）","ScheduleTime":"15:30","EstimateTime":"","CarInfo":"","Lon":120.149802,"Lat":23.173088,"Turn":16,"DayValue":"一,三,五,六","RecycleDate":"一,五"},{"StopId":13802,"StopName":"頂?1之16號","ScheduleTime":"15:23","EstimateTime":"","CarInfo":"","Lon":120.153347,"Lat":23.173834,"Turn":14,"DayValue":"一,三,五,六","RecycleDate":"一,五"},{"StopId":13803,"StopName":"頂?21號","ScheduleTime":"16:48","EstimateTime":"","CarInfo":"","Lon":120.153759,"Lat":23.173688,"Turn":23,"DayValue":"一,三,五,六","RecycleDate":"一,五"},{"StopId":13804,"StopName":"頂?56號","ScheduleTime":"15:26","EstimateTime":"","CarInfo":"","Lon":120.151694,"Lat":23.174742,"Turn":15,"DayValue":"一,三,五,六","RecycleDate":"一,五"},{"StopId":13805,"StopName":"頂?之42號(偉城)","ScheduleTime":"15:18","EstimateTime":"","CarInfo":"","Lon":120.157613,"Lat":23.173186,"Turn":13,"DayValue":"一,三,五,六","RecycleDate":"一,五"}],"CarData":[],"RouteId":145,"RouteName":"佳里-2(日 )","RouteInfo":"番子寮41之11號（佳里山莊前）~番子寮北投洋49之5號","IsWork":false}]