[{"StopData":[{"StopId":13549,"StopName":"中正路二段538號前","ScheduleTime":"16:20","EstimateTime":"","CarInfo":"","Lon":120.252612,"Lat":22.955787,"Turn":1,"DayValue":"一,二,四,六","RecycleDate":"一,四"},{"StopId":13550,"StopName":"中正路二段760號","ScheduleTime":"16:21","EstimateTime":"","CarInfo":"","Lon":120.2535864,"Lat":22.9624027,"Turn":2,"DayValue":"一,二,四,六","RecycleDate":"一,四"},{"StopId":13551,"StopName":"仁義六街56巷口","ScheduleTime":"16:23","EstimateTime":"","CarInfo":"","Lon":120.2543953,"Lat":22.9609479,"Turn":3,"DayValue":"一,二,四,六","RecycleDate":"一,四"},{"StopId":13552,"StopName":"中正路二段818號","ScheduleTime":"16:25","EstimateTime":"","CarInfo":"","Lon":120.2535574,"Lat":22.9628902,"Turn":4,"DayValue":"一,二,四,六","RecycleDate":"一,四"},{"StopId":13553,"StopName":"仁義五街24巷口","ScheduleTime":"16:27","EstimateTime":"","CarInfo":"","Lon":120.254431,"Lat":22.963142,"Turn":5,"DayValue":"一,二,四,六","RecycleDate":"一,四"},{"StopId":13554,"StopName":"中正路二段862巷內","ScheduleTime":"16:31","EstimateTime":"","CarInfo":"","Lon":120.252729,"Lat":22.957183,"Turn":6,"DayValue":"一,二,四,六","RecycleDate":"一,四"},{"StopId":13555,"StopName":"中正路二段938巷口","ScheduleTime":"16:35","EstimateTime":"","CarInfo":"","Lon":120.252729,"Lat":22.957183,"Turn":7,"DayValue":"一,二,四,六","RecycleDate":"一,四"},{"StopId":13556,"StopName":"中正路二段994巷口","ScheduleTime":"16:36","EstimateTime":"","CarInfo":"","Lon":120.253653,"Lat":22.966688,"Turn":8,"DayValue":"一,二,四,六","RecycleDate":"一,四"},{"StopId":13557,"StopName":"中正路二段1036號前","ScheduleTime":"16:37","EstimateTime":"","CarInfo":"","Lon":120.252879,"Lat":22.967389,"Turn":9,"DayValue":"一,二,四,六","RecycleDate":"一,四"},{"StopId":13558,"StopName":"中正路二段1088號前","ScheduleTime":"16:40","EstimateTime":"","CarInfo":"","Lon":120.252518,"Lat":22.96907,"Turn":10,"DayValue":"一,二,四,六","RecycleDate":"一,四"},{"StopId":13559,"StopName":"中正路二段1112號","ScheduleTime":"16:41","EstimateTime":"","CarInfo":"","Lon":120.252182,"Lat":22.969527,"Turn":11,"DayValue":"一,二,四,六","RecycleDate":"一,四"},{"StopId":13560,"StopName":"中正路二段1166號前","ScheduleTime":"16:43","EstimateTime":"","CarInfo":"","Lon":120.2519878,"Lat":22.9700075,"Turn":12,"DayValue":"一,二,四,六","RecycleDate":"一,四"},{"StopId":13561,"StopName":"中正路三段42號","ScheduleTime":"16:45","EstimateTime":"","CarInfo":"","Lon":120.252355,"Lat":22.972933,"Turn":13,"DayValue":"一,二,四,六","RecycleDate":"一,四"},{"StopId":13562,"StopName":"中正路三段情定飯店","ScheduleTime":"16:48","EstimateTime":"","CarInfo":"","Lon":120.252861,"Lat":22.973761,"Turn":14,"DayValue":"一,二,四,六","RecycleDate":"一,四"},{"StopId":13563,"StopName":"中正路三段19號","ScheduleTime":"16:52","EstimateTime":"","CarInfo":"","Lon":120.252083,"Lat":22.97286,"Turn":15,"DayValue":"一,二,四,六","RecycleDate":"一,四"},{"StopId":13564,"StopName":"中正路三段1239號","ScheduleTime":"16:58","EstimateTime":"","CarInfo":"","Lon":120.258117,"Lat":22.982751,"Turn":16,"DayValue":"一,二,四,六","RecycleDate":"一,四"},{"StopId":13565,"StopName":"中正路二段1237號","ScheduleTime":"17:25","EstimateTime":"","CarInfo":"","Lon":120.251592,"Lat":22.971048,"Turn":17,"DayValue":"一,二,四,六","RecycleDate":"一,四"},{"StopId":13566,"StopName":"仁德二街口","ScheduleTime":"17:25","EstimateTime":"","CarInfo":"","Lon":120.2520423,"Lat":22.9694696,"Turn":18,"DayValue":"一,二,四,六","RecycleDate":"一,四"},{"StopId":13567,"StopName":"仁德三街15號前","ScheduleTime":"17:25","EstimateTime":"","CarInfo":"","Lon":120.251949,"Lat":22.968485,"Turn":19,"DayValue":"一,二,四,六","RecycleDate":"一,四"},{"StopId":13568,"StopName":"仁德三街50巷口","ScheduleTime":"17:38","EstimateTime":"","CarInfo":"","Lon":120.2510289,"Lat":22.9683991,"Turn":20,"DayValue":"一,二,四,六","RecycleDate":"一,四"},{"StopId":13569,"StopName":"奇美公司停車場旁","ScheduleTime":"17:44","EstimateTime":"","CarInfo":"","Lon":120.2514897,"Lat":22.9674662,"Turn":21,"DayValue":"一,二,四,六","RecycleDate":"一,四"},{"StopId":13570,"StopName":"中正路二段1043號","ScheduleTime":"17:45","EstimateTime":"","CarInfo":"","Lon":120.253021,"Lat":22.966516,"Turn":22,"DayValue":"一,二,四,六","RecycleDate":"一,四"},{"StopId":13571,"StopName":"中正路二段867巷口","ScheduleTime":"17:45","EstimateTime":"","CarInfo":"","Lon":120.252729,"Lat":22.957183,"Turn":23,"DayValue":"一,二,四,六","RecycleDate":"一,四"},{"StopId":13572,"StopName":"中正路二段801號全家超商前","ScheduleTime":"17:53","EstimateTime":"","CarInfo":"","Lon":120.2534207,"Lat":22.9631233,"Turn":24,"DayValue":"一,二,四,六","RecycleDate":"一,四"},{"StopId":13573,"StopName":"中正路二段577號前","ScheduleTime":"17:55","EstimateTime":"","CarInfo":"","Lon":120.252763,"Lat":22.957699,"Turn":25,"DayValue":"一,二,四,六","RecycleDate":"一,四"},{"StopId":13574,"StopName":"仁德五街17巷口","ScheduleTime":"17:55","EstimateTime":"","CarInfo":"","Lon":120.2526488,"Lat":22.9615905,"Turn":26,"DayValue":"一,二,四,六","RecycleDate":"一,四"},{"StopId":13575,"StopName":"仁中五街55號","ScheduleTime":"17:55","EstimateTime":"","CarInfo":"","Lon":120.251635,"Lat":22.962303,"Turn":27,"DayValue":"一,二,四,六","RecycleDate":"一,四"},{"StopId":13576,"StopName":"仁中六街皇龍新境前","ScheduleTime":"17:58","EstimateTime":"","CarInfo":"","Lon":120.252985,"Lat":22.963394,"Turn":28,"DayValue":"一,二,四,六","RecycleDate":"一,四"},{"StopId":13577,"StopName":"仁中二街162號","ScheduleTime":"18:00","EstimateTime":"","CarInfo":"","Lon":120.250705,"Lat":22.964444,"Turn":29,"DayValue":"一,二,四,六","RecycleDate":"一,四"},{"StopId":13578,"StopName":"仁中六街草本美墅前","ScheduleTime":"18:00","EstimateTime":"","CarInfo":"","Lon":120.252974,"Lat":22.963375,"Turn":30,"DayValue":"一,二,四,六","RecycleDate":"一,四"},{"StopId":13579,"StopName":"仁中一街87號","ScheduleTime":"18:00","EstimateTime":"","CarInfo":"","Lon":120.25167,"Lat":22.964991,"Turn":31,"DayValue":"一,二,四,六","RecycleDate":"一,四"},{"StopId":13580,"StopName":"仁中七街22號","ScheduleTime":"18:08","EstimateTime":"","CarInfo":"","Lon":120.251931,"Lat":22.962749,"Turn":32,"DayValue":"一,二,四,六","RecycleDate":"一,四"},{"StopId":13581,"StopName":"仁中三街67號","ScheduleTime":"18:10","EstimateTime":"","CarInfo":"","Lon":120.251876,"Lat":22.963323,"Turn":33,"DayValue":"一,二,四,六","RecycleDate":"一,四"},{"StopId":13582,"StopName":"中正路二段729巷口","ScheduleTime":"18:14","EstimateTime":"","CarInfo":"","Lon":120.2536302,"Lat":22.9612408,"Turn":34,"DayValue":"一,二,四,六","RecycleDate":"一,四"},{"StopId":13583,"StopName":"中正路二段681巷口日本園莊","ScheduleTime":"18:19","EstimateTime":"","CarInfo":"","Lon":120.253344,"Lat":22.9602259,"Turn":35,"DayValue":"一,二,四,六","RecycleDate":"一,四"},{"StopId":13584,"StopName":"中正路二段舊戲院巷口","ScheduleTime":"18:28","EstimateTime":"","CarInfo":"","Lon":120.2503752,"Lat":22.9608854,"Turn":36,"DayValue":"一,二,四,六","RecycleDate":"一,四"},{"StopId":13585,"StopName":"中山路696巷口","ScheduleTime":"19:13","EstimateTime":"","CarInfo":"","Lon":120.24293,"Lat":22.972312,"Turn":37,"DayValue":"一,二,四,六","RecycleDate":"一,四"},{"StopId":13586,"StopName":"中山路758巷口","ScheduleTime":"19:15","EstimateTime":"","CarInfo":"","Lon":120.2458737,"Lat":22.9734623,"Turn":38,"DayValue":"一,二,四,六","RecycleDate":"一,四"},{"StopId":13587,"StopName":"中山路療養院宿舍","ScheduleTime":"19:15","EstimateTime":"","CarInfo":"","Lon":120.2416387,"Lat":22.9746092,"Turn":39,"DayValue":"一,二,四,六","RecycleDate":"一,四"},{"StopId":13588,"StopName":"中山路福祐清宮旁","ScheduleTime":"19:15","EstimateTime":"","CarInfo":"","Lon":120.2413562,"Lat":22.9760595,"Turn":40,"DayValue":"一,二,四,六","RecycleDate":"一,四"},{"StopId":13589,"StopName":"中山路長億城大門口","ScheduleTime":"19:23","EstimateTime":"","CarInfo":"","Lon":120.2414434,"Lat":22.9773779,"Turn":41,"DayValue":"一,二,四,六","RecycleDate":"一,四"},{"StopId":13590,"StopName":"中山路870巷復興國中後門","ScheduleTime":"19:25","EstimateTime":"","CarInfo":"","Lon":120.2418119,"Lat":22.9790669,"Turn":42,"DayValue":"一,二,四,六","RecycleDate":"一,四"},{"StopId":13591,"StopName":"文宏路216號對面公園","ScheduleTime":"19:25","EstimateTime":"","CarInfo":"","Lon":120.24352,"Lat":22.976693,"Turn":43,"DayValue":"一,二,四,六","RecycleDate":"一,四"},{"StopId":13592,"StopName":"文宏路150號對面停車場","ScheduleTime":"19:33","EstimateTime":"","CarInfo":"","Lon":120.2432666,"Lat":22.9760244,"Turn":44,"DayValue":"一,二,四,六","RecycleDate":"一,四"},{"StopId":13593,"StopName":"文宏路70號","ScheduleTime":"19:35","EstimateTime":"","CarInfo":"","Lon":120.243238,"Lat":22.974807,"Turn":45,"DayValue":"一,二,四,六","RecycleDate":"一,四"},{"StopId":13594,"StopName":"文宏路二街49號","ScheduleTime":"19:35","EstimateTime":"","CarInfo":"","Lon":120.24382,"Lat":22.975625,"Turn":46,"DayValue":"一,二,四,六","RecycleDate":"一,四"},{"StopId":13595,"StopName":"文山路253號","ScheduleTime":"19:35","EstimateTime":"","CarInfo":"","Lon":120.2451065,"Lat":22.9759609,"Turn":47,"DayValue":"一,二,四,六","RecycleDate":"一,四"},{"StopId":13596,"StopName":"文山路177號","ScheduleTime":"19:35","EstimateTime":"","CarInfo":"","Lon":120.2456915,"Lat":22.9757895,"Turn":48,"DayValue":"一,二,四,六","RecycleDate":"一,四"},{"StopId":13597,"StopName":"文山路155號","ScheduleTime":"19:41","EstimateTime":"","CarInfo":"","Lon":120.2464228,"Lat":22.9755125,"Turn":49,"DayValue":"一,二,四,六","RecycleDate":"一,四"},{"StopId":13598,"StopName":"文山路95號","ScheduleTime":"19:43","EstimateTime":"","CarInfo":"","Lon":120.2471562,"Lat":22.9753845,"Turn":50,"DayValue":"一,二,四,六","RecycleDate":"一,四"},{"StopId":13599,"StopName":"文華路三段495號","ScheduleTime":"19:43","EstimateTime":"","CarInfo":"","Lon":120.243447,"Lat":22.971973,"Turn":51,"DayValue":"一,二,四,六","RecycleDate":"一,四"},{"StopId":13600,"StopName":"文華路三段467號","ScheduleTime":"19:49","EstimateTime":"","CarInfo":"","Lon":120.24341,"Lat":22.971225,"Turn":52,"DayValue":"一,二,四,六","RecycleDate":"一,四"},{"StopId":13601,"StopName":"淨修街467巷32號","ScheduleTime":"19:58","EstimateTime":"","CarInfo":"","Lon":120.238952,"Lat":22.971408,"Turn":53,"DayValue":"一,二,四,六","RecycleDate":"一,四"},{"StopId":13602,"StopName":"淨修街467巷內","ScheduleTime":"20:00","EstimateTime":"","CarInfo":"","Lon":120.237927,"Lat":22.974186,"Turn":54,"DayValue":"一,二,四,六","RecycleDate":"一,四"},{"StopId":13603,"StopName":"淨修街143巷口","ScheduleTime":"20:00","EstimateTime":"","CarInfo":"","Lon":120.238121,"Lat":22.971688,"Turn":55,"DayValue":"一,二,四,六","RecycleDate":"一,四"},{"StopId":13604,"StopName":"文孝路41號前","ScheduleTime":"20:00","EstimateTime":"","CarInfo":"","Lon":120.239799,"Lat":22.972262,"Turn":56,"DayValue":"一,二,四,六","RecycleDate":"一,四"},{"StopId":13605,"StopName":"文心路和文孝路口台灣大廚旁","ScheduleTime":"20:00","EstimateTime":"","CarInfo":"","Lon":120.24079,"Lat":22.971873,"Turn":57,"DayValue":"一,二,四,六","RecycleDate":"一,四"},{"StopId":13606,"StopName":"文心路停車場","ScheduleTime":"20:08","EstimateTime":"","CarInfo":"","Lon":120.2413727,"Lat":22.9738814,"Turn":58,"DayValue":"一,二,四,六","RecycleDate":"一,四"},{"StopId":13607,"StopName":"中山路875巷10號前","ScheduleTime":"20:10","EstimateTime":"","CarInfo":"","Lon":120.2433939,"Lat":22.9738935,"Turn":59,"DayValue":"一,二,四,六","RecycleDate":"一,四"},{"StopId":13608,"StopName":"中山路荷蘭村","ScheduleTime":"20:10","EstimateTime":"","CarInfo":"","Lon":120.2912628,"Lat":22.976355,"Turn":60,"DayValue":"一,二,四,六","RecycleDate":"一,四"},{"StopId":13609,"StopName":"文華路三段廟善寺大門口","ScheduleTime":"20:18","EstimateTime":"","CarInfo":"","Lon":120.242804,"Lat":22.9682849,"Turn":61,"DayValue":"一,二,四,六","RecycleDate":"一,四"},{"StopId":13610,"StopName":"文華路三段198巷口","ScheduleTime":"20:20","EstimateTime":"","CarInfo":"","Lon":120.24195,"Lat":22.965439,"Turn":62,"DayValue":"一,二,四,六","RecycleDate":"一,四"},{"StopId":13611,"StopName":"文華路三段巴里島社區","ScheduleTime":"20:23","EstimateTime":"","CarInfo":"","Lon":120.2399581,"Lat":22.9638885,"Turn":63,"DayValue":"一,二,四,六","RecycleDate":"一,四"},{"StopId":13612,"StopName":"中華科技大學","ScheduleTime":"20:28","EstimateTime":"","CarInfo":"","Lon":120.2433298,"Lat":22.9616012,"Turn":64,"DayValue":"一,二,四,六","RecycleDate":"一,四"}],"CarData":[{"CarNo":"211-UW","Angle":101,"Lon":120.251686,"Lat":22.967863}],"RouteId":324,"RouteName":"仁德-08","RouteInfo":"中正路二段538號前~中華科技大學","IsWork":true}]