[{"StopData":[{"StopId":3424,"StopName":"加油站河東里122-19號","ScheduleTime":"15:32","EstimateTime":"","CarInfo":"","Lon":120.4284381,"Lat":23.3450445,"Turn":1,"DayValue":"六","RecycleDate":"六"},{"StopId":3425,"StopName":"麗玉桶子雞河東里81-9號","ScheduleTime":"15:40","EstimateTime":"","CarInfo":"","Lon":120.4444804,"Lat":23.3468805,"Turn":2,"DayValue":"六","RecycleDate":"六"},{"StopId":3426,"StopName":"7-11仙草里6-30號","ScheduleTime":"15:46","EstimateTime":"","CarInfo":"","Lon":120.4722579,"Lat":23.3471873,"Turn":3,"DayValue":"六","RecycleDate":"六"},{"StopId":3427,"StopName":"和興石灰仙草里66-13號","ScheduleTime":"15:55","EstimateTime":"","CarInfo":"","Lon":120.4806411,"Lat":23.3416333,"Turn":4,"DayValue":"六","RecycleDate":"六"},{"StopId":3428,"StopName":"粗坑86-1號","ScheduleTime":"16:00","EstimateTime":"","CarInfo":"","Lon":120.5000591,"Lat":23.3402083,"Turn":5,"DayValue":"六","RecycleDate":"六"},{"StopId":3429,"StopName":"火王爺24之8號","ScheduleTime":"16:10","EstimateTime":"","CarInfo":"","Lon":120.5046994,"Lat":23.3383452,"Turn":6,"DayValue":"六","RecycleDate":"六"},{"StopId":3430,"StopName":"關嶺66-3號","ScheduleTime":"16:25","EstimateTime":"","CarInfo":"","Lon":120.5030542,"Lat":23.3334175,"Turn":7,"DayValue":"六","RecycleDate":"六"},{"StopId":3431,"StopName":"坪頂3-6號","ScheduleTime":"16:31","EstimateTime":"","CarInfo":"","Lon":120.4986014,"Lat":23.3239584,"Turn":8,"DayValue":"六","RecycleDate":"六"},{"StopId":3432,"StopName":"南寮36號","ScheduleTime":"16:40","EstimateTime":"","CarInfo":"","Lon":120.4925139,"Lat":23.3139504,"Turn":9,"DayValue":"六","RecycleDate":"六"},{"StopId":3433,"StopName":"福安宮南寮55號","ScheduleTime":"16:45","EstimateTime":"","CarInfo":"","Lon":120.5016034,"Lat":23.299998,"Turn":10,"DayValue":"六","RecycleDate":"六"},{"StopId":3434,"StopName":"龍安府仙草里24-17號","ScheduleTime":"17:00","EstimateTime":"","CarInfo":"","Lon":120.4756947,"Lat":23.3451927,"Turn":11,"DayValue":"六","RecycleDate":"六"},{"StopId":3435,"StopName":"仙草里130號","ScheduleTime":"17:05","EstimateTime":"","CarInfo":"","Lon":120.4740445,"Lat":23.3449661,"Turn":12,"DayValue":"六","RecycleDate":"六"},{"StopId":3436,"StopName":"7-11仙草里6-30號","ScheduleTime":"17:10","EstimateTime":"","CarInfo":"","Lon":120.4722579,"Lat":23.3471853,"Turn":13,"DayValue":"六","RecycleDate":"六"},{"StopId":3437,"StopName":"河東國小河東里83-1號","ScheduleTime":"17:15","EstimateTime":"","CarInfo":"","Lon":120.437986,"Lat":23.344189,"Turn":14,"DayValue":"六","RecycleDate":"六"},{"StopId":3438,"StopName":"河東里60號","ScheduleTime":"17:20","EstimateTime":"","CarInfo":"","Lon":120.4343494,"Lat":23.3433082,"Turn":15,"DayValue":"六","RecycleDate":"六"},{"StopId":3439,"StopName":"河東里122-14號","ScheduleTime":"17:25","EstimateTime":"","CarInfo":"","Lon":120.4282639,"Lat":23.3449165,"Turn":16,"DayValue":"六","RecycleDate":"六"},{"StopId":3440,"StopName":"東昌傢俱河東里141-10號","ScheduleTime":"17:30","EstimateTime":"","CarInfo":"","Lon":120.4234654,"Lat":23.3459068,"Turn":17,"DayValue":"六","RecycleDate":"六"},{"StopId":3441,"StopName":"河東里36-12號","ScheduleTime":"17:35","EstimateTime":"","CarInfo":"","Lon":120.4300817,"Lat":23.3441509,"Turn":18,"DayValue":"六","RecycleDate":"六"},{"StopId":3442,"StopName":"河東里2鄰18號","ScheduleTime":"17:40","EstimateTime":"","CarInfo":"","Lon":120.434216,"Lat":23.3414057,"Turn":19,"DayValue":"六","RecycleDate":"六"},{"StopId":3443,"StopName":"河東派出所河東里3號","ScheduleTime":"17:50","EstimateTime":"","CarInfo":"","Lon":120.4356247,"Lat":23.3426369,"Turn":20,"DayValue":"六","RecycleDate":"六"}],"CarData":[],"RouteId":89,"RouteName":"白河-3-6","RouteInfo":"加油站河東里122-19號~河東派出所河東里3號","IsWork":false}]