[{"StopData":[{"StopId":11497,"StopName":"中山路成功路路口","ScheduleTime":"17:30","EstimateTime":"","CarInfo":"","Lon":120.181183,"Lat":23.234434,"Turn":1,"DayValue":"一,五","RecycleDate":"一,五"},{"StopId":11498,"StopName":"華宗路427號","ScheduleTime":"17:33","EstimateTime":"","CarInfo":"","Lon":120.1824657,"Lat":23.2337141,"Turn":2,"DayValue":"一,五","RecycleDate":"一,五"},{"StopId":11499,"StopName":"成功路民權路路口","ScheduleTime":"17:38","EstimateTime":"","CarInfo":"","Lon":120.180583,"Lat":23.231302,"Turn":3,"DayValue":"一,五","RecycleDate":"一,五"},{"StopId":11500,"StopName":"廣文路信義路路口","ScheduleTime":"17:48","EstimateTime":"","CarInfo":"","Lon":120.177644,"Lat":23.232685,"Turn":4,"DayValue":"一,五","RecycleDate":"一,五"},{"StopId":11501,"StopName":"民權路中正路路口","ScheduleTime":"17:57","EstimateTime":"","CarInfo":"","Lon":120.179675,"Lat":23.231466,"Turn":5,"DayValue":"一,五","RecycleDate":"一,五"},{"StopId":11502,"StopName":"民權路民生路路口","ScheduleTime":"18:01","EstimateTime":"","CarInfo":"","Lon":120.183617,"Lat":23.231299,"Turn":6,"DayValue":"一,五","RecycleDate":"一,五"},{"StopId":11503,"StopName":"東竹圍13之11號前","ScheduleTime":"18:15","EstimateTime":"","CarInfo":"","Lon":120.187322,"Lat":23.230104999999998,"Turn":7,"DayValue":"一,五","RecycleDate":"一,五"},{"StopId":11504,"StopName":"建國路62號","ScheduleTime":"18:23","EstimateTime":"","CarInfo":"","Lon":120.1806349,"Lat":23.2302171,"Turn":8,"DayValue":"一,五","RecycleDate":"一,五"},{"StopId":11505,"StopName":"建國路信義路路口","ScheduleTime":"18:26","EstimateTime":"","CarInfo":"","Lon":120.176861,"Lat":23.230937,"Turn":9,"DayValue":"一,五","RecycleDate":"一,五"},{"StopId":11506,"StopName":"自立街和平路路口","ScheduleTime":"18:29","EstimateTime":"","CarInfo":"","Lon":120.177962,"Lat":23.229927,"Turn":10,"DayValue":"一,五","RecycleDate":"一,五"},{"StopId":11507,"StopName":"自強路7號旁","ScheduleTime":"18:35","EstimateTime":"","CarInfo":"","Lon":120.182409,"Lat":23.228554,"Turn":11,"DayValue":"一,五","RecycleDate":"一,五"},{"StopId":11508,"StopName":"八德街公館路路口","ScheduleTime":"18:39","EstimateTime":"","CarInfo":"","Lon":120.180833,"Lat":23.227391,"Turn":12,"DayValue":"一,五","RecycleDate":"一,五"},{"StopId":11509,"StopName":"四維街和平路路口","ScheduleTime":"18:50","EstimateTime":"","CarInfo":"","Lon":120.177533,"Lat":23.228626,"Turn":13,"DayValue":"一,五","RecycleDate":"一,五"},{"StopId":11510,"StopName":"四維街公館路路口","ScheduleTime":"18:53","EstimateTime":"","CarInfo":"","Lon":120.180844,"Lat":23.228005,"Turn":14,"DayValue":"一,五","RecycleDate":"一,五"},{"StopId":11511,"StopName":"信義路17巷15號","ScheduleTime":"19:02","EstimateTime":"","CarInfo":"","Lon":120.175537,"Lat":23.229806,"Turn":15,"DayValue":"一,五","RecycleDate":"一,五"},{"StopId":11512,"StopName":"華宗路濟生路路口","ScheduleTime":"19:10","EstimateTime":"","CarInfo":"","Lon":120.182243,"Lat":23.232594,"Turn":16,"DayValue":"一,五","RecycleDate":"一,五"},{"StopId":11513,"StopName":"濟生路成功路路口","ScheduleTime":"19:14","EstimateTime":"","CarInfo":"","Lon":120.180879,"Lat":23.232869,"Turn":17,"DayValue":"一,五","RecycleDate":"一,五"},{"StopId":11514,"StopName":"華宗路380號","ScheduleTime":"19:20","EstimateTime":"","CarInfo":"","Lon":120.182255,"Lat":23.23259,"Turn":18,"DayValue":"一,五","RecycleDate":"一,五"},{"StopId":11515,"StopName":"廣文路中正路路口","ScheduleTime":"19:25","EstimateTime":"","CarInfo":"","Lon":120.179913,"Lat":23.232239,"Turn":19,"DayValue":"一,五","RecycleDate":"一,五"},{"StopId":11516,"StopName":"山寮6之1號","ScheduleTime":"19:30","EstimateTime":"","CarInfo":"","Lon":120.197459,"Lat":23.23585,"Turn":20,"DayValue":"一,五","RecycleDate":"一,五"},{"StopId":11517,"StopName":"山寮26號之1","ScheduleTime":"19:37","EstimateTime":"","CarInfo":"","Lon":120.197723,"Lat":23.234828,"Turn":21,"DayValue":"一,五","RecycleDate":"一,五"},{"StopId":11518,"StopName":"瓦寮16號","ScheduleTime":"19:40","EstimateTime":"","CarInfo":"","Lon":120.213773,"Lat":23.233478,"Turn":22,"DayValue":"一,五","RecycleDate":"一,五"},{"StopId":11519,"StopName":"瓦寮31號","ScheduleTime":"19:44","EstimateTime":"","CarInfo":"","Lon":120.21698,"Lat":23.231067,"Turn":23,"DayValue":"一,五","RecycleDate":"一,五"},{"StopId":11520,"StopName":"山寮11之1號","ScheduleTime":"20:00","EstimateTime":"","CarInfo":"","Lon":120.196303,"Lat":23.236133,"Turn":24,"DayValue":"一,五","RecycleDate":"一,五"}],"CarData":[],"RouteId":287,"RouteName":"學甲-1(夜間一五)","RouteInfo":"中山路成功路路口~山寮11之1號","IsWork":false}]