[{"StopData":[{"StopId":10938,"StopName":"中山路160號","ScheduleTime":"17:40","EstimateTime":"","CarInfo":"","Lon":120.31648,"Lat":23.304275,"Turn":1,"DayValue":"一,三,五,日","RecycleDate":"一,五"},{"StopId":10939,"StopName":"長春街2號 (交通台)","ScheduleTime":"17:45","EstimateTime":"","CarInfo":"","Lon":120.3135102,"Lat":23.3023543,"Turn":2,"DayValue":"一,三,五,日","RecycleDate":"一,五"},{"StopId":10940,"StopName":"延平路42-1號","ScheduleTime":"17:50","EstimateTime":"","CarInfo":"","Lon":120.3135684,"Lat":23.301334,"Turn":3,"DayValue":"一,三,五,日","RecycleDate":"一,五"},{"StopId":10941,"StopName":"延平路112號 (上帝爺廟)","ScheduleTime":"17:55","EstimateTime":"","CarInfo":"","Lon":120.3133581,"Lat":23.2997601,"Turn":4,"DayValue":"一,三,五,日","RecycleDate":"一,五"},{"StopId":10942,"StopName":"延平路138-3號","ScheduleTime":"17:58","EstimateTime":"","CarInfo":"","Lon":120.3131127,"Lat":23.2979062,"Turn":5,"DayValue":"一,三,五,日","RecycleDate":"一,五"},{"StopId":10943,"StopName":"延平路129-1號","ScheduleTime":"18:01","EstimateTime":"","CarInfo":"","Lon":120.3132484,"Lat":23.2983348,"Turn":6,"DayValue":"一,三,五,日","RecycleDate":"一,五"},{"StopId":10944,"StopName":"新進路二段8號","ScheduleTime":"18:04","EstimateTime":"","CarInfo":"","Lon":120.3131418,"Lat":23.3006409,"Turn":7,"DayValue":"一,三,五,日","RecycleDate":"一,五"},{"StopId":10945,"StopName":"新進路二段90號","ScheduleTime":"18:09","EstimateTime":"","CarInfo":"","Lon":120.310939,"Lat":23.300665,"Turn":8,"DayValue":"一,三,五,日","RecycleDate":"一,五"},{"StopId":10946,"StopName":"新進路二段201號","ScheduleTime":"18:15","EstimateTime":"","CarInfo":"","Lon":120.3074283,"Lat":23.3005313,"Turn":9,"DayValue":"一,三,五,日","RecycleDate":"一,五"},{"StopId":10947,"StopName":"新進路二段79號","ScheduleTime":"18:21","EstimateTime":"","CarInfo":"","Lon":120.311039,"Lat":23.300438,"Turn":10,"DayValue":"一,三,五,日","RecycleDate":"一,五"},{"StopId":10948,"StopName":"延平路65號","ScheduleTime":"18:24","EstimateTime":"","CarInfo":"","Lon":120.313513,"Lat":23.300748,"Turn":11,"DayValue":"一,三,五,日","RecycleDate":"一,五"},{"StopId":10949,"StopName":"中山路235號","ScheduleTime":"18:26","EstimateTime":"","CarInfo":"","Lon":120.314245,"Lat":23.302721,"Turn":12,"DayValue":"一,三,五,日","RecycleDate":"一,五"},{"StopId":10950,"StopName":"中興路4號","ScheduleTime":"18:30","EstimateTime":"","CarInfo":"","Lon":120.3169556,"Lat":23.3038477,"Turn":13,"DayValue":"一,三,五,日","RecycleDate":"一,五"},{"StopId":10951,"StopName":"康樂街1號","ScheduleTime":"18:35","EstimateTime":"","CarInfo":"","Lon":120.3169239,"Lat":23.3023926,"Turn":14,"DayValue":"一,三,五,日","RecycleDate":"一,五"},{"StopId":10952,"StopName":"康樂街44號","ScheduleTime":"18:40","EstimateTime":"","CarInfo":"","Lon":120.314392,"Lat":23.301645,"Turn":15,"DayValue":"一,三,五,日","RecycleDate":"一,五"},{"StopId":10953,"StopName":"新進路375號","ScheduleTime":"18:43","EstimateTime":"","CarInfo":"","Lon":120.31369,"Lat":23.3006208,"Turn":16,"DayValue":"一,三,五,日","RecycleDate":"一,五"},{"StopId":10954,"StopName":"廠前街2號","ScheduleTime":"18:48","EstimateTime":"","CarInfo":"","Lon":120.3166762,"Lat":23.3012506,"Turn":17,"DayValue":"一,三,五,日","RecycleDate":"一,五"},{"StopId":10955,"StopName":"中興路62號 (南光中學)","ScheduleTime":"18:52","EstimateTime":"","CarInfo":"","Lon":120.315116,"Lat":23.2980808,"Turn":18,"DayValue":"一,三,五,日","RecycleDate":"一,五"},{"StopId":10956,"StopName":"富源街2-1號","ScheduleTime":"18:55","EstimateTime":"","CarInfo":"","Lon":120.316952,"Lat":23.303187,"Turn":19,"DayValue":"一,三,五,日","RecycleDate":"一,五"},{"StopId":10957,"StopName":"康樂街16之2號","ScheduleTime":"19:00","EstimateTime":"","CarInfo":"","Lon":120.315305,"Lat":23.302053,"Turn":20,"DayValue":"一,三,五,日","RecycleDate":"一,五"},{"StopId":10958,"StopName":"新進路262號","ScheduleTime":"19:02","EstimateTime":"","CarInfo":"","Lon":120.305162,"Lat":23.3006558,"Turn":21,"DayValue":"一,三,五,日","RecycleDate":"一,五"},{"StopId":10959,"StopName":"南昌街2號","ScheduleTime":"19:07","EstimateTime":"","CarInfo":"","Lon":120.3114683,"Lat":23.2998572,"Turn":22,"DayValue":"一,三,五,日","RecycleDate":"一,五"},{"StopId":10960,"StopName":"和平路50-5號","ScheduleTime":"19:12","EstimateTime":"","CarInfo":"","Lon":120.309882,"Lat":23.300188,"Turn":23,"DayValue":"一,三,五,日","RecycleDate":"一,五"},{"StopId":10961,"StopName":"和平路9號(第1趟結束)","ScheduleTime":"19:17","EstimateTime":"","CarInfo":"","Lon":120.309822,"Lat":23.3032388,"Turn":24,"DayValue":"一,三,五,日","RecycleDate":"一,五"},{"StopId":10962,"StopName":"裕民路66號(第二趟起點)","ScheduleTime":"19:48","EstimateTime":"","CarInfo":"","Lon":120.3072622,"Lat":23.3010314,"Turn":25,"DayValue":"一,三,五,日","RecycleDate":"一,五"},{"StopId":10963,"StopName":"裕民路12巷1號","ScheduleTime":"19:50","EstimateTime":"","CarInfo":"","Lon":120.3070353,"Lat":23.3025401,"Turn":26,"DayValue":"一,三,五,日","RecycleDate":"一,五"},{"StopId":10964,"StopName":"裕民路16巷23號","ScheduleTime":"19:52","EstimateTime":"","CarInfo":"","Lon":120.3065985,"Lat":23.3021723,"Turn":27,"DayValue":"一,三,五,日","RecycleDate":"一,五"},{"StopId":10965,"StopName":"裕民路34巷2號","ScheduleTime":"19:54","EstimateTime":"","CarInfo":"","Lon":120.3070546,"Lat":23.3018237,"Turn":28,"DayValue":"一,三,五,日","RecycleDate":"一,五"},{"StopId":10966,"StopName":"裕民路58巷22號","ScheduleTime":"19:56","EstimateTime":"","CarInfo":"","Lon":120.3064924,"Lat":23.3014622,"Turn":29,"DayValue":"一,三,五,日","RecycleDate":"一,五"},{"StopId":10967,"StopName":"裕民路64號","ScheduleTime":"19:58","EstimateTime":"","CarInfo":"","Lon":120.3072699,"Lat":23.3011571,"Turn":30,"DayValue":"一,三,五,日","RecycleDate":"一,五"},{"StopId":10968,"StopName":"南昌街171號","ScheduleTime":"20:00","EstimateTime":"","CarInfo":"","Lon":120.30732,"Lat":23.299826,"Turn":31,"DayValue":"一,三,五,日","RecycleDate":"一,五"},{"StopId":10969,"StopName":"興農街6號","ScheduleTime":"20:07","EstimateTime":"","CarInfo":"","Lon":120.3084387,"Lat":23.3029156,"Turn":32,"DayValue":"一,三,五,日","RecycleDate":"一,五"},{"StopId":10970,"StopName":"興農街47巷5號","ScheduleTime":"20:10","EstimateTime":"","CarInfo":"","Lon":120.3085046,"Lat":23.3017421,"Turn":33,"DayValue":"一,三,五,日","RecycleDate":"一,五"},{"StopId":10971,"StopName":"興農街32巷34號","ScheduleTime":"20:11","EstimateTime":"","CarInfo":"","Lon":120.307369,"Lat":23.299451,"Turn":34,"DayValue":"一,三,五,日","RecycleDate":"一,五"},{"StopId":10972,"StopName":"興農街47巷37號","ScheduleTime":"20:12","EstimateTime":"","CarInfo":"","Lon":120.3087169,"Lat":23.3010476,"Turn":35,"DayValue":"一,三,五,日","RecycleDate":"一,五"},{"StopId":10973,"StopName":"濟安街26號","ScheduleTime":"20:13","EstimateTime":"","CarInfo":"","Lon":120.3097219,"Lat":23.3023647,"Turn":36,"DayValue":"一,三,五,日","RecycleDate":"一,五"},{"StopId":10974,"StopName":"復興路16巷4號","ScheduleTime":"20:16","EstimateTime":"","CarInfo":"","Lon":120.3097291,"Lat":23.3034074,"Turn":37,"DayValue":"一,三,五,日","RecycleDate":"一,五"},{"StopId":10975,"StopName":"復興路159-3號","ScheduleTime":"20:18","EstimateTime":"","CarInfo":"","Lon":120.306161,"Lat":23.3031615,"Turn":38,"DayValue":"一,三,五,日","RecycleDate":"一,五"},{"StopId":10976,"StopName":"富強街65號","ScheduleTime":"20:20","EstimateTime":"","CarInfo":"","Lon":120.304795,"Lat":23.301934,"Turn":39,"DayValue":"一,三,五,日","RecycleDate":"一,五"},{"StopId":10977,"StopName":"富強街5巷146號(每星期一.五)","ScheduleTime":"20:26","EstimateTime":"","CarInfo":"","Lon":120.3042387,"Lat":23.3014163,"Turn":40,"DayValue":"一,三,五,日","RecycleDate":"一,五"},{"StopId":10978,"StopName":"興農街140巷25-1號","ScheduleTime":"20:28","EstimateTime":"","CarInfo":"","Lon":120.3073549,"Lat":23.2987479,"Turn":41,"DayValue":"一,三,五,日","RecycleDate":"一,五"},{"StopId":10979,"StopName":"和平路104巷48號","ScheduleTime":"20:31","EstimateTime":"","CarInfo":"","Lon":120.3085837,"Lat":23.2989742,"Turn":42,"DayValue":"一,三,五,日","RecycleDate":"一,五"},{"StopId":10980,"StopName":"和平路97巷2號","ScheduleTime":"20:34","EstimateTime":"","CarInfo":"","Lon":120.310127,"Lat":23.2990277,"Turn":43,"DayValue":"一,三,五,日","RecycleDate":"一,五"},{"StopId":10981,"StopName":"和平路95巷25號","ScheduleTime":"20:37","EstimateTime":"","CarInfo":"","Lon":120.3108889,"Lat":23.2995329,"Turn":44,"DayValue":"一,三,五,日","RecycleDate":"一,五"},{"StopId":10982,"StopName":"和平路102巷1號","ScheduleTime":"20:40","EstimateTime":"","CarInfo":"","Lon":120.3097805,"Lat":23.2993642,"Turn":45,"DayValue":"一,三,五,日","RecycleDate":"一,五"},{"StopId":10983,"StopName":"興農街136巷3號","ScheduleTime":"20:43","EstimateTime":"","CarInfo":"","Lon":120.3083464,"Lat":23.299407,"Turn":46,"DayValue":"一,三,五,日","RecycleDate":"一,五"},{"StopId":10984,"StopName":"建業路2號","ScheduleTime":"20:45","EstimateTime":"","CarInfo":"","Lon":120.3125474,"Lat":23.2991953,"Turn":47,"DayValue":"一,三,五,日","RecycleDate":"一,五"},{"StopId":10985,"StopName":"建業路140號","ScheduleTime":"20:49","EstimateTime":"","CarInfo":"","Lon":120.3104176,"Lat":23.2974484,"Turn":48,"DayValue":"一,三,五,日","RecycleDate":"一,五"},{"StopId":10986,"StopName":"中山路160號","ScheduleTime":"17:40","EstimateTime":"","CarInfo":"","Lon":120.31648,"Lat":23.304275,"Turn":1,"DayValue":"一,三,五,日","RecycleDate":"一,五"},{"StopId":10987,"StopName":"長春街2號 (交通台)","ScheduleTime":"17:45","EstimateTime":"","CarInfo":"","Lon":120.3135102,"Lat":23.3023543,"Turn":2,"DayValue":"一,三,五,日","RecycleDate":"一,五"},{"StopId":10988,"StopName":"延平路42-1號","ScheduleTime":"17:50","EstimateTime":"","CarInfo":"","Lon":120.3135684,"Lat":23.301334,"Turn":3,"DayValue":"一,三,五,日","RecycleDate":"一,五"},{"StopId":10989,"StopName":"延平路112號 (上帝爺廟)","ScheduleTime":"17:55","EstimateTime":"","CarInfo":"","Lon":120.3133581,"Lat":23.2997601,"Turn":4,"DayValue":"一,三,五,日","RecycleDate":"一,五"},{"StopId":10990,"StopName":"延平路138-3號","ScheduleTime":"17:58","EstimateTime":"","CarInfo":"","Lon":120.3131127,"Lat":23.2979062,"Turn":5,"DayValue":"一,三,五,日","RecycleDate":"一,五"},{"StopId":10991,"StopName":"延平路129-1號","ScheduleTime":"18:01","EstimateTime":"","CarInfo":"","Lon":120.3132484,"Lat":23.2983348,"Turn":6,"DayValue":"一,三,五,日","RecycleDate":"一,五"},{"StopId":10992,"StopName":"新進路二段8號","ScheduleTime":"18:04","EstimateTime":"","CarInfo":"","Lon":120.3131418,"Lat":23.3006409,"Turn":7,"DayValue":"一,三,五,日","RecycleDate":"一,五"},{"StopId":10993,"StopName":"新進路二段90號","ScheduleTime":"18:09","EstimateTime":"","CarInfo":"","Lon":120.310939,"Lat":23.300665,"Turn":8,"DayValue":"一,三,五,日","RecycleDate":"一,五"},{"StopId":10994,"StopName":"新進路二段201號","ScheduleTime":"18:15","EstimateTime":"","CarInfo":"","Lon":120.3074283,"Lat":23.3005313,"Turn":9,"DayValue":"一,三,五,日","RecycleDate":"一,五"},{"StopId":10995,"StopName":"新進路二段79號","ScheduleTime":"18:21","EstimateTime":"","CarInfo":"","Lon":120.311039,"Lat":23.300438,"Turn":10,"DayValue":"一,三,五,日","RecycleDate":"一,五"},{"StopId":10996,"StopName":"延平路65號","ScheduleTime":"18:24","EstimateTime":"","CarInfo":"","Lon":120.313513,"Lat":23.300748,"Turn":11,"DayValue":"一,三,五,日","RecycleDate":"一,五"},{"StopId":10997,"StopName":"中山路235號","ScheduleTime":"18:26","EstimateTime":"","CarInfo":"","Lon":120.314245,"Lat":23.302721,"Turn":12,"DayValue":"一,三,五,日","RecycleDate":"一,五"},{"StopId":10998,"StopName":"中興路4號","ScheduleTime":"18:30","EstimateTime":"","CarInfo":"","Lon":120.3169556,"Lat":23.3038477,"Turn":13,"DayValue":"一,三,五,日","RecycleDate":"一,五"},{"StopId":10999,"StopName":"康樂街1號","ScheduleTime":"18:35","EstimateTime":"","CarInfo":"","Lon":120.3169239,"Lat":23.3023926,"Turn":14,"DayValue":"一,三,五,日","RecycleDate":"一,五"},{"StopId":11000,"StopName":"康樂街44號","ScheduleTime":"18:40","EstimateTime":"","CarInfo":"","Lon":120.314392,"Lat":23.301645,"Turn":15,"DayValue":"一,三,五,日","RecycleDate":"一,五"},{"StopId":11001,"StopName":"新進路375號","ScheduleTime":"18:43","EstimateTime":"","CarInfo":"","Lon":120.31369,"Lat":23.3006208,"Turn":16,"DayValue":"一,三,五,日","RecycleDate":"一,五"},{"StopId":11002,"StopName":"廠前街2號","ScheduleTime":"18:48","EstimateTime":"","CarInfo":"","Lon":120.3166762,"Lat":23.3012506,"Turn":17,"DayValue":"一,三,五,日","RecycleDate":"一,五"},{"StopId":11003,"StopName":"中興路62號 (南光中學)","ScheduleTime":"18:52","EstimateTime":"","CarInfo":"","Lon":120.315116,"Lat":23.2980808,"Turn":18,"DayValue":"一,三,五,日","RecycleDate":"一,五"},{"StopId":11004,"StopName":"富源街2-1號","ScheduleTime":"18:55","EstimateTime":"","CarInfo":"","Lon":120.316952,"Lat":23.303187,"Turn":19,"DayValue":"一,三,五,日","RecycleDate":"一,五"},{"StopId":11005,"StopName":"康樂街16之2號","ScheduleTime":"19:00","EstimateTime":"","CarInfo":"","Lon":120.315305,"Lat":23.302053,"Turn":20,"DayValue":"一,三,五,日","RecycleDate":"一,五"},{"StopId":11006,"StopName":"新進路262號","ScheduleTime":"19:02","EstimateTime":"","CarInfo":"","Lon":120.305162,"Lat":23.3006558,"Turn":21,"DayValue":"一,三,五,日","RecycleDate":"一,五"},{"StopId":11007,"StopName":"南昌街2號","ScheduleTime":"19:07","EstimateTime":"","CarInfo":"","Lon":120.3114683,"Lat":23.2998572,"Turn":22,"DayValue":"一,三,五,日","RecycleDate":"一,五"},{"StopId":11008,"StopName":"和平路50-5號","ScheduleTime":"19:12","EstimateTime":"","CarInfo":"","Lon":120.309882,"Lat":23.300188,"Turn":23,"DayValue":"一,三,五,日","RecycleDate":"一,五"},{"StopId":11009,"StopName":"和平路9號(第1趟結束)","ScheduleTime":"19:17","EstimateTime":"","CarInfo":"","Lon":120.309822,"Lat":23.3032388,"Turn":24,"DayValue":"一,三,五,日","RecycleDate":"一,五"},{"StopId":11010,"StopName":"裕民路66號(第二趟起點)","ScheduleTime":"19:48","EstimateTime":"","CarInfo":"","Lon":120.3072622,"Lat":23.3010314,"Turn":25,"DayValue":"一,三,五,日","RecycleDate":"一,五"},{"StopId":11011,"StopName":"裕民路12巷1號","ScheduleTime":"19:50","EstimateTime":"","CarInfo":"","Lon":120.3070353,"Lat":23.3025401,"Turn":26,"DayValue":"一,三,五,日","RecycleDate":"一,五"},{"StopId":11012,"StopName":"裕民路16巷23號","ScheduleTime":"19:52","EstimateTime":"","CarInfo":"","Lon":120.3065985,"Lat":23.3021723,"Turn":27,"DayValue":"一,三,五,日","RecycleDate":"一,五"},{"StopId":11013,"StopName":"裕民路34巷2號","ScheduleTime":"19:54","EstimateTime":"","CarInfo":"","Lon":120.3070546,"Lat":23.3018237,"Turn":28,"DayValue":"一,三,五,日","RecycleDate":"一,五"},{"StopId":11014,"StopName":"裕民路58巷22號","ScheduleTime":"19:56","EstimateTime":"","CarInfo":"","Lon":120.3064924,"Lat":23.3014622,"Turn":29,"DayValue":"一,三,五,日","RecycleDate":"一,五"},{"StopId":11015,"StopName":"裕民路64號","ScheduleTime":"19:58","EstimateTime":"","CarInfo":"","Lon":120.3072699,"Lat":23.3011571,"Turn":30,"DayValue":"一,三,五,日","RecycleDate":"一,五"},{"StopId":11016,"StopName":"南昌街171號","ScheduleTime":"20:00","EstimateTime":"","CarInfo":"","Lon":120.30732,"Lat":23.299826,"Turn":31,"DayValue":"一,三,五,日","RecycleDate":"一,五"},{"StopId":11017,"StopName":"興農街6號","ScheduleTime":"20:07","EstimateTime":"","CarInfo":"","Lon":120.3084387,"Lat":23.3029156,"Turn":32,"DayValue":"一,三,五,日","RecycleDate":"一,五"},{"StopId":11018,"StopName":"興農街47巷5號","ScheduleTime":"20:10","EstimateTime":"","CarInfo":"","Lon":120.3085046,"Lat":23.3017421,"Turn":33,"DayValue":"一,三,五,日","RecycleDate":"一,五"},{"StopId":11019,"StopName":"興農街32巷34號","ScheduleTime":"20:11","EstimateTime":"","CarInfo":"","Lon":120.307369,"Lat":23.299451,"Turn":34,"DayValue":"一,三,五,日","RecycleDate":"一,五"},{"StopId":11020,"StopName":"興農街47巷37號","ScheduleTime":"20:12","EstimateTime":"","CarInfo":"","Lon":120.3087169,"Lat":23.3010476,"Turn":35,"DayValue":"一,三,五,日","RecycleDate":"一,五"},{"StopId":11021,"StopName":"濟安街26號","ScheduleTime":"20:13","EstimateTime":"","CarInfo":"","Lon":120.3097219,"Lat":23.3023647,"Turn":36,"DayValue":"一,三,五,日","RecycleDate":"一,五"},{"StopId":11022,"StopName":"復興路16巷4號","ScheduleTime":"20:16","EstimateTime":"","CarInfo":"","Lon":120.3097291,"Lat":23.3034074,"Turn":37,"DayValue":"一,三,五,日","RecycleDate":"一,五"},{"StopId":11023,"StopName":"復興路159-3號","ScheduleTime":"20:18","EstimateTime":"","CarInfo":"","Lon":120.306161,"Lat":23.3031615,"Turn":38,"DayValue":"一,三,五,日","RecycleDate":"一,五"},{"StopId":11024,"StopName":"富強街65號","ScheduleTime":"20:20","EstimateTime":"","CarInfo":"","Lon":120.304795,"Lat":23.301934,"Turn":39,"DayValue":"一,三,五,日","RecycleDate":"一,五"},{"StopId":11025,"StopName":"興農街140巷25-1號","ScheduleTime":"20:28","EstimateTime":"","CarInfo":"","Lon":120.3073549,"Lat":23.2987479,"Turn":40,"DayValue":"一,三,五,日","RecycleDate":"一,五"},{"StopId":11026,"StopName":"和平路104巷48號","ScheduleTime":"20:31","EstimateTime":"","CarInfo":"","Lon":120.3085837,"Lat":23.2989742,"Turn":41,"DayValue":"一,三,五,日","RecycleDate":"一,五"},{"StopId":11027,"StopName":"和平路97巷2號","ScheduleTime":"20:34","EstimateTime":"","CarInfo":"","Lon":120.310127,"Lat":23.2990277,"Turn":42,"DayValue":"一,三,五,日","RecycleDate":"一,五"},{"StopId":11028,"StopName":"和平路95巷25號","ScheduleTime":"20:37","EstimateTime":"","CarInfo":"","Lon":120.3108889,"Lat":23.2995329,"Turn":43,"DayValue":"一,三,五,日","RecycleDate":"一,五"},{"StopId":11029,"StopName":"和平路102巷1號","ScheduleTime":"20:40","EstimateTime":"","CarInfo":"","Lon":120.3097805,"Lat":23.2993642,"Turn":44,"DayValue":"一,三,五,日","RecycleDate":"一,五"},{"StopId":11030,"StopName":"興農街136巷3號","ScheduleTime":"20:43","EstimateTime":"","CarInfo":"","Lon":120.3083464,"Lat":23.299407,"Turn":45,"DayValue":"一,三,五,日","RecycleDate":"一,五"},{"StopId":11031,"StopName":"建業路2號","ScheduleTime":"20:45","EstimateTime":"","CarInfo":"","Lon":120.3125474,"Lat":23.2991953,"Turn":46,"DayValue":"一,三,五,日","RecycleDate":"一,五"},{"StopId":11032,"StopName":"建業路140號","ScheduleTime":"20:49","EstimateTime":"","CarInfo":"","Lon":120.3104176,"Lat":23.2974484,"Turn":47,"DayValue":"一,三,五,日","RecycleDate":"一,五"}],"CarData":[],"RouteId":273,"RouteName":"新營-01","RouteInfo":"中山路160號~建業路140號","IsWork":false}]