[{"StopData":[{"StopId":8629,"StopName":"中山路160號","ScheduleTime":"17:40","EstimateTime":"","CarInfo":"","Lon":120.31648,"Lat":23.304275,"Turn":1,"DayValue":"一,三,五,日","RecycleDate":"一,五"},{"StopId":8630,"StopName":"長春街2號 (交通台)","ScheduleTime":"17:45","EstimateTime":"","CarInfo":"","Lon":120.3135102,"Lat":23.3023543,"Turn":2,"DayValue":"一,三,五,日","RecycleDate":"一,五"},{"StopId":8631,"StopName":"延平路42-1號","ScheduleTime":"17:50","EstimateTime":"","CarInfo":"","Lon":120.3135684,"Lat":23.301334,"Turn":3,"DayValue":"一,三,五,日","RecycleDate":"一,五"},{"StopId":8632,"StopName":"延平路112號 (上帝爺廟)","ScheduleTime":"17:55","EstimateTime":"","CarInfo":"","Lon":120.3133581,"Lat":23.2997601,"Turn":4,"DayValue":"一,三,五,日","RecycleDate":"一,五"},{"StopId":8633,"StopName":"延平路138-3號","ScheduleTime":"17:58","EstimateTime":"","CarInfo":"","Lon":120.3131127,"Lat":23.2979062,"Turn":5,"DayValue":"一,三,五,日","RecycleDate":"一,五"},{"StopId":8634,"StopName":"延平路129-1號","ScheduleTime":"18:01","EstimateTime":"","CarInfo":"","Lon":120.3132484,"Lat":23.2983348,"Turn":6,"DayValue":"一,三,五,日","RecycleDate":"一,五"},{"StopId":8635,"StopName":"新進路二段8號","ScheduleTime":"18:04","EstimateTime":"","CarInfo":"","Lon":120.3131418,"Lat":23.3006409,"Turn":7,"DayValue":"一,三,五,日","RecycleDate":"一,五"},{"StopId":8636,"StopName":"新進路二段90號","ScheduleTime":"18:09","EstimateTime":"","CarInfo":"","Lon":120.310939,"Lat":23.300665,"Turn":8,"DayValue":"一,三,五,日","RecycleDate":"一,五"},{"StopId":8637,"StopName":"新進路二段201號","ScheduleTime":"18:15","EstimateTime":"","CarInfo":"","Lon":120.3074283,"Lat":23.3005313,"Turn":9,"DayValue":"一,三,五,日","RecycleDate":"一,五"},{"StopId":8638,"StopName":"新進路二段79號","ScheduleTime":"18:21","EstimateTime":"","CarInfo":"","Lon":120.311039,"Lat":23.300438,"Turn":10,"DayValue":"一,三,五,日","RecycleDate":"一,五"},{"StopId":8639,"StopName":"延平路65號","ScheduleTime":"18:24","EstimateTime":"","CarInfo":"","Lon":120.313513,"Lat":23.300748,"Turn":11,"DayValue":"一,三,五,日","RecycleDate":"一,五"},{"StopId":8640,"StopName":"中山路235號","ScheduleTime":"18:26","EstimateTime":"","CarInfo":"","Lon":120.314245,"Lat":23.302721,"Turn":12,"DayValue":"一,三,五,日","RecycleDate":"一,五"},{"StopId":8641,"StopName":"中興路4號","ScheduleTime":"18:30","EstimateTime":"","CarInfo":"","Lon":120.3169556,"Lat":23.3038477,"Turn":13,"DayValue":"一,三,五,日","RecycleDate":"一,五"},{"StopId":8642,"StopName":"康樂街1號","ScheduleTime":"18:35","EstimateTime":"","CarInfo":"","Lon":120.3169239,"Lat":23.3023926,"Turn":14,"DayValue":"一,三,五,日","RecycleDate":"一,五"},{"StopId":8643,"StopName":"康樂街44號","ScheduleTime":"18:40","EstimateTime":"","CarInfo":"","Lon":120.314392,"Lat":23.301645,"Turn":15,"DayValue":"一,三,五,日","RecycleDate":"一,五"},{"StopId":8644,"StopName":"新進路375號","ScheduleTime":"18:43","EstimateTime":"","CarInfo":"","Lon":120.31369,"Lat":23.3006208,"Turn":16,"DayValue":"一,三,五,日","RecycleDate":"一,五"},{"StopId":8645,"StopName":"廠前街2號","ScheduleTime":"18:48","EstimateTime":"","CarInfo":"","Lon":120.3166762,"Lat":23.3012506,"Turn":17,"DayValue":"一,三,五,日","RecycleDate":"一,五"},{"StopId":8646,"StopName":"中興路62號 (南光中學)","ScheduleTime":"18:52","EstimateTime":"","CarInfo":"","Lon":120.315116,"Lat":23.2980808,"Turn":18,"DayValue":"一,三,五,日","RecycleDate":"一,五"},{"StopId":8647,"StopName":"富源街2-1號","ScheduleTime":"18:55","EstimateTime":"","CarInfo":"","Lon":120.316952,"Lat":23.303187,"Turn":19,"DayValue":"一,三,五,日","RecycleDate":"一,五"},{"StopId":8648,"StopName":"康樂街16之2號","ScheduleTime":"19:00","EstimateTime":"","CarInfo":"","Lon":120.315305,"Lat":23.302053,"Turn":20,"DayValue":"一,三,五,日","RecycleDate":"一,五"},{"StopId":8649,"StopName":"新進路262號","ScheduleTime":"19:02","EstimateTime":"","CarInfo":"","Lon":120.305162,"Lat":23.3006558,"Turn":21,"DayValue":"一,三,五,日","RecycleDate":"一,五"},{"StopId":8650,"StopName":"南昌街2號","ScheduleTime":"19:07","EstimateTime":"","CarInfo":"","Lon":120.3114683,"Lat":23.2998572,"Turn":22,"DayValue":"一,三,五,日","RecycleDate":"一,五"},{"StopId":8651,"StopName":"和平路50-5號","ScheduleTime":"19:12","EstimateTime":"","CarInfo":"","Lon":120.309882,"Lat":23.300188,"Turn":23,"DayValue":"一,三,五,日","RecycleDate":"一,五"},{"StopId":8652,"StopName":"和平路9號(第1趟結束)","ScheduleTime":"19:17","EstimateTime":"","CarInfo":"","Lon":120.309822,"Lat":23.3032388,"Turn":24,"DayValue":"一,三,五,日","RecycleDate":"一,五"},{"StopId":8653,"StopName":"裕民路66號(第二趟起點)","ScheduleTime":"19:48","EstimateTime":"","CarInfo":"","Lon":120.3072622,"Lat":23.3010314,"Turn":25,"DayValue":"一,三,五,日","RecycleDate":"一,五"},{"StopId":8654,"StopName":"裕民路12巷1號","ScheduleTime":"19:50","EstimateTime":"","CarInfo":"","Lon":120.3070353,"Lat":23.3025401,"Turn":26,"DayValue":"一,三,五,日","RecycleDate":"一,五"},{"StopId":8655,"StopName":"裕民路16巷23號","ScheduleTime":"19:52","EstimateTime":"","CarInfo":"","Lon":120.3065985,"Lat":23.3021723,"Turn":27,"DayValue":"一,三,五,日","RecycleDate":"一,五"},{"StopId":8656,"StopName":"裕民路34巷2號","ScheduleTime":"19:54","EstimateTime":"","CarInfo":"","Lon":120.3070546,"Lat":23.3018237,"Turn":28,"DayValue":"一,三,五,日","RecycleDate":"一,五"},{"StopId":8657,"StopName":"裕民路58巷22號","ScheduleTime":"19:56","EstimateTime":"","CarInfo":"","Lon":120.3064924,"Lat":23.3014622,"Turn":29,"DayValue":"一,三,五,日","RecycleDate":"一,五"},{"StopId":8658,"StopName":"裕民路64號","ScheduleTime":"19:58","EstimateTime":"","CarInfo":"","Lon":120.3072699,"Lat":23.3011571,"Turn":30,"DayValue":"一,三,五,日","RecycleDate":"一,五"},{"StopId":8659,"StopName":"南昌街171號","ScheduleTime":"20:00","EstimateTime":"","CarInfo":"","Lon":120.30732,"Lat":23.299826,"Turn":31,"DayValue":"一,三,五,日","RecycleDate":"一,五"},{"StopId":8660,"StopName":"興農街6號","ScheduleTime":"20:07","EstimateTime":"","CarInfo":"","Lon":120.3084387,"Lat":23.3029156,"Turn":32,"DayValue":"一,三,五,日","RecycleDate":"一,五"},{"StopId":8661,"StopName":"興農街47巷5號","ScheduleTime":"20:10","EstimateTime":"","CarInfo":"","Lon":120.3085046,"Lat":23.3017421,"Turn":33,"DayValue":"一,三,五,日","RecycleDate":"一,五"},{"StopId":8662,"StopName":"興農街32巷34號","ScheduleTime":"20:11","EstimateTime":"","CarInfo":"","Lon":120.307369,"Lat":23.299451,"Turn":34,"DayValue":"一,三,五,日","RecycleDate":"一,五"},{"StopId":8663,"StopName":"興農街47巷37號","ScheduleTime":"20:12","EstimateTime":"","CarInfo":"","Lon":120.3087169,"Lat":23.3010476,"Turn":35,"DayValue":"一,三,五,日","RecycleDate":"一,五"},{"StopId":8664,"StopName":"濟安街26號","ScheduleTime":"20:13","EstimateTime":"","CarInfo":"","Lon":120.3097219,"Lat":23.3023647,"Turn":36,"DayValue":"一,三,五,日","RecycleDate":"一,五"},{"StopId":8665,"StopName":"復興路161巷4號","ScheduleTime":"20:16","EstimateTime":"","CarInfo":"","Lon":120.305988,"Lat":23.303078,"Turn":37,"DayValue":"一,三,五,日","RecycleDate":"一,五"},{"StopId":8666,"StopName":"復興路159-3號","ScheduleTime":"20:18","EstimateTime":"","CarInfo":"","Lon":120.306161,"Lat":23.3031615,"Turn":38,"DayValue":"一,三,五,日","RecycleDate":"一,五"},{"StopId":8667,"StopName":"富強街65號","ScheduleTime":"20:20","EstimateTime":"","CarInfo":"","Lon":120.304795,"Lat":23.301934,"Turn":39,"DayValue":"一,三,五,日","RecycleDate":"一,五"},{"StopId":8668,"StopName":"富強街5巷146號(每星期一.五)","ScheduleTime":"20:22","EstimateTime":"","CarInfo":"","Lon":120.3042387,"Lat":23.3014163,"Turn":40,"DayValue":"一,三,五,日","RecycleDate":"一,五"},{"StopId":8669,"StopName":"興農街136巷23號","ScheduleTime":"20:24","EstimateTime":"","CarInfo":"","Lon":120.307344,"Lat":23.299348,"Turn":41,"DayValue":"一,三,五,日","RecycleDate":"一,五"},{"StopId":8670,"StopName":"興農街138巷24號","ScheduleTime":"20:26","EstimateTime":"","CarInfo":"","Lon":120.307319,"Lat":23.299051,"Turn":42,"DayValue":"一,三,五,日","RecycleDate":"一,五"},{"StopId":8671,"StopName":"興農街140巷20號","ScheduleTime":"20:28","EstimateTime":"","CarInfo":"","Lon":120.307339,"Lat":23.29879,"Turn":43,"DayValue":"一,三,五,日","RecycleDate":"一,五"},{"StopId":8672,"StopName":"和平路104巷48號","ScheduleTime":"20:32","EstimateTime":"","CarInfo":"","Lon":120.3085837,"Lat":23.2989742,"Turn":44,"DayValue":"一,三,五,日","RecycleDate":"一,五"},{"StopId":8673,"StopName":"和平路97巷1號","ScheduleTime":"20:34","EstimateTime":"","CarInfo":"","Lon":120.310058,"Lat":23.299163,"Turn":45,"DayValue":"一,三,五,日","RecycleDate":"一,五"},{"StopId":8674,"StopName":"和平路95巷21號","ScheduleTime":"20:36","EstimateTime":"","CarInfo":"","Lon":120.31073,"Lat":23.299536,"Turn":46,"DayValue":"一,三,五,日","RecycleDate":"一,五"},{"StopId":8675,"StopName":"和平路102巷1號","ScheduleTime":"20:38","EstimateTime":"","CarInfo":"","Lon":120.3097805,"Lat":23.2993642,"Turn":47,"DayValue":"一,三,五,日","RecycleDate":"一,五"},{"StopId":8676,"StopName":"興農街136巷3號","ScheduleTime":"20:39","EstimateTime":"","CarInfo":"","Lon":120.3083464,"Lat":23.299407,"Turn":48,"DayValue":"一,三,五,日","RecycleDate":"一,五"},{"StopId":8677,"StopName":"建業路2號","ScheduleTime":"20:42","EstimateTime":"","CarInfo":"","Lon":120.3125474,"Lat":23.2991953,"Turn":49,"DayValue":"一,三,五,日","RecycleDate":"一,五"}],"CarData":[],"RouteId":273,"RouteName":"新營-01","RouteInfo":"中山路160號~建業路2號","IsWork":false}]