[{"StopData":[{"StopId":2855,"StopName":"中山南路954號","ScheduleTime":"16:20","EstimateTime":"","CarInfo":"","Lon":120.253818,"Lat":23.024439,"Turn":1,"DayValue":"一,二,四,六","RecycleDate":"一,四"},{"StopId":2856,"StopName":"中山北路210號","ScheduleTime":"16:26","EstimateTime":"","CarInfo":"","Lon":120.2622984,"Lat":23.0278377,"Turn":2,"DayValue":"一,二,四,六","RecycleDate":"一,四"},{"StopId":2857,"StopName":"中山北路1037號","ScheduleTime":"16:46","EstimateTime":"","CarInfo":"","Lon":120.28301,"Lat":23.032538,"Turn":3,"DayValue":"一,二,四,六","RecycleDate":"一,四"},{"StopId":2858,"StopName":"龍潭街22號","ScheduleTime":"16:56","EstimateTime":"","CarInfo":"","Lon":120.2656161,"Lat":23.0295655,"Turn":4,"DayValue":"一,二,四,六","RecycleDate":"一,四"},{"StopId":2859,"StopName":"龍埔街44號","ScheduleTime":"17:05","EstimateTime":"","CarInfo":"","Lon":120.265858,"Lat":23.033848,"Turn":5,"DayValue":"一,二,四,六","RecycleDate":"一,四"},{"StopId":2860,"StopName":"自強路706號","ScheduleTime":"17:16","EstimateTime":"","CarInfo":"","Lon":120.2616412,"Lat":23.0356251,"Turn":6,"DayValue":"一,二,四,六","RecycleDate":"一,四"},{"StopId":2861,"StopName":"龍橋街127號","ScheduleTime":"17:34","EstimateTime":"","CarInfo":"","Lon":120.2650198,"Lat":23.0370832,"Turn":7,"DayValue":"一,二,四,六","RecycleDate":"一,四"},{"StopId":2862,"StopName":"育樂街145號","ScheduleTime":"17:34","EstimateTime":"","CarInfo":"","Lon":120.268837,"Lat":23.034901,"Turn":8,"DayValue":"一,二,四,六","RecycleDate":"一,四"},{"StopId":2863,"StopName":"龍潭街143號","ScheduleTime":"17:43","EstimateTime":"","CarInfo":"","Lon":120.267152,"Lat":23.0340016,"Turn":9,"DayValue":"一,二,四,六","RecycleDate":"一,四"},{"StopId":2864,"StopName":"龍昌街83號","ScheduleTime":"17:43","EstimateTime":"","CarInfo":"","Lon":120.267951,"Lat":23.032861,"Turn":10,"DayValue":"一,二,四,六","RecycleDate":"一,四"},{"StopId":2865,"StopName":"龍國街422號","ScheduleTime":"17:43","EstimateTime":"","CarInfo":"","Lon":120.267043,"Lat":23.031891,"Turn":11,"DayValue":"一,二,四,六","RecycleDate":"一,四"},{"StopId":2866,"StopName":"王行路220號","ScheduleTime":"18:41","EstimateTime":"","CarInfo":"","Lon":120.274577,"Lat":23.033339,"Turn":12,"DayValue":"一,二,四,六","RecycleDate":"一,四"},{"StopId":2867,"StopName":"王行路390號","ScheduleTime":"18:41","EstimateTime":"","CarInfo":"","Lon":120.272432,"Lat":23.037404,"Turn":13,"DayValue":"一,二,四,六","RecycleDate":"一,四"},{"StopId":2868,"StopName":"王行路215號","ScheduleTime":"18:41","EstimateTime":"","CarInfo":"","Lon":120.272955,"Lat":23.035881,"Turn":14,"DayValue":"一,二,四,六","RecycleDate":"一,四"},{"StopId":2869,"StopName":"中山北路317號","ScheduleTime":"18:59","EstimateTime":"","CarInfo":"","Lon":120.264875,"Lat":23.028804,"Turn":15,"DayValue":"一,二,四,六","RecycleDate":"一,四"},{"StopId":2870,"StopName":"中山北路37號","ScheduleTime":"18:59","EstimateTime":"","CarInfo":"","Lon":120.2582162,"Lat":23.0261803,"Turn":16,"DayValue":"一,二,四,六","RecycleDate":"一,四"},{"StopId":2871,"StopName":"中山路12號","ScheduleTime":"19:07","EstimateTime":"","CarInfo":"","Lon":120.2572331,"Lat":23.0265884,"Turn":17,"DayValue":"一,二,四,六","RecycleDate":"一,四"},{"StopId":2872,"StopName":"中山路282號","ScheduleTime":"19:07","EstimateTime":"","CarInfo":"","Lon":120.2556462,"Lat":23.0323262,"Turn":18,"DayValue":"一,二,四,六","RecycleDate":"一,四"},{"StopId":2873,"StopName":"中正路128號","ScheduleTime":"19:32","EstimateTime":"","CarInfo":"","Lon":120.2538531,"Lat":23.0306201,"Turn":19,"DayValue":"一,二,四,六","RecycleDate":"一,四"},{"StopId":2874,"StopName":"中正路223號","ScheduleTime":"19:43","EstimateTime":"","CarInfo":"","Lon":120.2490509,"Lat":23.0315567,"Turn":20,"DayValue":"一,二,四,六","RecycleDate":"一,四"},{"StopId":2875,"StopName":"中山路5號","ScheduleTime":"19:43","EstimateTime":"","CarInfo":"","Lon":120.257087,"Lat":23.0266185,"Turn":21,"DayValue":"一,二,四,六","RecycleDate":"一,四"},{"StopId":2876,"StopName":"中山南路545號","ScheduleTime":"19:57","EstimateTime":"","CarInfo":"","Lon":120.2529106,"Lat":23.0239858,"Turn":22,"DayValue":"一,二,四,六","RecycleDate":"一,四"}],"CarData":[{"CarNo":"009-UT","Angle":26,"Lon":120.265602,"Lat":23.029792}],"RouteId":62,"RouteName":"永康-夜間18","RouteInfo":"中山南路954號~中山南路545號","IsWork":true}]