[{"StopData":[{"StopId":1915,"StopName":"三村國小(鹽行路2 號)","ScheduleTime":"06:30","EstimateTime":"","CarInfo":"","Lon":120.236379,"Lat":23.0419265,"Turn":1,"DayValue":"一,二,四,五,六","RecycleDate":""},{"StopId":1916,"StopName":"駿達天下(中正北路19巷1號)","ScheduleTime":"06:51","EstimateTime":"","CarInfo":"","Lon":120.2381763,"Lat":23.0418842,"Turn":2,"DayValue":"一,二,四,五,六","RecycleDate":""},{"StopId":1917,"StopName":"台南應用科大(和美家傳1期)","ScheduleTime":"06:55","EstimateTime":"","CarInfo":"","Lon":120.239814,"Lat":23.038997,"Turn":3,"DayValue":"一,二,四,五,六","RecycleDate":""},{"StopId":1918,"StopName":"新中街1號","ScheduleTime":"07:12","EstimateTime":"","CarInfo":"","Lon":120.23892,"Lat":23.035468,"Turn":4,"DayValue":"一,二,四,五,六","RecycleDate":""},{"StopId":1919,"StopName":"南台吉第(中華路912巷47號)","ScheduleTime":"07:18","EstimateTime":"","CarInfo":"","Lon":120.2248199,"Lat":23.020345,"Turn":5,"DayValue":"一,二,四,五,六","RecycleDate":""},{"StopId":1920,"StopName":"尚頂活動中心後面","ScheduleTime":"07:21","EstimateTime":"","CarInfo":"","Lon":120.224192,"Lat":23.019784,"Turn":6,"DayValue":"一,二,四,五,六","RecycleDate":""},{"StopId":1921,"StopName":"慈恩五村(南台街135巷5弄7號)","ScheduleTime":"07:32","EstimateTime":"","CarInfo":"","Lon":120.2210802,"Lat":23.0215147,"Turn":7,"DayValue":"一,二,四,五,六","RecycleDate":""},{"StopId":1922,"StopName":"甲頂里籃球場","ScheduleTime":"07:38","EstimateTime":"","CarInfo":"","Lon":120.2198663,"Lat":23.0208751,"Turn":8,"DayValue":"一,二,四,五,六","RecycleDate":""},{"StopId":1923,"StopName":"東方荷蘭(大武街70號)","ScheduleTime":"07:53","EstimateTime":"","CarInfo":"","Lon":120.223318,"Lat":23.020936,"Turn":9,"DayValue":"一,二,四,五,六","RecycleDate":""},{"StopId":1924,"StopName":"台新銀行後面(中華路986號)","ScheduleTime":"08:02","EstimateTime":"","CarInfo":"","Lon":120.2221762,"Lat":23.021246,"Turn":10,"DayValue":"一,二,四,五,六","RecycleDate":""},{"StopId":1925,"StopName":"泰國大樓(南台街13巷37號)","ScheduleTime":"08:09","EstimateTime":"","CarInfo":"","Lon":120.22298,"Lat":23.021113,"Turn":11,"DayValue":"一,二,四,五,六","RecycleDate":""},{"StopId":1926,"StopName":"中華新世紀(南台街89巷13號)","ScheduleTime":"08:14","EstimateTime":"","CarInfo":"","Lon":120.2213811,"Lat":23.0221353,"Turn":12,"DayValue":"一,二,四,五,六","RecycleDate":""},{"StopId":1927,"StopName":"柏克萊大廈(南台街170號)","ScheduleTime":"08:17","EstimateTime":"","CarInfo":"","Lon":120.219814,"Lat":23.022988,"Turn":13,"DayValue":"一,二,四,五,六","RecycleDate":""},{"StopId":1928,"StopName":"家專大學城(正南5街289巷51之1號)","ScheduleTime":"08:26","EstimateTime":"","CarInfo":"","Lon":120.2368442,"Lat":23.0352402,"Turn":14,"DayValue":"一,二,四,五,六","RecycleDate":""},{"StopId":1929,"StopName":"家專組曲(中正北路175號)","ScheduleTime":"08:30","EstimateTime":"","CarInfo":"","Lon":120.2430428,"Lat":23.0417919,"Turn":15,"DayValue":"一,二,四,五,六","RecycleDate":""},{"StopId":1930,"StopName":"鳳翔金世界(中正北路54號後)","ScheduleTime":"08:35","EstimateTime":"","CarInfo":"","Lon":120.2390214,"Lat":23.0411641,"Turn":16,"DayValue":"一,二,四,五,六","RecycleDate":""},{"StopId":1931,"StopName":"泊采會館(中正7街25巷2號)","ScheduleTime":"08:38","EstimateTime":"","CarInfo":"","Lon":120.23986,"Lat":23.040132,"Turn":17,"DayValue":"一,二,四,五,六","RecycleDate":""},{"StopId":1932,"StopName":"麗晶雅舍(中正7街23號)","ScheduleTime":"08:41","EstimateTime":"","CarInfo":"","Lon":120.239855,"Lat":23.039844,"Turn":18,"DayValue":"一,二,四,五,六","RecycleDate":""},{"StopId":1933,"StopName":"和美家專2期(中正7街21號)","ScheduleTime":"08:43","EstimateTime":"","CarInfo":"","Lon":120.2397433,"Lat":23.0397866,"Turn":19,"DayValue":"一,二,四,五,六","RecycleDate":""},{"StopId":1934,"StopName":"凱悅新世界(鹽行路146巷20弄7號)","ScheduleTime":"08:45","EstimateTime":"","CarInfo":"","Lon":120.2329413,"Lat":23.0436122,"Turn":20,"DayValue":"一,二,四,五,六","RecycleDate":""},{"StopId":1935,"StopName":"蝶戀大樓(鹽洲2街160巷3號)","ScheduleTime":"08:48","EstimateTime":"","CarInfo":"","Lon":120.235535,"Lat":23.0437444,"Turn":21,"DayValue":"一,二,四,五,六","RecycleDate":""},{"StopId":1936,"StopName":"任全企業(三村1街23號)每星期二.五收運","ScheduleTime":"08:52","EstimateTime":"","CarInfo":"","Lon":120.2414629,"Lat":23.0430907,"Turn":22,"DayValue":"一,二,四,五,六","RecycleDate":""},{"StopId":1937,"StopName":"永安一街56巷5號","ScheduleTime":"08:53","EstimateTime":"","CarInfo":"","Lon":120.244548,"Lat":23.044588,"Turn":23,"DayValue":"一,二,四,五,六","RecycleDate":""},{"StopId":1938,"StopName":"名揚四海(永安路103巷46弄44號)","ScheduleTime":"08:55","EstimateTime":"","CarInfo":"","Lon":120.244854,"Lat":23.043429,"Turn":24,"DayValue":"一,二,四,五,六","RecycleDate":""},{"StopId":1939,"StopName":"統一學苑(永安路165巷155號)","ScheduleTime":"09:01","EstimateTime":"","CarInfo":"","Lon":120.242797,"Lat":23.044795,"Turn":25,"DayValue":"一,二,四,五,六","RecycleDate":""},{"StopId":1940,"StopName":"科學苑(永安一 街86號)","ScheduleTime":"09:04","EstimateTime":"","CarInfo":"","Lon":120.2435511,"Lat":23.0443344,"Turn":26,"DayValue":"一,二,四,五,六","RecycleDate":""},{"StopId":1941,"StopName":"統一職棒（新行街291巷15號）","ScheduleTime":"09:07","EstimateTime":"","CarInfo":"","Lon":120.242119,"Lat":23.045259,"Turn":27,"DayValue":"一,二,四,五,六","RecycleDate":""},{"StopId":1942,"StopName":"龍的天下、鳳翔天下(新行街125號))","ScheduleTime":"09:11","EstimateTime":"","CarInfo":"","Lon":120.2420638,"Lat":23.0409994,"Turn":28,"DayValue":"一,二,四,五,六","RecycleDate":""},{"StopId":1943,"StopName":"家專天地銀區(新行街98巷13弄1之1號)","ScheduleTime":"09:13","EstimateTime":"","CarInfo":"","Lon":120.242068,"Lat":23.0407388,"Turn":29,"DayValue":"一,二,四,五,六","RecycleDate":""},{"StopId":1944,"StopName":"家專天地金區(新行街98巷14弄12號)","ScheduleTime":"09:14","EstimateTime":"","CarInfo":"","Lon":120.2419878,"Lat":23.0401384,"Turn":30,"DayValue":"一,二,四,五,六","RecycleDate":""},{"StopId":1945,"StopName":"中山南路195巷32號","ScheduleTime":"10:10","EstimateTime":"","CarInfo":"","Lon":120.233508,"Lat":23.017176,"Turn":31,"DayValue":"一,二,四,五,六","RecycleDate":""},{"StopId":1946,"StopName":"中華大道(中華路349號)","ScheduleTime":"10:20","EstimateTime":"","CarInfo":"","Lon":120.2338543,"Lat":23.0083617,"Turn":32,"DayValue":"一,二,四,五,六","RecycleDate":""},{"StopId":1947,"StopName":"歐香大地(中山南路490巷2弄6號)","ScheduleTime":"10:27","EstimateTime":"","CarInfo":"","Lon":120.239628,"Lat":23.017319,"Turn":33,"DayValue":"一,二,四,五,六","RecycleDate":""},{"StopId":1948,"StopName":"維冠龍殿(永二街411號)","ScheduleTime":"10:45","EstimateTime":"","CarInfo":"","Lon":120.2468936,"Lat":23.0196533,"Turn":34,"DayValue":"一,二,四,五,六","RecycleDate":""},{"StopId":1949,"StopName":"永康綠地(二王路10號林宜瑾議員服務處)","ScheduleTime":"10:53","EstimateTime":"","CarInfo":"","Lon":120.24874,"Lat":23.0213587,"Turn":35,"DayValue":"一,二,四,五,六","RecycleDate":""},{"StopId":1950,"StopName":"啟順名夏(中正路55巷2號)","ScheduleTime":"11:05","EstimateTime":"","CarInfo":"","Lon":120.254429,"Lat":23.029776,"Turn":36,"DayValue":"一,二,四,五,六","RecycleDate":""},{"StopId":1951,"StopName":"羅丹天地(四維街51巷5號)","ScheduleTime":"11:13","EstimateTime":"","CarInfo":"","Lon":120.2526544,"Lat":23.0323338,"Turn":37,"DayValue":"一,二,四,五,六","RecycleDate":""},{"StopId":1952,"StopName":"歐洲世界6期(正強街290號)","ScheduleTime":"11:17","EstimateTime":"","CarInfo":"","Lon":120.2515186,"Lat":23.0311421,"Turn":38,"DayValue":"一,二,四,五,六","RecycleDate":""},{"StopId":1953,"StopName":"歐洲世界5期(中正路256巷1號)","ScheduleTime":"11:21","EstimateTime":"","CarInfo":"","Lon":120.2513052,"Lat":23.0315923,"Turn":39,"DayValue":"一,二,四,五,六","RecycleDate":""},{"StopId":1954,"StopName":"新天地(龍埔街85號)","ScheduleTime":"11:25","EstimateTime":"","CarInfo":"","Lon":120.2643483,"Lat":23.0335151,"Turn":40,"DayValue":"一,二,四,五,六","RecycleDate":""},{"StopId":1955,"StopName":"永康分局(龍埔街137號)","ScheduleTime":"11:30","EstimateTime":"","CarInfo":"","Lon":120.2638353,"Lat":23.0338957,"Turn":41,"DayValue":"一,二,四,五,六","RecycleDate":""},{"StopId":1956,"StopName":"統偉建設(永大路3段360巷30弄8號)","ScheduleTime":"11:34","EstimateTime":"","CarInfo":"","Lon":120.2601516,"Lat":23.0335633,"Turn":42,"DayValue":"一,二,四,五,六","RecycleDate":""},{"StopId":1957,"StopName":"力漢王朝(八德街55巷17號)","ScheduleTime":"11:38","EstimateTime":"","CarInfo":"","Lon":120.2608055,"Lat":23.0361839,"Turn":43,"DayValue":"一,二,四,五,六","RecycleDate":""},{"StopId":1958,"StopName":"雅太晶華一期(竹圍一街51號)","ScheduleTime":"11:42","EstimateTime":"","CarInfo":"","Lon":120.2623601,"Lat":23.0404126,"Turn":44,"DayValue":"一,二,四,五,六","RecycleDate":""},{"StopId":1959,"StopName":"雅太晶華二期(竹圍一街41號)","ScheduleTime":"11:46","EstimateTime":"","CarInfo":"","Lon":120.2627375,"Lat":23.0405362,"Turn":45,"DayValue":"一,二,四,五,六","RecycleDate":""},{"StopId":1960,"StopName":"龍橋會館(龍橋街96巷1號)","ScheduleTime":"11:50","EstimateTime":"","CarInfo":"","Lon":120.2636777,"Lat":23.0407362,"Turn":46,"DayValue":"一,二,四,五,六","RecycleDate":""},{"StopId":1961,"StopName":"龍傳人(龍安街290號)","ScheduleTime":"11:55","EstimateTime":"","CarInfo":"","Lon":120.266112,"Lat":23.037191,"Turn":47,"DayValue":"一,二,四,五,六","RecycleDate":""},{"StopId":1962,"StopName":"東澳兩棟大樓(龍安街249號)","ScheduleTime":"12:00","EstimateTime":"","CarInfo":"","Lon":120.265915,"Lat":23.037268,"Turn":48,"DayValue":"一,二,四,五,六","RecycleDate":""}],"CarData":[{"CarNo":"092-UT","Angle":167,"Lon":120.248603,"Lat":23.055582}],"RouteId":48,"RouteName":"永康-日間2","RouteInfo":"三村國小(鹽行路2 號)~東澳兩棟大樓(龍安街249號)","IsWork":true}]