[{"StopData":[{"StopId":16420,"StopName":"裕敬路5號","ScheduleTime":"15:45","EstimateTime":"","CarInfo":"","Lon":120.242232,"Lat":22.979867,"Turn":1,"DayValue":"一,二,四,六","RecycleDate":"二,六"},{"StopId":16421,"StopName":"裕忠路307號","ScheduleTime":"15:48","EstimateTime":"","CarInfo":"","Lon":120.241817,"Lat":22.980401,"Turn":2,"DayValue":"一,二,四,六","RecycleDate":"二,六"},{"StopId":16422,"StopName":"裕忠路與裕忠一街口","ScheduleTime":"15:50","EstimateTime":"","CarInfo":"","Lon":120.24182,"Lat":22.98114,"Turn":3,"DayValue":"一,二,四,六","RecycleDate":"二,六"},{"StopId":16423,"StopName":"裕文路132號","ScheduleTime":"15:52","EstimateTime":"","CarInfo":"","Lon":120.241809,"Lat":22.982459,"Turn":4,"DayValue":"一,二,四,六","RecycleDate":"二,六"},{"StopId":16424,"StopName":"裕文路168號","ScheduleTime":"15:54","EstimateTime":"","CarInfo":"","Lon":120.243928,"Lat":22.982244,"Turn":5,"DayValue":"一,二,四,六","RecycleDate":"二,六"},{"StopId":16425,"StopName":"裕信路328號","ScheduleTime":"15:56","EstimateTime":"","CarInfo":"","Lon":120.244953,"Lat":22.981382,"Turn":6,"DayValue":"一,二,四,六","RecycleDate":"二,六"},{"StopId":16426,"StopName":"裕信路332號","ScheduleTime":"15:59","EstimateTime":"","CarInfo":"","Lon":120.244982,"Lat":22.980985,"Turn":7,"DayValue":"一,二,四,六","RecycleDate":"二,六"},{"StopId":16427,"StopName":"裕信路346號","ScheduleTime":"16:02","EstimateTime":"","CarInfo":"","Lon":120.244458,"Lat":22.979858,"Turn":8,"DayValue":"一,二,四,六","RecycleDate":"二,六"},{"StopId":16428,"StopName":"裕孝路與裕文路口","ScheduleTime":"16:06","EstimateTime":"","CarInfo":"","Lon":120.243642,"Lat":22.979862,"Turn":9,"DayValue":"一,二,四,六","RecycleDate":"二,六"},{"StopId":16429,"StopName":"裕孝路185號","ScheduleTime":"16:09","EstimateTime":"","CarInfo":"","Lon":120.243513,"Lat":22.984195,"Turn":10,"DayValue":"一,二,四,六","RecycleDate":"二,六"},{"StopId":16430,"StopName":"裕和路302號","ScheduleTime":"16:12","EstimateTime":"","CarInfo":"","Lon":120.244639,"Lat":22.987728,"Turn":11,"DayValue":"一,二,四,六","RecycleDate":"二,六"},{"StopId":16431,"StopName":"裕信路218號(統一神曲)","ScheduleTime":"16:16","EstimateTime":"","CarInfo":"","Lon":120.244972,"Lat":22.986332,"Turn":12,"DayValue":"一,二,四,六","RecycleDate":"二,六"},{"StopId":16432,"StopName":"裕信路222號(綠邑公寓旁)","ScheduleTime":"16:18","EstimateTime":"","CarInfo":"","Lon":120.244947,"Lat":22.985844,"Turn":13,"DayValue":"一,二,四,六","RecycleDate":"二,六"},{"StopId":16433,"StopName":"裕信路236號(復興明園)","ScheduleTime":"16:20","EstimateTime":"","CarInfo":"","Lon":120.244981,"Lat":22.985426,"Turn":14,"DayValue":"一,二,四,六","RecycleDate":"二,六"},{"StopId":16434,"StopName":"裕信路282號","ScheduleTime":"16:20","EstimateTime":"","CarInfo":"","Lon":120.244977,"Lat":22.983974,"Turn":15,"DayValue":"一,二,四,六","RecycleDate":"二,六"},{"StopId":16435,"StopName":"裕信路與裕興街口","ScheduleTime":"16:23","EstimateTime":"","CarInfo":"","Lon":120.244983,"Lat":22.983444,"Turn":16,"DayValue":"一,二,四,六","RecycleDate":"二,六"},{"StopId":16436,"StopName":"裕信路308之35號旁","ScheduleTime":"16:25","EstimateTime":"","CarInfo":"","Lon":120.244997,"Lat":22.983027,"Turn":17,"DayValue":"一,二,四,六","RecycleDate":"二,六"},{"StopId":16437,"StopName":"裕孝路與裕忠一街口","ScheduleTime":"16:28","EstimateTime":"","CarInfo":"","Lon":120.24496,"Lat":22.981133,"Turn":18,"DayValue":"一,二,四,六","RecycleDate":"二,六"},{"StopId":16438,"StopName":"裕孝路423號前","ScheduleTime":"16:31","EstimateTime":"","CarInfo":"","Lon":120.243481,"Lat":22.980199,"Turn":19,"DayValue":"一,二,四,六","RecycleDate":"二,六"},{"StopId":16439,"StopName":"裕孝路960號","ScheduleTime":"16:33","EstimateTime":"","CarInfo":"","Lon":120.243511,"Lat":22.977862,"Turn":20,"DayValue":"一,二,四,六","RecycleDate":"二,六"},{"StopId":16440,"StopName":"裕孝路與裕孝三街口","ScheduleTime":"16:35","EstimateTime":"","CarInfo":"","Lon":120.243798,"Lat":22.97823,"Turn":21,"DayValue":"一,二,四,六","RecycleDate":"二,六"},{"StopId":16441,"StopName":"裕孝三街與裕敬一街口","ScheduleTime":"16:37","EstimateTime":"","CarInfo":"","Lon":120.24454,"Lat":22.978213,"Turn":22,"DayValue":"一,二,四,六","RecycleDate":"二,六"},{"StopId":16442,"StopName":"裕信路380號","ScheduleTime":"16:39","EstimateTime":"","CarInfo":"","Lon":120.245026,"Lat":22.978268,"Turn":23,"DayValue":"一,二,四,六","RecycleDate":"二,六"},{"StopId":16443,"StopName":"裕信路466號","ScheduleTime":"16:41","EstimateTime":"","CarInfo":"","Lon":120.244773,"Lat":22.977261,"Turn":24,"DayValue":"一,二,四,六","RecycleDate":"二,六"},{"StopId":16444,"StopName":"裕孝三街57-3號前","ScheduleTime":"16:45","EstimateTime":"","CarInfo":"","Lon":120.245703,"Lat":22.978361,"Turn":25,"DayValue":"一,二,四,六","RecycleDate":"二,六"},{"StopId":16445,"StopName":"裕信三街113號","ScheduleTime":"16:48","EstimateTime":"","CarInfo":"","Lon":120.247374,"Lat":22.980617,"Turn":26,"DayValue":"一,二,四,六","RecycleDate":"二,六"},{"StopId":16446,"StopName":"裕信三街與裕敬三街口","ScheduleTime":"16:51","EstimateTime":"","CarInfo":"","Lon":120.246653,"Lat":22.981832,"Turn":27,"DayValue":"一,二,四,六","RecycleDate":"二,六"},{"StopId":16447,"StopName":"裕文一街與裕文路口","ScheduleTime":"16:54","EstimateTime":"","CarInfo":"","Lon":120.246419,"Lat":22.982408,"Turn":28,"DayValue":"一,二,四,六","RecycleDate":"二,六"},{"StopId":16448,"StopName":"裕文一街與裕正街口","ScheduleTime":"16:56","EstimateTime":"","CarInfo":"","Lon":120.246405,"Lat":22.983383,"Turn":29,"DayValue":"一,二,四,六","RecycleDate":"二,六"},{"StopId":16449,"StopName":"裕文一街與裕信二街口","ScheduleTime":"16:58","EstimateTime":"","CarInfo":"","Lon":120.246408,"Lat":22.984432,"Turn":30,"DayValue":"一,二,四,六","RecycleDate":"二,六"},{"StopId":16450,"StopName":"裕文一街與裕平路口","ScheduleTime":"17:00","EstimateTime":"","CarInfo":"","Lon":120.24637,"Lat":22.985183,"Turn":31,"DayValue":"一,二,四,六","RecycleDate":"二,六"},{"StopId":16451,"StopName":"裕文一街163號前（成大建設）","ScheduleTime":"17:02","EstimateTime":"","CarInfo":"","Lon":120.246306,"Lat":22.986692,"Turn":32,"DayValue":"一,二,四,六","RecycleDate":"二,六"},{"StopId":16452,"StopName":"裕和五街197號聖汝宮前","ScheduleTime":"17:04","EstimateTime":"","CarInfo":"","Lon":120.247188,"Lat":22.985724,"Turn":33,"DayValue":"一,二,四,六","RecycleDate":"二,六"},{"StopId":16453,"StopName":"裕善街8號前","ScheduleTime":"17:08","EstimateTime":"","CarInfo":"","Lon":120.245849,"Lat":22.98727,"Turn":34,"DayValue":"一,二,四,六","RecycleDate":"二,六"},{"StopId":16454,"StopName":"裕善街68號前","ScheduleTime":"17:11","EstimateTime":"","CarInfo":"","Lon":120.246949,"Lat":22.987243,"Turn":35,"DayValue":"一,二,四,六","RecycleDate":"二,六"},{"StopId":16455,"StopName":"裕和五街43號旁","ScheduleTime":"17:14","EstimateTime":"","CarInfo":"","Lon":120.247148,"Lat":22.9887,"Turn":36,"DayValue":"一,二,四,六","RecycleDate":"二,六"},{"StopId":16456,"StopName":"裕誠街360號圓通寺旁","ScheduleTime":"17:16","EstimateTime":"","CarInfo":"","Lon":120.246101,"Lat":22.989739,"Turn":37,"DayValue":"一,二,四,六","RecycleDate":"二,六"},{"StopId":16457,"StopName":"裕信一街43號","ScheduleTime":"17:18","EstimateTime":"","CarInfo":"","Lon":120.245962,"Lat":22.989267,"Turn":38,"DayValue":"一,二,四,六","RecycleDate":"二,六"},{"StopId":16458,"StopName":"裕義路{沿線收運}","ScheduleTime":"17:22","EstimateTime":"","CarInfo":"","Lon":120.247727,"Lat":22.98867,"Turn":39,"DayValue":"一,二,四,六","RecycleDate":"二,六"},{"StopId":16459,"StopName":"裕信六街1號(花與綠公園旁)","ScheduleTime":"18:52","EstimateTime":"","CarInfo":"","Lon":120.245213,"Lat":22.976574,"Turn":40,"DayValue":"一,二,四,六","RecycleDate":"二,六"},{"StopId":16460,"StopName":"裕信六街109號","ScheduleTime":"18:55","EstimateTime":"","CarInfo":"","Lon":120.246507,"Lat":22.976589,"Turn":41,"DayValue":"一,二,四,六","RecycleDate":"二,六"},{"StopId":16461,"StopName":"裕敬五街與裕信六街口","ScheduleTime":"18:57","EstimateTime":"","CarInfo":"","Lon":120.247483,"Lat":22.976638,"Turn":42,"DayValue":"一,二,四,六","RecycleDate":"二,六"},{"StopId":16462,"StopName":"裕敬五街與裕孝三街口","ScheduleTime":"18:59","EstimateTime":"","CarInfo":"","Lon":120.247427,"Lat":22.978265,"Turn":43,"DayValue":"一,二,四,六","RecycleDate":"二,六"},{"StopId":16463,"StopName":"裕東一街與裕華三街口(水泥工會)","ScheduleTime":"19:02","EstimateTime":"","CarInfo":"","Lon":120.246756,"Lat":22.977596,"Turn":44,"DayValue":"一,二,四,六","RecycleDate":"二,六"},{"StopId":16464,"StopName":"裕東二街30號前","ScheduleTime":"19:04","EstimateTime":"","CarInfo":"","Lon":120.246317,"Lat":22.977066,"Turn":45,"DayValue":"一,二,四,六","RecycleDate":"二,六"},{"StopId":16465,"StopName":"裕敬二街101號","ScheduleTime":"19:06","EstimateTime":"","CarInfo":"","Lon":120.245701,"Lat":22.977415,"Turn":46,"DayValue":"一,二,四,六","RecycleDate":"二,六"},{"StopId":16466,"StopName":"裕信路347號","ScheduleTime":"19:08","EstimateTime":"","CarInfo":"","Lon":120.245168,"Lat":22.979126,"Turn":47,"DayValue":"一,二,四,六","RecycleDate":"二,六"},{"StopId":16467,"StopName":"裕華二街32號 (公園)","ScheduleTime":"19:10","EstimateTime":"","CarInfo":"","Lon":120.246177,"Lat":22.978762,"Turn":48,"DayValue":"一,二,四,六","RecycleDate":"二,六"},{"StopId":16468,"StopName":"裕華一街33號前(公園)","ScheduleTime":"19:13","EstimateTime":"","CarInfo":"","Lon":120.247008,"Lat":22.979274,"Turn":49,"DayValue":"一,二,四,六","RecycleDate":"二,六"},{"StopId":16469,"StopName":"裕敬路與裕敬五街口","ScheduleTime":"19:15","EstimateTime":"","CarInfo":"","Lon":120.247362,"Lat":22.979822,"Turn":50,"DayValue":"一,二,四,六","RecycleDate":"二,六"},{"StopId":16470,"StopName":"裕敬路與裕敬二街口","ScheduleTime":"19:17","EstimateTime":"","CarInfo":"","Lon":120.24561,"Lat":22.979884,"Turn":51,"DayValue":"一,二,四,六","RecycleDate":"二,六"},{"StopId":16471,"StopName":"裕信路283號(陽光綠邑)","ScheduleTime":"19:20","EstimateTime":"","CarInfo":"","Lon":120.245134,"Lat":22.980506,"Turn":52,"DayValue":"一,二,四,六","RecycleDate":"二,六"},{"StopId":16472,"StopName":"裕敬三街與裕信三街口(凡人居)","ScheduleTime":"19:24","EstimateTime":"","CarInfo":"","Lon":120.246773,"Lat":22.980307,"Turn":53,"DayValue":"一,二,四,六","RecycleDate":"二,六"},{"StopId":16473,"StopName":"裕敬路與裕敬一街口","ScheduleTime":"19:27","EstimateTime":"","CarInfo":"","Lon":120.244512,"Lat":22.979751,"Turn":54,"DayValue":"一,二,四,六","RecycleDate":"二,六"},{"StopId":16474,"StopName":"裕敬一街與裕孝二街口","ScheduleTime":"19:30","EstimateTime":"","CarInfo":"","Lon":120.244379,"Lat":22.97877,"Turn":55,"DayValue":"一,二,四,六","RecycleDate":"二,六"},{"StopId":16475,"StopName":"裕孝路與裕孝一街口","ScheduleTime":"19:33","EstimateTime":"","CarInfo":"","Lon":120.243492,"Lat":22.979364,"Turn":56,"DayValue":"一,二,四,六","RecycleDate":"二,六"},{"StopId":16476,"StopName":"裕孝路與裕敬路口","ScheduleTime":"19:36","EstimateTime":"","CarInfo":"","Lon":120.243488,"Lat":22.980006,"Turn":57,"DayValue":"一,二,四,六","RecycleDate":"二,六"},{"StopId":16477,"StopName":"裕孝路與裕忠一街口","ScheduleTime":"19:40","EstimateTime":"","CarInfo":"","Lon":120.243473,"Lat":22.981302,"Turn":58,"DayValue":"一,二,四,六","RecycleDate":"二,六"},{"StopId":16478,"StopName":"裕孝路223號","ScheduleTime":"19:43","EstimateTime":"","CarInfo":"","Lon":120.243463,"Lat":22.982658,"Turn":59,"DayValue":"一,二,四,六","RecycleDate":"二,六"},{"StopId":16479,"StopName":"裕孝路與裕興街口","ScheduleTime":"19:46","EstimateTime":"","CarInfo":"","Lon":120.243539,"Lat":22.983521,"Turn":60,"DayValue":"一,二,四,六","RecycleDate":"二,六"},{"StopId":16480,"StopName":"裕孝路170號","ScheduleTime":"19:50","EstimateTime":"","CarInfo":"","Lon":120.243534,"Lat":22.984696,"Turn":61,"DayValue":"一,二,四,六","RecycleDate":"二,六"},{"StopId":16481,"StopName":"裕平路276號","ScheduleTime":"19:53","EstimateTime":"","CarInfo":"","Lon":120.244453,"Lat":22.984958,"Turn":62,"DayValue":"一,二,四,六","RecycleDate":"二,六"},{"StopId":16482,"StopName":"裕信二街169號(香榭大道)","ScheduleTime":"19:56","EstimateTime":"","CarInfo":"","Lon":120.247146,"Lat":22.982914,"Turn":63,"DayValue":"一,二,四,六","RecycleDate":"二,六"},{"StopId":16483,"StopName":"裕信二街與裕正街口","ScheduleTime":"19:58","EstimateTime":"","CarInfo":"","Lon":120.247146,"Lat":22.983347,"Turn":64,"DayValue":"一,二,四,六","RecycleDate":"二,六"},{"StopId":16484,"StopName":"裕信二街98號","ScheduleTime":"20:00","EstimateTime":"","CarInfo":"","Lon":120.24713,"Lat":22.984053,"Turn":65,"DayValue":"一,二,四,六","RecycleDate":"二,六"},{"StopId":16485,"StopName":"裕文一街與裕和三街口","ScheduleTime":"20:02","EstimateTime":"","CarInfo":"","Lon":120.246221,"Lat":22.985572,"Turn":66,"DayValue":"一,二,四,六","RecycleDate":"二,六"},{"StopId":16486,"StopName":"裕和三街23號前","ScheduleTime":"20:05","EstimateTime":"","CarInfo":"","Lon":120.245696,"Lat":22.986605,"Turn":67,"DayValue":"一,二,四,六","RecycleDate":"二,六"},{"StopId":16487,"StopName":"裕和路與裕和三街口","ScheduleTime":"20:08","EstimateTime":"","CarInfo":"","Lon":120.245712,"Lat":22.987703,"Turn":68,"DayValue":"一,二,四,六","RecycleDate":"二,六"},{"StopId":16488,"StopName":"裕信路22號","ScheduleTime":"20:10","EstimateTime":"","CarInfo":"","Lon":120.245158,"Lat":22.9892,"Turn":69,"DayValue":"一,二,四,六","RecycleDate":"二,六"},{"StopId":16489,"StopName":"裕信路36號前","ScheduleTime":"20:12","EstimateTime":"","CarInfo":"","Lon":120.245182,"Lat":22.988692,"Turn":70,"DayValue":"一,二,四,六","RecycleDate":"二,六"},{"StopId":16490,"StopName":"裕信路與裕和路口","ScheduleTime":"20:14","EstimateTime":"","CarInfo":"","Lon":120.245198,"Lat":22.987882,"Turn":71,"DayValue":"一,二,四,六","RecycleDate":"二,六"},{"StopId":16491,"StopName":"裕信路168號","ScheduleTime":"20:17","EstimateTime":"","CarInfo":"","Lon":120.245182,"Lat":22.987221,"Turn":72,"DayValue":"一,二,四,六","RecycleDate":"二,六"},{"StopId":16492,"StopName":"裕孝路157號","ScheduleTime":"20:20","EstimateTime":"","CarInfo":"","Lon":120.243527,"Lat":22.985935,"Turn":73,"DayValue":"一,二,四,六","RecycleDate":"二,六"},{"StopId":16493,"StopName":"裕孝路151號(統一神曲)","ScheduleTime":"20:23","EstimateTime":"","CarInfo":"","Lon":120.243562,"Lat":22.986476,"Turn":74,"DayValue":"一,二,四,六","RecycleDate":"二,六"},{"StopId":16494,"StopName":"裕孝路133號","ScheduleTime":"20:26","EstimateTime":"","CarInfo":"","Lon":120.243519,"Lat":22.987098,"Turn":75,"DayValue":"一,二,四,六","RecycleDate":"二,六"},{"StopId":16495,"StopName":"裕孝路47號","ScheduleTime":"20:29","EstimateTime":"","CarInfo":"","Lon":120.243321,"Lat":22.988776,"Turn":76,"DayValue":"一,二,四,六","RecycleDate":"二,六"}],"CarData":[],"RouteId":188,"RouteName":"東區-22","RouteInfo":"裕敬路5號~裕孝路47號","IsWork":true}]