[{"StopData":[{"StopId":17411,"StopName":"忠孝路243巷前","ScheduleTime":"16:50","EstimateTime":"","CarInfo":"","Lon":120.302143,"Lat":23.037382,"Turn":1,"DayValue":"二","RecycleDate":""},{"StopId":17412,"StopName":"正新路251巷19號(聯興市場)","ScheduleTime":"16:52","EstimateTime":"","CarInfo":"","Lon":120.302302,"Lat":23.036716,"Turn":2,"DayValue":"二","RecycleDate":""},{"StopId":17413,"StopName":"正新路265號","ScheduleTime":"16:54","EstimateTime":"","CarInfo":"","Lon":120.30303,"Lat":23.037058,"Turn":3,"DayValue":"二","RecycleDate":""},{"StopId":17414,"StopName":"民權街122號","ScheduleTime":"16:58","EstimateTime":"","CarInfo":"","Lon":120.304493,"Lat":23.039319,"Turn":4,"DayValue":"二","RecycleDate":""},{"StopId":17415,"StopName":"民權街166號(紅橋)","ScheduleTime":"16:59","EstimateTime":"","CarInfo":"","Lon":120.304414,"Lat":23.040229,"Turn":5,"DayValue":"二","RecycleDate":""},{"StopId":17416,"StopName":"中正路633巷10號","ScheduleTime":"17:02","EstimateTime":"","CarInfo":"","Lon":120.305647,"Lat":23.040318,"Turn":6,"DayValue":"二","RecycleDate":""},{"StopId":17417,"StopName":"中正路580巷2-7號(水利會前)","ScheduleTime":"17:05","EstimateTime":"","CarInfo":"","Lon":120.306327,"Lat":23.041338,"Turn":7,"DayValue":"二","RecycleDate":""},{"StopId":17418,"StopName":"民生路300號","ScheduleTime":"17:07","EstimateTime":"","CarInfo":"","Lon":120.306607,"Lat":23.042764,"Turn":8,"DayValue":"二","RecycleDate":""},{"StopId":17419,"StopName":"民生路314巷16號","ScheduleTime":"17:09","EstimateTime":"","CarInfo":"","Lon":120.306943,"Lat":23.043219,"Turn":9,"DayValue":"二","RecycleDate":""},{"StopId":17420,"StopName":"民生路314巷36號","ScheduleTime":"17:11","EstimateTime":"","CarInfo":"","Lon":120.307572,"Lat":23.043171,"Turn":10,"DayValue":"二","RecycleDate":""},{"StopId":17421,"StopName":"民生路234巷15號","ScheduleTime":"17:15","EstimateTime":"","CarInfo":"","Lon":120.307753,"Lat":23.041709,"Turn":11,"DayValue":"二","RecycleDate":""},{"StopId":17422,"StopName":"民生路315號","ScheduleTime":"17:18","EstimateTime":"","CarInfo":"","Lon":120.306248,"Lat":23.042857,"Turn":12,"DayValue":"二","RecycleDate":""},{"StopId":17423,"StopName":"民生路221號至高中後門迴轉","ScheduleTime":"17:20","EstimateTime":"","CarInfo":"","Lon":120.308697,"Lat":23.039804,"Turn":13,"DayValue":"二","RecycleDate":""},{"StopId":17424,"StopName":"中正路590巷1號","ScheduleTime":"17:24","EstimateTime":"","CarInfo":"","Lon":120.305365,"Lat":23.043028,"Turn":14,"DayValue":"二","RecycleDate":""},{"StopId":17425,"StopName":"中正路707巷11號","ScheduleTime":"17:26","EstimateTime":"","CarInfo":"","Lon":120.304427,"Lat":23.04259,"Turn":15,"DayValue":"二","RecycleDate":""},{"StopId":17426,"StopName":"中正路707巷33號","ScheduleTime":"17:28","EstimateTime":"","CarInfo":"","Lon":120.303201,"Lat":23.04208,"Turn":16,"DayValue":"二","RecycleDate":""},{"StopId":17427,"StopName":"太平街150巷222號","ScheduleTime":"17:31","EstimateTime":"","CarInfo":"","Lon":120.300292,"Lat":23.04061,"Turn":17,"DayValue":"二","RecycleDate":""},{"StopId":17428,"StopName":"太平街150巷與大新路116巷口","ScheduleTime":"17:33","EstimateTime":"","CarInfo":"","Lon":120.300468,"Lat":23.039885,"Turn":18,"DayValue":"二","RecycleDate":""},{"StopId":17429,"StopName":"正新路363巷43號","ScheduleTime":"17:35","EstimateTime":"","CarInfo":"","Lon":120.30099,"Lat":23.03972,"Turn":19,"DayValue":"二","RecycleDate":""},{"StopId":17430,"StopName":"正新路363巷22號(京都大樓)","ScheduleTime":"17:37","EstimateTime":"","CarInfo":"","Lon":120.302138,"Lat":23.040147,"Turn":20,"DayValue":"二","RecycleDate":""},{"StopId":17431,"StopName":"太平街150巷1號","ScheduleTime":"17:42","EstimateTime":"","CarInfo":"","Lon":120.300802,"Lat":23.038397,"Turn":21,"DayValue":"二","RecycleDate":""},{"StopId":17432,"StopName":"正新路312號","ScheduleTime":"17:45","EstimateTime":"","CarInfo":"","Lon":120.302722,"Lat":23.039245,"Turn":22,"DayValue":"二","RecycleDate":""},{"StopId":17433,"StopName":"太平街150巷145號","ScheduleTime":"17:47","EstimateTime":"","CarInfo":"","Lon":23.039702,"Lat":23.039702,"Turn":23,"DayValue":"二","RecycleDate":""},{"StopId":17434,"StopName":"大新路79號(大新大樓)","ScheduleTime":"17:49","EstimateTime":"","CarInfo":"","Lon":120.298275,"Lat":23.038482,"Turn":24,"DayValue":"二","RecycleDate":""},{"StopId":17435,"StopName":"大新路3號","ScheduleTime":"17:51","EstimateTime":"","CarInfo":"","Lon":120.29957,"Lat":23.037141,"Turn":25,"DayValue":"二","RecycleDate":""},{"StopId":17436,"StopName":"民治路與中山路路口","ScheduleTime":"17:56","EstimateTime":"","CarInfo":"","Lon":120.304034,"Lat":23.035807,"Turn":26,"DayValue":"二","RecycleDate":""},{"StopId":17437,"StopName":"民治路與信義路路口","ScheduleTime":"17:58","EstimateTime":"","CarInfo":"","Lon":120.304143,"Lat":23.034564,"Turn":27,"DayValue":"二","RecycleDate":""},{"StopId":17438,"StopName":"民治路41號","ScheduleTime":"18:01","EstimateTime":"","CarInfo":"","Lon":120.304446,"Lat":23.032878,"Turn":28,"DayValue":"二","RecycleDate":""},{"StopId":17439,"StopName":"長青街與竹林路路口","ScheduleTime":"18:06","EstimateTime":"","CarInfo":"","Lon":120.30571,"Lat":23.036547,"Turn":29,"DayValue":"二","RecycleDate":""},{"StopId":17440,"StopName":"仁愛街80號","ScheduleTime":"18:11","EstimateTime":"","CarInfo":"","Lon":120.30597,"Lat":23.037229,"Turn":30,"DayValue":"二","RecycleDate":""},{"StopId":17441,"StopName":"仁愛街54-3號","ScheduleTime":"18:14","EstimateTime":"","CarInfo":"","Lon":120.306967,"Lat":23.037302,"Turn":31,"DayValue":"二","RecycleDate":""},{"StopId":17442,"StopName":"信義路103號","ScheduleTime":"19:01","EstimateTime":"","CarInfo":"","Lon":120.314535,"Lat":23.037672,"Turn":32,"DayValue":"二","RecycleDate":""},{"StopId":17443,"StopName":"信義路83-2號","ScheduleTime":"19:04","EstimateTime":"","CarInfo":"","Lon":120.315768,"Lat":23.038505,"Turn":33,"DayValue":"二","RecycleDate":""},{"StopId":17444,"StopName":"復興路292-2號(不二髮門)","ScheduleTime":"19:14","EstimateTime":"","CarInfo":"","Lon":120.310455,"Lat":23.036294,"Turn":34,"DayValue":"二","RecycleDate":""},{"StopId":17445,"StopName":"大同街108號","ScheduleTime":"19:18","EstimateTime":"","CarInfo":"","Lon":120.306913,"Lat":23.035307,"Turn":35,"DayValue":"二","RecycleDate":""},{"StopId":17446,"StopName":"信義路與和平街路口","ScheduleTime":"19:22","EstimateTime":"","CarInfo":"","Lon":120.306199,"Lat":23.034754,"Turn":36,"DayValue":"二","RecycleDate":""},{"StopId":17447,"StopName":"大同街53號","ScheduleTime":"19:24","EstimateTime":"","CarInfo":"","Lon":120.307185,"Lat":23.033739,"Turn":37,"DayValue":"二","RecycleDate":""},{"StopId":17448,"StopName":"和平街131(新象大樓)","ScheduleTime":"19:26","EstimateTime":"","CarInfo":"","Lon":120.306346,"Lat":23.033321,"Turn":38,"DayValue":"二","RecycleDate":""},{"StopId":17449,"StopName":"信義路352號","ScheduleTime":"19:29","EstimateTime":"","CarInfo":"","Lon":120.30533,"Lat":23.034686,"Turn":39,"DayValue":"二","RecycleDate":""},{"StopId":17450,"StopName":"健康路101巷口","ScheduleTime":"19:32","EstimateTime":"","CarInfo":"","Lon":120.305272,"Lat":23.033573,"Turn":40,"DayValue":"二","RecycleDate":""},{"StopId":17451,"StopName":"健康路21號","ScheduleTime":"19:36","EstimateTime":"","CarInfo":"","Lon":120.305749,"Lat":23.033019,"Turn":41,"DayValue":"二","RecycleDate":""},{"StopId":17452,"StopName":"正新南路91號","ScheduleTime":"19:38","EstimateTime":"","CarInfo":"","Lon":120.306641,"Lat":23.032025,"Turn":42,"DayValue":"二","RecycleDate":""},{"StopId":17453,"StopName":"正新南路182號","ScheduleTime":"19:41","EstimateTime":"","CarInfo":"","Lon":120.304805,"Lat":23.031553,"Turn":43,"DayValue":"二","RecycleDate":""},{"StopId":17454,"StopName":"民治路15號","ScheduleTime":"19:43","EstimateTime":"","CarInfo":"","Lon":120.304595,"Lat":23.032096,"Turn":44,"DayValue":"二","RecycleDate":""},{"StopId":17455,"StopName":"民治路(香吉士大樓)","ScheduleTime":"19:45","EstimateTime":"","CarInfo":"","Lon":120.303919,"Lat":23.033272,"Turn":45,"DayValue":"二","RecycleDate":""},{"StopId":17456,"StopName":"健康路47巷32號","ScheduleTime":"19:48","EstimateTime":"","CarInfo":"","Lon":120.305737,"Lat":23.032261,"Turn":46,"DayValue":"二","RecycleDate":""},{"StopId":17457,"StopName":"正新路135號","ScheduleTime":"19:53","EstimateTime":"","CarInfo":"","Lon":120.302996,"Lat":23.033559,"Turn":47,"DayValue":"二","RecycleDate":""},{"StopId":17458,"StopName":"正新路27號","ScheduleTime":"19:55","EstimateTime":"","CarInfo":"","Lon":120.303768,"Lat":23.031435,"Turn":48,"DayValue":"二","RecycleDate":""},{"StopId":17459,"StopName":"正新路217巷路口","ScheduleTime":"20:03","EstimateTime":"","CarInfo":"","Lon":120.302934,"Lat":23.035162,"Turn":49,"DayValue":"二","RecycleDate":""},{"StopId":17460,"StopName":"信義路與大智路口500號","ScheduleTime":"20:06","EstimateTime":"","CarInfo":"","Lon":120.300995,"Lat":23.035468,"Turn":50,"DayValue":"二","RecycleDate":""},{"StopId":17461,"StopName":"信義路484巷1號(信義大樓)","ScheduleTime":"20:10","EstimateTime":"","CarInfo":"","Lon":120.301755,"Lat":23.034643,"Turn":51,"DayValue":"二","RecycleDate":""},{"StopId":17462,"StopName":"中山路439號","ScheduleTime":"20:13","EstimateTime":"","CarInfo":"","Lon":120.304708,"Lat":23.035732,"Turn":52,"DayValue":"二","RecycleDate":""},{"StopId":17463,"StopName":"中山路355號(盧勝一牙醫診所)","ScheduleTime":"20:15","EstimateTime":"","CarInfo":"","Lon":120.305789,"Lat":23.035757,"Turn":53,"DayValue":"二","RecycleDate":""},{"StopId":17464,"StopName":"中山路與大同街路口","ScheduleTime":"20:17","EstimateTime":"","CarInfo":"","Lon":120.30678,"Lat":23.035831,"Turn":54,"DayValue":"二","RecycleDate":""},{"StopId":17465,"StopName":"中正路488號(楊逵文學館)","ScheduleTime":"20:18","EstimateTime":"","CarInfo":"","Lon":120.307338,"Lat":23.038125,"Turn":55,"DayValue":"二","RecycleDate":""}],"CarData":[],"RouteId":427,"RouteName":"新化-5.2(夜間)","RouteInfo":"忠孝路243巷前~中正路488號(楊逵文學館)","IsWork":true}]