[{"StopData":[{"StopId":3151,"StopName":"大都市A棟","ScheduleTime":"16:20","EstimateTime":"","CarInfo":"","Lon":120.257972,"Lat":23.033287,"Turn":1,"DayValue":"一,二,四,六","RecycleDate":"一,四"},{"StopId":3152,"StopName":"自強路415號","ScheduleTime":"16:24","EstimateTime":"","CarInfo":"","Lon":120.256209,"Lat":23.031593,"Turn":2,"DayValue":"一,二,四,六","RecycleDate":"一,四"},{"StopId":3153,"StopName":"自強路381號","ScheduleTime":"16:24","EstimateTime":"","CarInfo":"","Lon":120.254978,"Lat":23.030812,"Turn":3,"DayValue":"一,二,四,六","RecycleDate":"一,四"},{"StopId":3154,"StopName":"中山路101巷1號","ScheduleTime":"16:31","EstimateTime":"","CarInfo":"","Lon":120.255704,"Lat":23.030135,"Turn":4,"DayValue":"一,二,四,六","RecycleDate":"一,四"},{"StopId":3155,"StopName":"聖龍街6號","ScheduleTime":"16:31","EstimateTime":"","CarInfo":"","Lon":120.256776,"Lat":23.029697,"Turn":5,"DayValue":"一,二,四,六","RecycleDate":"一,四"},{"StopId":3156,"StopName":"聖龍街53號對面","ScheduleTime":"16:31","EstimateTime":"","CarInfo":"","Lon":120.257747,"Lat":23.030303,"Turn":6,"DayValue":"一,二,四,六","RecycleDate":"一,四"},{"StopId":3157,"StopName":"永埔街71號","ScheduleTime":"16:35","EstimateTime":"","CarInfo":"","Lon":120.258099,"Lat":23.029126,"Turn":7,"DayValue":"一,二,四,六","RecycleDate":"一,四"},{"StopId":3158,"StopName":"中山路94巷1號","ScheduleTime":"16:35","EstimateTime":"","CarInfo":"","Lon":120.256729,"Lat":23.028762,"Turn":8,"DayValue":"一,二,四,六","RecycleDate":"一,四"},{"StopId":3159,"StopName":"埔聖街152號","ScheduleTime":"16:40","EstimateTime":"","CarInfo":"","Lon":120.259371,"Lat":23.028452,"Turn":9,"DayValue":"一,二,四,六","RecycleDate":"一,四"},{"StopId":3160,"StopName":"中山北路123巷5號","ScheduleTime":"16:40","EstimateTime":"","CarInfo":"","Lon":120.259571,"Lat":23.02757,"Turn":10,"DayValue":"一,二,四,六","RecycleDate":"一,四"},{"StopId":3161,"StopName":"永埔街33巷2號","ScheduleTime":"16:45","EstimateTime":"","CarInfo":"","Lon":120.258465,"Lat":23.027782,"Turn":11,"DayValue":"一,二,四,六","RecycleDate":"一,四"},{"StopId":3162,"StopName":"聖龍街98號","ScheduleTime":"16:45","EstimateTime":"","CarInfo":"","Lon":120.258954,"Lat":23.030265,"Turn":12,"DayValue":"一,二,四,六","RecycleDate":"一,四"},{"StopId":3163,"StopName":"自強路468巷20號","ScheduleTime":"16:49","EstimateTime":"","CarInfo":"","Lon":120.256816,"Lat":23.03121,"Turn":13,"DayValue":"一,二,四,六","RecycleDate":"一,四"},{"StopId":3164,"StopName":"自強路526號","ScheduleTime":"16:49","EstimateTime":"","CarInfo":"","Lon":120.257526,"Lat":23.032176,"Turn":14,"DayValue":"一,二,四,六","RecycleDate":"一,四"},{"StopId":3165,"StopName":"埔園街96號","ScheduleTime":"16:52","EstimateTime":"","CarInfo":"","Lon":120.258412,"Lat":23.032521,"Turn":15,"DayValue":"一,二,四,六","RecycleDate":"一,四"},{"StopId":3166,"StopName":"自強路550~592號","ScheduleTime":"16:52","EstimateTime":"","CarInfo":"","Lon":120.258298,"Lat":23.033048,"Turn":16,"DayValue":"一,二,四,六","RecycleDate":"一,四"},{"StopId":3167,"StopName":"龍國街1號","ScheduleTime":"16:56","EstimateTime":"","CarInfo":"","Lon":120.258584,"Lat":23.032892,"Turn":17,"DayValue":"一,二,四,六","RecycleDate":"一,四"},{"StopId":3168,"StopName":"埔園街222-238號","ScheduleTime":"16:56","EstimateTime":"","CarInfo":"","Lon":120.25603,"Lat":23.034163,"Turn":18,"DayValue":"一,二,四,六","RecycleDate":"一,四"},{"StopId":3169,"StopName":"埔園街145號","ScheduleTime":"16:59","EstimateTime":"","CarInfo":"","Lon":120.25723,"Lat":23.033429,"Turn":19,"DayValue":"一,二,四,六","RecycleDate":"一,四"},{"StopId":3170,"StopName":"自強路479~445號","ScheduleTime":"16:59","EstimateTime":"","CarInfo":"","Lon":120.257486,"Lat":23.032739,"Turn":20,"DayValue":"一,二,四,六","RecycleDate":"一,四"},{"StopId":3171,"StopName":"大都市B棟","ScheduleTime":"17:02","EstimateTime":"","CarInfo":"","Lon":120.256655,"Lat":23.03224,"Turn":21,"DayValue":"一,二,四,六","RecycleDate":"一,四"},{"StopId":3172,"StopName":"埔東街26~96號","ScheduleTime":"17:02","EstimateTime":"","CarInfo":"","Lon":120.256575,"Lat":23.032749,"Turn":22,"DayValue":"一,二,四,六","RecycleDate":"一,四"},{"StopId":3173,"StopName":"龍埔街488巷","ScheduleTime":"17:07","EstimateTime":"","CarInfo":"","Lon":120.255801,"Lat":23.035192,"Turn":23,"DayValue":"一,二,四,六","RecycleDate":"一,四"},{"StopId":3174,"StopName":"龍埔街283巷1號","ScheduleTime":"17:07","EstimateTime":"","CarInfo":"","Lon":120.258934,"Lat":23.034473,"Turn":24,"DayValue":"一,二,四,六","RecycleDate":"一,四"},{"StopId":3175,"StopName":"聖龍街108巷8號","ScheduleTime":"17:46","EstimateTime":"","CarInfo":"","Lon":120.259343,"Lat":23.030051,"Turn":25,"DayValue":"一,二,四,六","RecycleDate":"一,四"},{"StopId":3176,"StopName":"埔聖街75巷10號","ScheduleTime":"17:48","EstimateTime":"","CarInfo":"","Lon":120.25905,"Lat":23.028992,"Turn":26,"DayValue":"一,二,四,六","RecycleDate":"一,四"},{"StopId":3177,"StopName":"永埔街116巷9弄2號","ScheduleTime":"17:49","EstimateTime":"","CarInfo":"","Lon":120.258498,"Lat":23.029196,"Turn":27,"DayValue":"一,二,四,六","RecycleDate":"一,四"},{"StopId":3178,"StopName":"龍埔街430巷5號","ScheduleTime":"17:59","EstimateTime":"","CarInfo":"","Lon":120.258028,"Lat":23.035353,"Turn":28,"DayValue":"一,二,四,六","RecycleDate":"一,四"},{"StopId":3179,"StopName":"龍埔街430巷35弄2號","ScheduleTime":"17:59","EstimateTime":"","CarInfo":"","Lon":120.258064,"Lat":23.036583,"Turn":29,"DayValue":"一,二,四,六","RecycleDate":"一,四"},{"StopId":3180,"StopName":"中山路207巷13號","ScheduleTime":"18:05","EstimateTime":"","CarInfo":"","Lon":120.254799,"Lat":23.032614,"Turn":30,"DayValue":"一,二,四,六","RecycleDate":"一,四"},{"StopId":3181,"StopName":"埔園街278~348號","ScheduleTime":"18:05","EstimateTime":"","CarInfo":"","Lon":120.254249,"Lat":23.03406,"Turn":31,"DayValue":"一,二,四,六","RecycleDate":"一,四"},{"StopId":3182,"StopName":"四維街58巷30號","ScheduleTime":"18:12","EstimateTime":"","CarInfo":"","Lon":120.253937,"Lat":23.032826,"Turn":32,"DayValue":"一,二,四,六","RecycleDate":"一,四"},{"StopId":3183,"StopName":"中山路185巷3號","ScheduleTime":"18:12","EstimateTime":"","CarInfo":"","Lon":120.255144,"Lat":23.03213,"Turn":33,"DayValue":"一,二,四,六","RecycleDate":"一,四"},{"StopId":3184,"StopName":"中山路171巷2-1號","ScheduleTime":"18:12","EstimateTime":"","CarInfo":"","Lon":120.255302,"Lat":23.031776,"Turn":34,"DayValue":"一,二,四,六","RecycleDate":"一,四"},{"StopId":3185,"StopName":"四維街140巷19號","ScheduleTime":"18:24","EstimateTime":"","CarInfo":"","Lon":120.252194,"Lat":23.034662,"Turn":35,"DayValue":"一,二,四,六","RecycleDate":"一,四"},{"StopId":3186,"StopName":"龍埔街469號","ScheduleTime":"18:24","EstimateTime":"","CarInfo":"","Lon":120.253759,"Lat":23.035125,"Turn":36,"DayValue":"一,二,四,六","RecycleDate":"一,四"},{"StopId":3187,"StopName":"八德街221~436號","ScheduleTime":"18:24","EstimateTime":"","CarInfo":"","Lon":120.253652,"Lat":23.036945,"Turn":37,"DayValue":"一,二,四,六","RecycleDate":"一,四"},{"StopId":3188,"StopName":"中山路383巷38號","ScheduleTime":"18:24","EstimateTime":"","CarInfo":"","Lon":120.25357,"Lat":23.036115,"Turn":38,"DayValue":"一,二,四,六","RecycleDate":"一,四"},{"StopId":3189,"StopName":"龍埔街536巷21號","ScheduleTime":"18:35","EstimateTime":"","CarInfo":"","Lon":120.253856,"Lat":23.035815,"Turn":39,"DayValue":"一,二,四,六","RecycleDate":"一,四"},{"StopId":3190,"StopName":"中山北路262號","ScheduleTime":"19:05","EstimateTime":"","CarInfo":"","Lon":120.265213,"Lat":23.028612,"Turn":40,"DayValue":"一,二,四,六","RecycleDate":"一,四"},{"StopId":3191,"StopName":"永明街231巷86號","ScheduleTime":"19:05","EstimateTime":"","CarInfo":"","Lon":120.264135,"Lat":23.026446,"Turn":41,"DayValue":"一,二,四,六","RecycleDate":"一,四"},{"StopId":3192,"StopName":"中山北路164巷158弄1號","ScheduleTime":"19:10","EstimateTime":"","CarInfo":"","Lon":120.26484,"Lat":23.026494,"Turn":42,"DayValue":"一,二,四,六","RecycleDate":"一,四"},{"StopId":3193,"StopName":"永平街168號","ScheduleTime":"19:19","EstimateTime":"","CarInfo":"","Lon":120.264196,"Lat":23.022146,"Turn":43,"DayValue":"一,二,四,六","RecycleDate":"一,四"},{"StopId":3194,"StopName":"國民路231號","ScheduleTime":"19:30","EstimateTime":"","CarInfo":"","Lon":120.263694,"Lat":23.022952,"Turn":44,"DayValue":"一,二,四,六","RecycleDate":"一,四"},{"StopId":3195,"StopName":"永明街300號","ScheduleTime":"19:33","EstimateTime":"","CarInfo":"","Lon":120.263672,"Lat":23.024467,"Turn":45,"DayValue":"一,二,四,六","RecycleDate":"一,四"},{"StopId":3196,"StopName":"永明街160~181號","ScheduleTime":"19:38","EstimateTime":"","CarInfo":"","Lon":120.258764,"Lat":23.025853,"Turn":46,"DayValue":"一,二,四,六","RecycleDate":"一,四"},{"StopId":3197,"StopName":"中山北路164巷118號","ScheduleTime":"19:45","EstimateTime":"","CarInfo":"","Lon":120.263811,"Lat":23.026013,"Turn":47,"DayValue":"一,二,四,六","RecycleDate":"一,四"},{"StopId":3198,"StopName":"陽光綠地","ScheduleTime":"19:47","EstimateTime":"","CarInfo":"","Lon":120.264374,"Lat":23.024516,"Turn":48,"DayValue":"一,二,四,六","RecycleDate":"一,四"}],"CarData":[],"RouteId":71,"RouteName":"永康-夜間32","RouteInfo":"大都市A棟~陽光綠地","IsWork":true}]