[{"StopData":[{"StopId":10672,"StopName":"永福街12號","ScheduleTime":"17:30","EstimateTime":"","CarInfo":"","Lon":120.2959072,"Lat":23.0749117,"Turn":1,"DayValue":"一,三,五,六","RecycleDate":"一,三,五,六"},{"StopId":10673,"StopName":"永福街16巷口","ScheduleTime":"17:31","EstimateTime":"","CarInfo":"","Lon":120.2952631,"Lat":23.0750139,"Turn":2,"DayValue":"一,三,五,六","RecycleDate":"一,三,五,六"},{"StopId":10674,"StopName":"忠孝街180巷口","ScheduleTime":"17:31","EstimateTime":"","CarInfo":"","Lon":120.2946452,"Lat":23.0750889,"Turn":3,"DayValue":"一,三,五,六","RecycleDate":"一,三,五,六"},{"StopId":10675,"StopName":"忠孝街194巷口","ScheduleTime":"17:31","EstimateTime":"","CarInfo":"","Lon":120.2946775,"Lat":23.0758181,"Turn":4,"DayValue":"一,三,五,六","RecycleDate":"一,三,五,六"},{"StopId":10676,"StopName":"忠孝街218巷前","ScheduleTime":"17:36","EstimateTime":"","CarInfo":"","Lon":120.2946501,"Lat":23.0764562,"Turn":5,"DayValue":"一,三,五,六","RecycleDate":"一,三,五,六"},{"StopId":10677,"StopName":"忠孝街225號","ScheduleTime":"17:37","EstimateTime":"","CarInfo":"","Lon":120.2945712,"Lat":23.0763929,"Turn":6,"DayValue":"一,三,五,六","RecycleDate":"一,三,五,六"},{"StopId":10678,"StopName":"忠孝街203號","ScheduleTime":"17:37","EstimateTime":"","CarInfo":"","Lon":120.2945928,"Lat":23.0758839,"Turn":7,"DayValue":"一,三,五,六","RecycleDate":"一,三,五,六"},{"StopId":10679,"StopName":"忠孝街201巷2弄","ScheduleTime":"17:37","EstimateTime":"","CarInfo":"","Lon":120.2940979,"Lat":23.0757581,"Turn":8,"DayValue":"一,三,五,六","RecycleDate":"一,三,五,六"},{"StopId":10680,"StopName":"忠孝街227巷2號 (王尊大樓)","ScheduleTime":"17:42","EstimateTime":"","CarInfo":"","Lon":120.2941126,"Lat":23.0763701,"Turn":9,"DayValue":"一,三,五,六","RecycleDate":"一,三,五,六"},{"StopId":10681,"StopName":"忠孝街169號","ScheduleTime":"17:43","EstimateTime":"","CarInfo":"","Lon":120.2945313,"Lat":23.0749554,"Turn":10,"DayValue":"一,三,五,六","RecycleDate":"一,三,五,六"},{"StopId":10682,"StopName":"永福街22號","ScheduleTime":"17:43","EstimateTime":"","CarInfo":"","Lon":120.2948935,"Lat":23.0743382,"Turn":11,"DayValue":"一,三,五,六","RecycleDate":"一,三,五,六"},{"StopId":10683,"StopName":"忠孝街93號","ScheduleTime":"17:43","EstimateTime":"","CarInfo":"","Lon":120.2941763,"Lat":23.0732149,"Turn":12,"DayValue":"一,三,五,六","RecycleDate":"一,三,五,六"},{"StopId":10684,"StopName":"忠孝街83號前","ScheduleTime":"17:53","EstimateTime":"","CarInfo":"","Lon":120.2941391,"Lat":23.0729985,"Turn":13,"DayValue":"一,三,五,六","RecycleDate":"一,三,五,六"},{"StopId":10685,"StopName":"忠孝街31號","ScheduleTime":"17:54","EstimateTime":"","CarInfo":"","Lon":120.294037,"Lat":23.0726166,"Turn":14,"DayValue":"一,三,五,六","RecycleDate":"一,三,五,六"},{"StopId":10686,"StopName":"忠孝街39巷","ScheduleTime":"17:54","EstimateTime":"","CarInfo":"","Lon":120.2938385,"Lat":23.0724115,"Turn":15,"DayValue":"一,三,五,六","RecycleDate":"一,三,五,六"},{"StopId":10687,"StopName":"忠孝街34號","ScheduleTime":"17:54","EstimateTime":"","CarInfo":"","Lon":120.2935336,"Lat":23.0724507,"Turn":16,"DayValue":"一,三,五,六","RecycleDate":"一,三,五,六"},{"StopId":10688,"StopName":"可口街19巷前","ScheduleTime":"17:58","EstimateTime":"","CarInfo":"","Lon":120.293219,"Lat":23.071772,"Turn":17,"DayValue":"一,三,五,六","RecycleDate":"一,三,五,六"},{"StopId":10689,"StopName":"仁愛街124號","ScheduleTime":"17:59","EstimateTime":"","CarInfo":"","Lon":120.2929685,"Lat":23.0730576,"Turn":18,"DayValue":"一,三,五,六","RecycleDate":"一,三,五,六"},{"StopId":10690,"StopName":"仁愛街152巷","ScheduleTime":"17:59","EstimateTime":"","CarInfo":"","Lon":120.2931676,"Lat":23.0735659,"Turn":19,"DayValue":"一,三,五,六","RecycleDate":"一,三,五,六"},{"StopId":10691,"StopName":"可口街70號","ScheduleTime":"17:59","EstimateTime":"","CarInfo":"","Lon":120.2935139,"Lat":23.073021,"Turn":20,"DayValue":"一,三,五,六","RecycleDate":"一,三,五,六"},{"StopId":10692,"StopName":"中正路92巷10號 (七美仙境)","ScheduleTime":"18:05","EstimateTime":"","CarInfo":"","Lon":120.2925194,"Lat":23.0726268,"Turn":21,"DayValue":"一,三,五,六","RecycleDate":"一,三,五,六"},{"StopId":10693,"StopName":"中正路92巷5號","ScheduleTime":"18:06","EstimateTime":"","CarInfo":"","Lon":120.2919094,"Lat":23.0726092,"Turn":22,"DayValue":"一,三,五,六","RecycleDate":"一,三,五,六"},{"StopId":10694,"StopName":"中正路37號","ScheduleTime":"18:06","EstimateTime":"","CarInfo":"","Lon":120.2921614,"Lat":23.0709309,"Turn":23,"DayValue":"一,三,五,六","RecycleDate":"一,三,五,六"},{"StopId":10695,"StopName":"中正路50號","ScheduleTime":"18:06","EstimateTime":"","CarInfo":"","Lon":120.2920296,"Lat":23.0714093,"Turn":24,"DayValue":"一,三,五,六","RecycleDate":"一,三,五,六"},{"StopId":10696,"StopName":"中正路88號前","ScheduleTime":"18:11","EstimateTime":"","CarInfo":"","Lon":120.2918525,"Lat":23.0719885,"Turn":25,"DayValue":"一,三,五,六","RecycleDate":"一,三,五,六"},{"StopId":10697,"StopName":"仁愛街59號","ScheduleTime":"18:12","EstimateTime":"","CarInfo":"","Lon":120.2925337,"Lat":23.071534,"Turn":26,"DayValue":"一,三,五,六","RecycleDate":"一,三,五,六"},{"StopId":10698,"StopName":"仁愛街100號","ScheduleTime":"18:12","EstimateTime":"","CarInfo":"","Lon":120.2927312,"Lat":23.0719639,"Turn":27,"DayValue":"一,三,五,六","RecycleDate":"一,三,五,六"},{"StopId":10699,"StopName":"仁愛街154號","ScheduleTime":"18:12","EstimateTime":"","CarInfo":"","Lon":120.293147,"Lat":23.073662,"Turn":28,"DayValue":"一,三,五,六","RecycleDate":"一,三,五,六"},{"StopId":10700,"StopName":"永福街90巷前","ScheduleTime":"18:23","EstimateTime":"","CarInfo":"","Lon":120.2928155,"Lat":23.0746514,"Turn":29,"DayValue":"一,三,五,六","RecycleDate":"一,三,五,六"},{"StopId":10701,"StopName":"成功街41號","ScheduleTime":"18:24","EstimateTime":"","CarInfo":"","Lon":120.2920609,"Lat":23.0745139,"Turn":30,"DayValue":"一,三,五,六","RecycleDate":"一,三,五,六"},{"StopId":10702,"StopName":"成功街與銘傳街口","ScheduleTime":"18:24","EstimateTime":"","CarInfo":"","Lon":120.2919791,"Lat":23.0741197,"Turn":31,"DayValue":"一,三,五,六","RecycleDate":"一,三,五,六"},{"StopId":10703,"StopName":"成功街2巷口","ScheduleTime":"18:28","EstimateTime":"","CarInfo":"","Lon":120.291941,"Lat":23.073262,"Turn":32,"DayValue":"一,三,五,六","RecycleDate":"一,三,五,六"},{"StopId":10704,"StopName":"中正路138號","ScheduleTime":"18:30","EstimateTime":"","CarInfo":"","Lon":120.2913796,"Lat":23.0739327,"Turn":33,"DayValue":"一,三,五,六","RecycleDate":"一,三,五,六"},{"StopId":10705,"StopName":"銘傳街25號","ScheduleTime":"18:30","EstimateTime":"","CarInfo":"","Lon":120.2923693,"Lat":23.0740337,"Turn":34,"DayValue":"一,三,五,六","RecycleDate":"一,三,五,六"},{"StopId":10706,"StopName":"仁愛街214號","ScheduleTime":"18:30","EstimateTime":"","CarInfo":"","Lon":120.2934621,"Lat":23.075198,"Turn":35,"DayValue":"一,三,五,六","RecycleDate":"一,三,五,六"},{"StopId":10707,"StopName":"仁愛街205巷44號","ScheduleTime":"18:40","EstimateTime":"","CarInfo":"","Lon":120.292278,"Lat":23.075484,"Turn":36,"DayValue":"一,三,五,六","RecycleDate":"一,三,五,六"},{"StopId":10708,"StopName":"仁愛街268號","ScheduleTime":"18:41","EstimateTime":"","CarInfo":"","Lon":120.2935466,"Lat":23.0758809,"Turn":37,"DayValue":"一,三,五,六","RecycleDate":"一,三,五,六"},{"StopId":10709,"StopName":"仁愛街296號","ScheduleTime":"18:41","EstimateTime":"","CarInfo":"","Lon":120.2938069,"Lat":23.0768788,"Turn":38,"DayValue":"一,三,五,六","RecycleDate":"一,三,五,六"},{"StopId":10710,"StopName":"華興街37-1號","ScheduleTime":"18:41","EstimateTime":"","CarInfo":"","Lon":120.2945001,"Lat":23.0770183,"Turn":39,"DayValue":"一,三,五,六","RecycleDate":"一,三,五,六"},{"StopId":10711,"StopName":"華興街13號","ScheduleTime":"18:48","EstimateTime":"","CarInfo":"","Lon":120.2952398,"Lat":23.0771201,"Turn":40,"DayValue":"一,三,五,六","RecycleDate":"一,三,五,六"},{"StopId":10712,"StopName":"光華街216號","ScheduleTime":"18:49","EstimateTime":"","CarInfo":"","Lon":120.2956317,"Lat":23.0773292,"Turn":41,"DayValue":"一,三,五,六","RecycleDate":"一,三,五,六"},{"StopId":10713,"StopName":"光華街236號","ScheduleTime":"18:49","EstimateTime":"","CarInfo":"","Lon":120.295558,"Lat":23.077772,"Turn":42,"DayValue":"一,三,五,六","RecycleDate":"一,三,五,六"},{"StopId":10714,"StopName":"光華街183巷口","ScheduleTime":"18:54","EstimateTime":"","CarInfo":"","Lon":120.2952402,"Lat":23.0783176,"Turn":43,"DayValue":"一,三,五,六","RecycleDate":"一,三,五,六"},{"StopId":10715,"StopName":"光華街147號","ScheduleTime":"18:55","EstimateTime":"","CarInfo":"","Lon":120.2956213,"Lat":23.0770414,"Turn":44,"DayValue":"一,三,五,六","RecycleDate":"一,三,五,六"},{"StopId":10716,"StopName":"光華街129號","ScheduleTime":"18:55","EstimateTime":"","CarInfo":"","Lon":120.2957767,"Lat":23.0766061,"Turn":45,"DayValue":"一,三,五,六","RecycleDate":"一,三,五,六"},{"StopId":10717,"StopName":"光華街105-7號","ScheduleTime":"18:55","EstimateTime":"","CarInfo":"","Lon":120.2959228,"Lat":23.0760537,"Turn":46,"DayValue":"一,三,五,六","RecycleDate":"一,三,五,六"},{"StopId":10718,"StopName":"光華街91號前","ScheduleTime":"18:59","EstimateTime":"","CarInfo":"","Lon":120.2960465,"Lat":23.0756551,"Turn":47,"DayValue":"一,三,五,六","RecycleDate":"一,三,五,六"},{"StopId":10719,"StopName":"光華街170-1號前","ScheduleTime":"19:49","EstimateTime":"","CarInfo":"","Lon":120.2959029,"Lat":23.0764999,"Turn":48,"DayValue":"一,三,五,六","RecycleDate":"一,三,五,六"},{"StopId":10720,"StopName":"光華街200號","ScheduleTime":"19:50","EstimateTime":"","CarInfo":"","Lon":120.2958059,"Lat":23.0768499,"Turn":49,"DayValue":"一,三,五,六","RecycleDate":"一,三,五,六"},{"StopId":10721,"StopName":"華興街30號","ScheduleTime":"19:50","EstimateTime":"","CarInfo":"","Lon":120.2947565,"Lat":23.0771686,"Turn":50,"DayValue":"一,三,五,六","RecycleDate":"一,三,五,六"},{"StopId":10722,"StopName":"華興街62號-1","ScheduleTime":"19:50","EstimateTime":"","CarInfo":"","Lon":120.2940435,"Lat":23.0770394,"Turn":51,"DayValue":"一,三,五,六","RecycleDate":"一,三,五,六"},{"StopId":10723,"StopName":"華興街67號 (清保宮)","ScheduleTime":"19:54","EstimateTime":"","CarInfo":"","Lon":120.2934468,"Lat":23.0769639,"Turn":52,"DayValue":"一,三,五,六","RecycleDate":"一,三,五,六"},{"StopId":10724,"StopName":"華興街120號","ScheduleTime":"19:55","EstimateTime":"","CarInfo":"","Lon":120.2922924,"Lat":23.076874,"Turn":53,"DayValue":"一,三,五,六","RecycleDate":"一,三,五,六"},{"StopId":10725,"StopName":"華興街109號","ScheduleTime":"19:55","EstimateTime":"","CarInfo":"","Lon":120.2926005,"Lat":23.0767783,"Turn":54,"DayValue":"一,三,五,六","RecycleDate":"一,三,五,六"},{"StopId":10726,"StopName":"華興街61號","ScheduleTime":"19:55","EstimateTime":"","CarInfo":"","Lon":120.2936081,"Lat":23.0769804,"Turn":55,"DayValue":"一,三,五,六","RecycleDate":"一,三,五,六"},{"StopId":10727,"StopName":"仁愛街306-1號前","ScheduleTime":"20:03","EstimateTime":"","CarInfo":"","Lon":120.2938511,"Lat":23.0771508,"Turn":56,"DayValue":"一,三,五,六","RecycleDate":"一,三,五,六"},{"StopId":10728,"StopName":"仁愛街336號","ScheduleTime":"20:04","EstimateTime":"","CarInfo":"","Lon":120.2939924,"Lat":23.0778289,"Turn":57,"DayValue":"一,三,五,六","RecycleDate":"一,三,五,六"},{"StopId":10729,"StopName":"中興街23號","ScheduleTime":"20:04","EstimateTime":"","CarInfo":"","Lon":120.2942062,"Lat":23.0781902,"Turn":58,"DayValue":"一,三,五,六","RecycleDate":"一,三,五,六"},{"StopId":10730,"StopName":"中興街36號","ScheduleTime":"20:04","EstimateTime":"","CarInfo":"","Lon":120.294767,"Lat":23.0784828,"Turn":59,"DayValue":"一,三,五,六","RecycleDate":"一,三,五,六"},{"StopId":10731,"StopName":"中興街54號前","ScheduleTime":"20:10","EstimateTime":"","CarInfo":"","Lon":120.294121,"Lat":23.0782794,"Turn":60,"DayValue":"一,三,五,六","RecycleDate":"一,三,五,六"},{"StopId":10732,"StopName":"中興街80號","ScheduleTime":"20:11","EstimateTime":"","CarInfo":"","Lon":120.2934595,"Lat":23.0781138,"Turn":61,"DayValue":"一,三,五,六","RecycleDate":"一,三,五,六"},{"StopId":10733,"StopName":"中興街136號前","ScheduleTime":"20:16","EstimateTime":"","CarInfo":"","Lon":120.2922913,"Lat":23.0780978,"Turn":62,"DayValue":"一,三,五,六","RecycleDate":"一,三,五,六"},{"StopId":10734,"StopName":"中興街81號","ScheduleTime":"20:17","EstimateTime":"","CarInfo":"","Lon":120.2933231,"Lat":23.0780545,"Turn":63,"DayValue":"一,三,五,六","RecycleDate":"一,三,五,六"},{"StopId":10735,"StopName":"仁愛街217號 (郵局前)","ScheduleTime":"20:24","EstimateTime":"","CarInfo":"","Lon":120.2934642,"Lat":23.0757836,"Turn":64,"DayValue":"一,三,五,六","RecycleDate":"一,三,五,六"},{"StopId":10736,"StopName":"仁愛街297號","ScheduleTime":"20:25","EstimateTime":"","CarInfo":"","Lon":120.2933664,"Lat":23.0750344,"Turn":65,"DayValue":"一,三,五,六","RecycleDate":"一,三,五,六"},{"StopId":10737,"StopName":"仁愛街251號","ScheduleTime":"20:25","EstimateTime":"","CarInfo":"","Lon":120.2932292,"Lat":23.0742547,"Turn":66,"DayValue":"一,三,五,六","RecycleDate":"一,三,五,六"},{"StopId":10738,"StopName":"中正路184號","ScheduleTime":"20:30","EstimateTime":"","CarInfo":"","Lon":120.291543,"Lat":23.0749259,"Turn":67,"DayValue":"一,三,五,六","RecycleDate":"一,三,五,六"},{"StopId":10739,"StopName":"中正路228號","ScheduleTime":"20:31","EstimateTime":"","CarInfo":"","Lon":120.2917115,"Lat":23.0759615,"Turn":68,"DayValue":"一,三,五,六","RecycleDate":"一,三,五,六"},{"StopId":10740,"StopName":"中正路252號","ScheduleTime":"20:31","EstimateTime":"","CarInfo":"","Lon":120.2918373,"Lat":23.0768098,"Turn":69,"DayValue":"一,三,五,六","RecycleDate":"一,三,五,六"},{"StopId":10741,"StopName":"中正路286巷","ScheduleTime":"20:35","EstimateTime":"","CarInfo":"","Lon":120.2919215,"Lat":23.0772736,"Turn":70,"DayValue":"一,三,五,六","RecycleDate":"一,三,五,六"},{"StopId":10742,"StopName":"中正路290-1號","ScheduleTime":"20:36","EstimateTime":"","CarInfo":"","Lon":120.2920539,"Lat":23.0781527,"Turn":71,"DayValue":"一,三,五,六","RecycleDate":"一,三,五,六"},{"StopId":10743,"StopName":"中正路364號","ScheduleTime":"20:36","EstimateTime":"","CarInfo":"","Lon":120.2934587,"Lat":23.0792086,"Turn":72,"DayValue":"一,三,五,六","RecycleDate":"一,三,五,六"},{"StopId":10744,"StopName":"中正路301-1號","ScheduleTime":"20:44","EstimateTime":"","CarInfo":"","Lon":120.2933998,"Lat":23.0793899,"Turn":73,"DayValue":"一,三,五,六","RecycleDate":"一,三,五,六"},{"StopId":10745,"StopName":"中正路281號","ScheduleTime":"20:45","EstimateTime":"","CarInfo":"","Lon":120.2926755,"Lat":23.0791346,"Turn":74,"DayValue":"一,三,五,六","RecycleDate":"一,三,五,六"},{"StopId":10746,"StopName":"中正路205號","ScheduleTime":"20:50","EstimateTime":"","CarInfo":"","Lon":120.2916882,"Lat":23.0772059,"Turn":75,"DayValue":"一,三,五,六","RecycleDate":"一,三,五,六"},{"StopId":10747,"StopName":"中正路143號","ScheduleTime":"20:51","EstimateTime":"","CarInfo":"","Lon":120.2912849,"Lat":23.0746728,"Turn":76,"DayValue":"一,三,五,六","RecycleDate":"一,三,五,六"},{"StopId":10748,"StopName":"中正路63號（終點）","ScheduleTime":"20:59","EstimateTime":"","CarInfo":"","Lon":120.2915192,"Lat":23.0726146,"Turn":77,"DayValue":"一,三,五,六","RecycleDate":"一,三,五,六"}],"CarData":[],"RouteId":269,"RouteName":"新市-4","RouteInfo":"永福街12號~中正路63號（終點）","IsWork":false}]