[{"StopData":[{"StopId":8216,"StopName":"喜樹路24巷口","ScheduleTime":"16:45","EstimateTime":"","CarInfo":"","Lon":120.179799,"Lat":22.94681,"Turn":1,"DayValue":"一,二,四,六","RecycleDate":"二,六"},{"StopId":8217,"StopName":"喜樹路72巷24號邊","ScheduleTime":"16:49","EstimateTime":"","CarInfo":"","Lon":120.178802,"Lat":22.94592,"Turn":2,"DayValue":"一,二,四,六","RecycleDate":"二,六"},{"StopId":8218,"StopName":"喜樹路84巷25號邊","ScheduleTime":"16:52","EstimateTime":"","CarInfo":"","Lon":120.178785,"Lat":22.945117,"Turn":3,"DayValue":"一,二,四,六","RecycleDate":"二,六"},{"StopId":8219,"StopName":"喜樹路96巷15號前","ScheduleTime":"16:54","EstimateTime":"","CarInfo":"","Lon":120.179061,"Lat":22.944793,"Turn":4,"DayValue":"一,二,四,六","RecycleDate":"二,六"},{"StopId":8220,"StopName":"喜樹路104巷口","ScheduleTime":"16:58","EstimateTime":"","CarInfo":"","Lon":120.179785,"Lat":22.94451,"Turn":5,"DayValue":"一,二,四,六","RecycleDate":"二,六"},{"StopId":8221,"StopName":"喜樹路134巷口","ScheduleTime":"17:02","EstimateTime":"","CarInfo":"","Lon":120.179798,"Lat":22.943861,"Turn":6,"DayValue":"一,二,四,六","RecycleDate":"二,六"},{"StopId":8222,"StopName":"喜樹路146巷口","ScheduleTime":"17:04","EstimateTime":"","CarInfo":"","Lon":120.179791,"Lat":22.943601,"Turn":7,"DayValue":"一,二,四,六","RecycleDate":"二,六"},{"StopId":8223,"StopName":"喜樹路168巷口","ScheduleTime":"17:06","EstimateTime":"","CarInfo":"","Lon":120.179828,"Lat":22.943113,"Turn":8,"DayValue":"一,二,四,六","RecycleDate":"二,六"},{"StopId":8224,"StopName":"喜樹路206巷","ScheduleTime":"17:09","EstimateTime":"","CarInfo":"","Lon":120.179022,"Lat":22.941785,"Turn":9,"DayValue":"一,二,四,六","RecycleDate":"二,六"},{"StopId":8225,"StopName":"喜樹路222巷15號對面","ScheduleTime":"17:20","EstimateTime":"","CarInfo":"","Lon":120.177916,"Lat":22.9412162,"Turn":10,"DayValue":"一,二,四,六","RecycleDate":"二,六"},{"StopId":8226,"StopName":"喜樹路248號前","ScheduleTime":"17:27","EstimateTime":"","CarInfo":"","Lon":120.178076,"Lat":22.940558,"Turn":11,"DayValue":"一,二,四,六","RecycleDate":"二,六"},{"StopId":8227,"StopName":"喜樹路302巷口","ScheduleTime":"17:30","EstimateTime":"","CarInfo":"","Lon":120.178244,"Lat":22.939485,"Turn":12,"DayValue":"一,二,四,六","RecycleDate":"二,六"},{"StopId":8228,"StopName":"南和路22號前","ScheduleTime":"17:41","EstimateTime":"","CarInfo":"","Lon":120.186642,"Lat":22.95833,"Turn":13,"DayValue":"一,二,四,六","RecycleDate":"二,六"},{"StopId":8229,"StopName":"鯤鯓路101巷11號前","ScheduleTime":"17:51","EstimateTime":"","CarInfo":"","Lon":120.172154,"Lat":22.958662,"Turn":14,"DayValue":"一,二,四,六","RecycleDate":"二,六"},{"StopId":8230,"StopName":"鯤鯓路102巷口（涼亭前）","ScheduleTime":"17:55","EstimateTime":"","CarInfo":"","Lon":120.171779,"Lat":22.959486,"Turn":15,"DayValue":"一,二,四,六","RecycleDate":"二,六"},{"StopId":8231,"StopName":"鯤鯓路102巷（天壇對面）","ScheduleTime":"17:59","EstimateTime":"","CarInfo":"","Lon":120.171688,"Lat":22.96048,"Turn":16,"DayValue":"一,二,四,六","RecycleDate":"二,六"},{"StopId":8232,"StopName":"鯤鯓大廟前","ScheduleTime":"18:03","EstimateTime":"","CarInfo":"","Lon":120.171396,"Lat":22.96168,"Turn":17,"DayValue":"一,二,四,六","RecycleDate":"二,六"},{"StopId":8233,"StopName":"鯤鯓路232巷口","ScheduleTime":"18:09","EstimateTime":"","CarInfo":"","Lon":120.169267,"Lat":22.962747,"Turn":18,"DayValue":"一,二,四,六","RecycleDate":"二,六"},{"StopId":8234,"StopName":"龍崗國小前","ScheduleTime":"18:11","EstimateTime":"","CarInfo":"","Lon":120.169625,"Lat":22.96161,"Turn":19,"DayValue":"一,二,四,六","RecycleDate":"二,六"},{"StopId":8235,"StopName":"鯤鯓路162巷對面","ScheduleTime":"18:13","EstimateTime":"","CarInfo":"","Lon":120.16995,"Lat":22.96074,"Turn":20,"DayValue":"一,二,四,六","RecycleDate":"二,六"},{"StopId":8236,"StopName":"鯤鯓路137巷口","ScheduleTime":"20:10","EstimateTime":"","CarInfo":"","Lon":120.170255,"Lat":22.959943,"Turn":21,"DayValue":"一,二,四,六","RecycleDate":"二,六"},{"StopId":8237,"StopName":"鯤鯓路126號對面","ScheduleTime":"20:13","EstimateTime":"","CarInfo":"","Lon":120.170671,"Lat":22.959307,"Turn":22,"DayValue":"一,二,四,六","RecycleDate":"二,六"},{"StopId":8238,"StopName":"鯤鯓路115巷24弄2號對面﹙保鯤堂﹚","ScheduleTime":"20:16","EstimateTime":"","CarInfo":"","Lon":120.171716,"Lat":22.95838,"Turn":23,"DayValue":"一,二,四,六","RecycleDate":"二,六"},{"StopId":8239,"StopName":"鯤鯓路95號","ScheduleTime":"20:20","EstimateTime":"","CarInfo":"","Lon":120.172178,"Lat":22.959132,"Turn":24,"DayValue":"一,二,四,六","RecycleDate":"二,六"},{"StopId":8240,"StopName":"鯤鯓路77巷口","ScheduleTime":"20:24","EstimateTime":"","CarInfo":"","Lon":120.172766,"Lat":22.959086,"Turn":25,"DayValue":"一,二,四,六","RecycleDate":"二,六"},{"StopId":8241,"StopName":"濱南路111號前","ScheduleTime":"20:29","EstimateTime":"","CarInfo":"","Lon":120.184055,"Lat":22.959544,"Turn":26,"DayValue":"一,二,四,六","RecycleDate":"二,六"},{"StopId":8242,"StopName":"中華南路二段315巷12弄22號","ScheduleTime":"20:31","EstimateTime":"","CarInfo":"","Lon":120.184422,"Lat":22.959897,"Turn":27,"DayValue":"一,二,四,六","RecycleDate":"二,六"},{"StopId":8243,"StopName":"中華南路二段315巷2弄19號旁","ScheduleTime":"20:36","EstimateTime":"","CarInfo":"","Lon":120.184391,"Lat":22.961199,"Turn":28,"DayValue":"一,二,四,六","RecycleDate":"二,六"},{"StopId":8244,"StopName":"中華南路二段315巷2弄口","ScheduleTime":"20:41","EstimateTime":"","CarInfo":"","Lon":120.185371,"Lat":22.961399,"Turn":29,"DayValue":"一,二,四,六","RecycleDate":"二,六"},{"StopId":8245,"StopName":"中華南路二段315巷26巷口","ScheduleTime":"20:45","EstimateTime":"","CarInfo":"","Lon":120.185957,"Lat":22.959811,"Turn":30,"DayValue":"一,二,四,六","RecycleDate":"二,六"},{"StopId":8246,"StopName":"中華南路二段315巷5弄口","ScheduleTime":"20:47","EstimateTime":"","CarInfo":"","Lon":120.186409,"Lat":22.960149,"Turn":31,"DayValue":"一,二,四,六","RecycleDate":"二,六"},{"StopId":8247,"StopName":"中華南路二段315巷1弄口","ScheduleTime":"20:51","EstimateTime":"","CarInfo":"","Lon":120.186913,"Lat":22.961374,"Turn":32,"DayValue":"一,二,四,六","RecycleDate":"二,六"},{"StopId":8248,"StopName":"南都里長壽會前","ScheduleTime":"20:55","EstimateTime":"","CarInfo":"","Lon":120.18706,"Lat":22.961648,"Turn":33,"DayValue":"一,二,四,六","RecycleDate":"二,六"},{"StopId":8249,"StopName":"中華南路二段300巷2弄口","ScheduleTime":"21:00","EstimateTime":"","CarInfo":"","Lon":120.187757,"Lat":22.961935,"Turn":34,"DayValue":"一,二,四,六","RecycleDate":"二,六"},{"StopId":8250,"StopName":"中華南路二段300巷30弄口","ScheduleTime":"21:03","EstimateTime":"","CarInfo":"","Lon":120.187845,"Lat":22.962798,"Turn":35,"DayValue":"一,二,四,六","RecycleDate":"二,六"},{"StopId":8251,"StopName":"金華路一段29巷8弄54號與95巷交叉口","ScheduleTime":"21:06","EstimateTime":"","CarInfo":"","Lon":120.188977,"Lat":22.963249,"Turn":36,"DayValue":"一,二,四,六","RecycleDate":"二,六"},{"StopId":8252,"StopName":"金華路一段49號前","ScheduleTime":"21:09","EstimateTime":"","CarInfo":"","Lon":120.189194,"Lat":22.962413,"Turn":37,"DayValue":"一,二,四,六","RecycleDate":"二,六"},{"StopId":8253,"StopName":"中華南路二段366號前","ScheduleTime":"21:12","EstimateTime":"","CarInfo":"","Lon":120.185747,"Lat":22.961837,"Turn":38,"DayValue":"一,二,四,六","RecycleDate":"二,六"}],"CarData":[],"RouteId":202,"RouteName":"南區-13","RouteInfo":"喜樹路24巷口~中華南路二段366號前","IsWork":true}]