[{"StopData":[{"StopId":14966,"StopName":"府前路1段、舊地方法院前","ScheduleTime":"06:30","EstimateTime":"","CarInfo":"","Lon":120.2010742,"Lat":22.9897336,"Turn":1,"DayValue":"","RecycleDate":""},{"StopId":14967,"StopName":"南門路159號對面（舊中廣前）","ScheduleTime":"07:05","EstimateTime":"","CarInfo":"","Lon":120.203605,"Lat":22.978295,"Turn":2,"DayValue":"","RecycleDate":""},{"StopId":14968,"StopName":"大埔街49號對面(延平郡王祠停車場入口處旁)","ScheduleTime":"07:45","EstimateTime":"","CarInfo":"","Lon":120.2084901,"Lat":22.9871678,"Turn":3,"DayValue":"","RecycleDate":""},{"StopId":14969,"StopName":"西門路1段674號(通訊行)(原地點為路口及公車站牌影響停車)","ScheduleTime":"08:25","EstimateTime":"","CarInfo":"","Lon":120.197688,"Lat":22.989208,"Turn":4,"DayValue":"","RecycleDate":""},{"StopId":14970,"StopName":"忠義路1段85巷口","ScheduleTime":"09:05","EstimateTime":"","CarInfo":"","Lon":120.201788,"Lat":22.988037,"Turn":5,"DayValue":"","RecycleDate":""},{"StopId":14971,"StopName":"五妃街與南門路口（中山館前）","ScheduleTime":"09:30","EstimateTime":"","CarInfo":"","Lon":120.2037299,"Lat":22.9826977,"Turn":6,"DayValue":"","RecycleDate":""},{"StopId":14972,"StopName":"健康路1段與忠義路1段路口","ScheduleTime":"10:05","EstimateTime":"","CarInfo":"","Lon":120.20172,"Lat":22.981339,"Turn":7,"DayValue":"","RecycleDate":""},{"StopId":14973,"StopName":"西門路1段442號旁(嘉南停車場前)","ScheduleTime":"10:25","EstimateTime":"","CarInfo":"","Lon":120.197745,"Lat":22.982582,"Turn":8,"DayValue":"","RecycleDate":""},{"StopId":14974,"StopName":"民生路1段80號前","ScheduleTime":"10:45","EstimateTime":"","CarInfo":"","Lon":120.2020579,"Lat":22.9935204,"Turn":9,"DayValue":"","RecycleDate":""}],"CarData":[],"RouteId":352,"RouteName":"中區-第1車輔助點","RouteInfo":"府前路1段、舊地方法院前~民生路1段80號前","IsWork":false}]