[{"StopData":[{"StopId":440,"StopName":"隆田里公有市場(中山路一段98號)","ScheduleTime":"16:55","EstimateTime":"","CarInfo":"","Lon":120.317011,"Lat":23.192801,"Turn":1,"DayValue":"一,二,四,六","RecycleDate":"二,六"},{"StopId":441,"StopName":"仁愛街36號","ScheduleTime":"16:58","EstimateTime":"","CarInfo":"","Lon":120.316297,"Lat":23.19387,"Turn":2,"DayValue":"一,二,四,六","RecycleDate":"二,六"},{"StopId":442,"StopName":"文化街42號","ScheduleTime":"17:00","EstimateTime":"","CarInfo":"","Lon":120.318238,"Lat":23.193826,"Turn":3,"DayValue":"一,二,四,六","RecycleDate":"二,六"},{"StopId":443,"StopName":"新生街126-1號","ScheduleTime":"17:02","EstimateTime":"","CarInfo":"","Lon":120.31833,"Lat":23.192507,"Turn":4,"DayValue":"一,二,四,六","RecycleDate":"二,六"},{"StopId":444,"StopName":"中山路一段142號","ScheduleTime":"17:07","EstimateTime":"","CarInfo":"","Lon":120.31482,"Lat":23.192875,"Turn":5,"DayValue":"一,二,四,六","RecycleDate":"二,六"},{"StopId":445,"StopName":"勝利路145號","ScheduleTime":"17:11","EstimateTime":"","CarInfo":"","Lon":120.318133,"Lat":23.196162,"Turn":6,"DayValue":"一,二,四,六","RecycleDate":"二,六"},{"StopId":446,"StopName":"文化街78號","ScheduleTime":"17:14","EstimateTime":"","CarInfo":"","Lon":120.318229,"Lat":23.194733,"Turn":7,"DayValue":"一,二,四,六","RecycleDate":"二,六"},{"StopId":447,"StopName":"四維街58號","ScheduleTime":"17:16","EstimateTime":"","CarInfo":"","Lon":120.31908,"Lat":23.195091,"Turn":8,"DayValue":"一,二,四,六","RecycleDate":"二,六"},{"StopId":448,"StopName":"文化街97號","ScheduleTime":"17:17","EstimateTime":"","CarInfo":"","Lon":120.318281,"Lat":23.19548,"Turn":9,"DayValue":"一,二,四,六","RecycleDate":"二,六"},{"StopId":449,"StopName":"忠孝街153號","ScheduleTime":"17:25","EstimateTime":"","CarInfo":"","Lon":120.315943,"Lat":23.19871,"Turn":10,"DayValue":"一,二,四,六","RecycleDate":"二,六"},{"StopId":450,"StopName":"復興街208號","ScheduleTime":"17:31","EstimateTime":"","CarInfo":"","Lon":120.312835,"Lat":23.198101,"Turn":11,"DayValue":"一,二,四,六","RecycleDate":"二,六"},{"StopId":451,"StopName":"興隆街280號","ScheduleTime":"17:34","EstimateTime":"","CarInfo":"","Lon":120.311293,"Lat":23.19763,"Turn":12,"DayValue":"一,二,四,六","RecycleDate":"二,六"},{"StopId":452,"StopName":"興隆街15號","ScheduleTime":"17:39","EstimateTime":"","CarInfo":"","Lon":120.316537,"Lat":23.198218,"Turn":13,"DayValue":"一,二,四,六","RecycleDate":"二,六"},{"StopId":453,"StopName":"勝利路176號","ScheduleTime":"17:42","EstimateTime":"","CarInfo":"","Lon":120.31815,"Lat":23.196417,"Turn":14,"DayValue":"一,二,四,六","RecycleDate":"二,六"},{"StopId":454,"StopName":"中華路二段108巷31弄56號","ScheduleTime":"17:50","EstimateTime":"","CarInfo":"","Lon":120.316795,"Lat":23.199312,"Turn":15,"DayValue":"一,二,四,六","RecycleDate":"二,六"},{"StopId":455,"StopName":"中華路二段190號","ScheduleTime":"17:54","EstimateTime":"","CarInfo":"","Lon":120.314527,"Lat":23.202638,"Turn":16,"DayValue":"一,二,四,六","RecycleDate":"二,六"},{"StopId":456,"StopName":"中華路二段15巷16號","ScheduleTime":"17:59","EstimateTime":"","CarInfo":"","Lon":120.315827,"Lat":23.199159,"Turn":17,"DayValue":"一,二,四,六","RecycleDate":"二,六"},{"StopId":457,"StopName":"勝利路48巷22號","ScheduleTime":"18:05","EstimateTime":"","CarInfo":"","Lon":120.315688,"Lat":23.19405,"Turn":18,"DayValue":"一,二,四,六","RecycleDate":"二,六"},{"StopId":458,"StopName":"和平街二段60號","ScheduleTime":"18:10","EstimateTime":"","CarInfo":"","Lon":120.311144,"Lat":23.194619,"Turn":19,"DayValue":"一,二,四,六","RecycleDate":"二,六"},{"StopId":459,"StopName":"中山路二段60號","ScheduleTime":"18:15","EstimateTime":"","CarInfo":"","Lon":120.306746,"Lat":23.194437,"Turn":20,"DayValue":"一,二,四,六","RecycleDate":"二,六"},{"StopId":460,"StopName":"中山路二段207號","ScheduleTime":"18:20","EstimateTime":"","CarInfo":"","Lon":120.297518,"Lat":23.198144,"Turn":21,"DayValue":"一,二,四,六","RecycleDate":"二,六"},{"StopId":461,"StopName":"信義街一段90號","ScheduleTime":"18:30","EstimateTime":"","CarInfo":"","Lon":120.312681,"Lat":23.191845,"Turn":22,"DayValue":"一,二,四,六","RecycleDate":"二,六"},{"StopId":462,"StopName":"中華路二段83巷3號","ScheduleTime":"18:35","EstimateTime":"","CarInfo":"","Lon":120.314319,"Lat":23.201439,"Turn":23,"DayValue":"一,二,四,六","RecycleDate":"二,六"},{"StopId":463,"StopName":"官田里223-18號","ScheduleTime":"18:40","EstimateTime":"","CarInfo":"","Lon":120.334557,"Lat":23.183856,"Turn":24,"DayValue":"一,二,四,六","RecycleDate":"二,六"},{"StopId":464,"StopName":"渡子頭235號","ScheduleTime":"18:50","EstimateTime":"","CarInfo":"","Lon":120.338295,"Lat":23.174411,"Turn":25,"DayValue":"一,二,四,六","RecycleDate":"二,六"}],"CarData":[],"RouteId":156,"RouteName":"官田-1","RouteInfo":"隆田里公有市場(中山路一段98號)~渡子頭235號","IsWork":true}]