[{"StopData":[{"StopId":8107,"StopName":"中華西路新孝路口","ScheduleTime":"16:56","EstimateTime":"","CarInfo":"","Lon":120.18473,"Lat":22.978,"Turn":1,"DayValue":"一,二,四,六","RecycleDate":"二,六"},{"StopId":8108,"StopName":"中華西路一段214號","ScheduleTime":"17:00","EstimateTime":"","CarInfo":"","Lon":120.185358,"Lat":22.980003,"Turn":2,"DayValue":"一,二,四,六","RecycleDate":"二,六"},{"StopId":8109,"StopName":"健康路二段401巷口","ScheduleTime":"17:07","EstimateTime":"","CarInfo":"","Lon":120.186573,"Lat":22.981999,"Turn":3,"DayValue":"一,二,四,六","RecycleDate":"二,六"},{"StopId":8110,"StopName":"健康路二段359號","ScheduleTime":"17:11","EstimateTime":"","CarInfo":"","Lon":120.187601,"Lat":22.981894,"Turn":4,"DayValue":"一,二,四,六","RecycleDate":"二,六"},{"StopId":8111,"StopName":"健康路二段281號","ScheduleTime":"17:17","EstimateTime":"","CarInfo":"","Lon":120.189617,"Lat":22.981663,"Turn":5,"DayValue":"一,二,四,六","RecycleDate":"二,六"},{"StopId":8112,"StopName":"健康路二段207號前","ScheduleTime":"17:25","EstimateTime":"","CarInfo":"","Lon":120.192042,"Lat":22.981494,"Turn":6,"DayValue":"一,二,四,六","RecycleDate":"二,六"},{"StopId":8113,"StopName":"健康路二段141號","ScheduleTime":"17:30","EstimateTime":"","CarInfo":"","Lon":120.193721,"Lat":22.981435,"Turn":7,"DayValue":"一,二,四,六","RecycleDate":"二,六"},{"StopId":8114,"StopName":"夏林路69號","ScheduleTime":"17:35","EstimateTime":"","CarInfo":"","Lon":120.195139,"Lat":22.982997,"Turn":8,"DayValue":"一,二,四,六","RecycleDate":"二,六"},{"StopId":8115,"StopName":"夏林路63號旁","ScheduleTime":"17:37","EstimateTime":"","CarInfo":"","Lon":120.195109,"Lat":22.983436,"Turn":9,"DayValue":"一,二,四,六","RecycleDate":"二,六"},{"StopId":8116,"StopName":"夏林路與樹林街口","ScheduleTime":"17:43","EstimateTime":"","CarInfo":"","Lon":120.195009,"Lat":22.986339,"Turn":10,"DayValue":"一,二,四,六","RecycleDate":"二,六"},{"StopId":8117,"StopName":"夏林路1-4號﹙泰灣曼谷海產店前﹚","ScheduleTime":"17:48","EstimateTime":"","CarInfo":"","Lon":120.195028,"Lat":22.987155,"Turn":11,"DayValue":"一,二,四,六","RecycleDate":"二,六"},{"StopId":8118,"StopName":"永華路與國華街口","ScheduleTime":"17:54","EstimateTime":"","CarInfo":"","Lon":120.196387,"Lat":22.987376,"Turn":12,"DayValue":"一,二,四,六","RecycleDate":"二,六"},{"StopId":8119,"StopName":"西門路一段667號","ScheduleTime":"18:01","EstimateTime":"","CarInfo":"","Lon":120.197498,"Lat":22.986544,"Turn":13,"DayValue":"一,二,四,六","RecycleDate":"二,六"},{"StopId":8120,"StopName":"西門路一段607號","ScheduleTime":"18:07","EstimateTime":"","CarInfo":"","Lon":120.197521,"Lat":22.985247,"Turn":14,"DayValue":"一,二,四,六","RecycleDate":"二,六"},{"StopId":8121,"StopName":"西門路一段575巷口","ScheduleTime":"18:13","EstimateTime":"","CarInfo":"","Lon":120.197557,"Lat":22.984312,"Turn":15,"DayValue":"一,二,四,六","RecycleDate":"二,六"},{"StopId":8122,"StopName":"西門路一段519號邊空地","ScheduleTime":"18:19","EstimateTime":"","CarInfo":"","Lon":120.197553,"Lat":22.98308,"Turn":16,"DayValue":"一,二,四,六","RecycleDate":"二,六"},{"StopId":8123,"StopName":"健康路二段118號前","ScheduleTime":"18:27","EstimateTime":"","CarInfo":"","Lon":120.194335,"Lat":22.981545,"Turn":17,"DayValue":"一,二,四,六","RecycleDate":"二,六"},{"StopId":8124,"StopName":"健康路二段160號","ScheduleTime":"18:31","EstimateTime":"","CarInfo":"","Lon":120.193431,"Lat":22.981579,"Turn":18,"DayValue":"一,二,四,六","RecycleDate":"二,六"},{"StopId":8125,"StopName":"健康路二段182號","ScheduleTime":"18:33","EstimateTime":"","CarInfo":"","Lon":120.192721,"Lat":22.981582,"Turn":19,"DayValue":"一,二,四,六","RecycleDate":"二,六"},{"StopId":8126,"StopName":"夏林路12號","ScheduleTime":"20:15","EstimateTime":"","CarInfo":"","Lon":120.194878,"Lat":22.984425,"Turn":20,"DayValue":"一,二,四,六","RecycleDate":"二,六"},{"StopId":8127,"StopName":"夏林路110號","ScheduleTime":"20:20","EstimateTime":"","CarInfo":"","Lon":120.194973,"Lat":22.982239,"Turn":21,"DayValue":"一,二,四,六","RecycleDate":"二,六"},{"StopId":8128,"StopName":"三官路70巷口","ScheduleTime":"20:26","EstimateTime":"","CarInfo":"","Lon":120.193855,"Lat":22.979514,"Turn":22,"DayValue":"一,二,四,六","RecycleDate":"二,六"},{"StopId":8129,"StopName":"三官路222巷口","ScheduleTime":"20:32","EstimateTime":"","CarInfo":"","Lon":120.19172,"Lat":22.977092,"Turn":23,"DayValue":"一,二,四,六","RecycleDate":"二,六"},{"StopId":8130,"StopName":"金華路二段70號前","ScheduleTime":"20:37","EstimateTime":"","CarInfo":"","Lon":120.191171,"Lat":22.977408,"Turn":24,"DayValue":"一,二,四,六","RecycleDate":"二,六"},{"StopId":8131,"StopName":"金華路二段172號","ScheduleTime":"20:41","EstimateTime":"","CarInfo":"","Lon":120.19135,"Lat":22.979783,"Turn":25,"DayValue":"一,二,四,六","RecycleDate":"二,六"},{"StopId":8132,"StopName":"金華路二段212號","ScheduleTime":"20:45","EstimateTime":"","CarInfo":"","Lon":120.191403,"Lat":22.980452,"Turn":26,"DayValue":"一,二,四,六","RecycleDate":"二,六"},{"StopId":8133,"StopName":"金華路二段282號","ScheduleTime":"20:49","EstimateTime":"","CarInfo":"","Lon":120.191617,"Lat":22.982362,"Turn":27,"DayValue":"一,二,四,六","RecycleDate":"二,六"},{"StopId":8134,"StopName":"金華路二段340號","ScheduleTime":"20:53","EstimateTime":"","CarInfo":"","Lon":120.1917,"Lat":22.983686,"Turn":28,"DayValue":"一,二,四,六","RecycleDate":"二,六"},{"StopId":8135,"StopName":"金華路二段105號","ScheduleTime":"20:59","EstimateTime":"","CarInfo":"","Lon":120.191289,"Lat":22.979696,"Turn":29,"DayValue":"一,二,四,六","RecycleDate":"二,六"},{"StopId":8136,"StopName":"尊南街253號","ScheduleTime":"21:05","EstimateTime":"","CarInfo":"","Lon":120.189045,"Lat":22.980712,"Turn":30,"DayValue":"一,二,四,六","RecycleDate":"二,六"},{"StopId":8137,"StopName":"賢南街與惠南街口","ScheduleTime":"21:11","EstimateTime":"","CarInfo":"","Lon":120.187849,"Lat":22.980916,"Turn":31,"DayValue":"一,二,四,六","RecycleDate":"二,六"},{"StopId":8138,"StopName":"賢南街154號","ScheduleTime":"21:16","EstimateTime":"","CarInfo":"","Lon":120.186827,"Lat":22.980818,"Turn":32,"DayValue":"一,二,四,六","RecycleDate":"二,六"}],"CarData":[],"RouteId":199,"RouteName":"南區-10","RouteInfo":"中華西路新孝路口~賢南街154號","IsWork":true}]