[{"StopData":[{"StopId":2012,"StopName":"勝利國小前","ScheduleTime":"06:30","EstimateTime":"","CarInfo":"","Lon":120.2308637,"Lat":23.0035874,"Turn":1,"DayValue":"一,二,四,五,六","RecycleDate":""},{"StopId":2013,"StopName":"金碧輝煌（勝利街1巷43號）","ScheduleTime":"06:53","EstimateTime":"","CarInfo":"","Lon":120.2297638,"Lat":23.0015377,"Turn":2,"DayValue":"一,二,四,五,六","RecycleDate":""},{"StopId":2014,"StopName":"復興國小（華興街）","ScheduleTime":"07:00","EstimateTime":"","CarInfo":"","Lon":120.238404,"Lat":23.000628,"Turn":3,"DayValue":"一,二,四,五,六","RecycleDate":""},{"StopId":2015,"StopName":"五王市場（中華二路206巷72號）","ScheduleTime":"07:25","EstimateTime":"","CarInfo":"","Lon":120.2347928,"Lat":23.0111598,"Turn":4,"DayValue":"一,二,四,五,六","RecycleDate":""},{"StopId":2016,"StopName":"五王國小（中華二路150號）","ScheduleTime":"07:50","EstimateTime":"","CarInfo":"","Lon":120.237162,"Lat":23.008766,"Turn":5,"DayValue":"一,二,四,五,六","RecycleDate":""},{"StopId":2017,"StopName":"龍門大地（勝華街37巷56號）","ScheduleTime":"08:10","EstimateTime":"","CarInfo":"","Lon":120.233603,"Lat":23.005444,"Turn":6,"DayValue":"一,二,四,五,六","RecycleDate":""},{"StopId":2018,"StopName":"良美大樓（中華路1號）","ScheduleTime":"08:20","EstimateTime":"","CarInfo":"","Lon":120.2342942,"Lat":22.998831,"Turn":7,"DayValue":"一,二,四,五,六","RecycleDate":""},{"StopId":2019,"StopName":"諾貝爾（中華路7巷20弄36號）","ScheduleTime":"08:28","EstimateTime":"","CarInfo":"","Lon":120.234265,"Lat":22.999489,"Turn":8,"DayValue":"一,二,四,五,六","RecycleDate":""},{"StopId":2020,"StopName":"湯三新村(小東路432巷2-10號)","ScheduleTime":"08:30","EstimateTime":"","CarInfo":"","Lon":120.2329997,"Lat":22.9995209,"Turn":9,"DayValue":"一,二,四,五,六","RecycleDate":""},{"StopId":2021,"StopName":"勝利王朝 (勝利街22巷5弄5號)","ScheduleTime":"08:35","EstimateTime":"","CarInfo":"","Lon":120.2318243,"Lat":23.000913,"Turn":10,"DayValue":"一,二,四,五,六","RecycleDate":""},{"StopId":2022,"StopName":"熱帶嶼.太陽賞(勝華街260巷2號)","ScheduleTime":"08:41","EstimateTime":"","CarInfo":"","Lon":120.231788,"Lat":23.007232,"Turn":11,"DayValue":"一,二,四,五,六","RecycleDate":""},{"StopId":2023,"StopName":"觀雲社區乙（中華路358巷12號）","ScheduleTime":"08:47","EstimateTime":"","CarInfo":"","Lon":120.230302,"Lat":23.008739,"Turn":12,"DayValue":"一,二,四,五,六","RecycleDate":""},{"StopId":2024,"StopName":"觀雲社區甲(中華路340巷15弄6號)","ScheduleTime":"08:54","EstimateTime":"","CarInfo":"","Lon":120.230604,"Lat":23.009216,"Turn":13,"DayValue":"一,二,四,五,六","RecycleDate":""},{"StopId":2025,"StopName":"觀雲社區丙（中華路340巷8號）","ScheduleTime":"08:58","EstimateTime":"","CarInfo":"","Lon":120.231094,"Lat":23.008804,"Turn":14,"DayValue":"一,二,四,五,六","RecycleDate":""},{"StopId":2026,"StopName":"東方公園（中華二路266巷12號）","ScheduleTime":"09:03","EstimateTime":"","CarInfo":"","Lon":120.2329556,"Lat":23.0090021,"Turn":15,"DayValue":"一,二,四,五,六","RecycleDate":""},{"StopId":2027,"StopName":"佳和佳園（中華二路266巷5號）","ScheduleTime":"09:07","EstimateTime":"","CarInfo":"","Lon":120.2329112,"Lat":23.0088562,"Turn":16,"DayValue":"一,二,四,五,六","RecycleDate":""},{"StopId":2028,"StopName":"展旭大樓（中華路578巷2-5號)","ScheduleTime":"09:12","EstimateTime":"","CarInfo":"","Lon":120.23202,"Lat":23.012956,"Turn":17,"DayValue":"一,二,四,五,六","RecycleDate":""},{"StopId":2029,"StopName":"御金鄉（中華路578巷）","ScheduleTime":"09:13","EstimateTime":"","CarInfo":"","Lon":120.231952,"Lat":23.013087,"Turn":18,"DayValue":"一,二,四,五,六","RecycleDate":""},{"StopId":2030,"StopName":"長億城E棟.B棟.A棟(每星期一.四.六收運)","ScheduleTime":"10:15","EstimateTime":"","CarInfo":"","Lon":120.22727,"Lat":23.016743,"Turn":19,"DayValue":"一,二,四,五,六","RecycleDate":""},{"StopId":2031,"StopName":"長億城F棟.D棟.C棟(每星期二.五收運)","ScheduleTime":"10:15","EstimateTime":"","CarInfo":"","Lon":120.226406,"Lat":23.017215,"Turn":20,"DayValue":"一,二,四,五,六","RecycleDate":""},{"StopId":2032,"StopName":"大日坎城(南工街311巷77號)","ScheduleTime":"10:45","EstimateTime":"","CarInfo":"","Lon":120.23707,"Lat":23.012055,"Turn":21,"DayValue":"一,二,四,五,六","RecycleDate":""},{"StopId":2033,"StopName":"摩登大樓(振興路152號旁)","ScheduleTime":"10:56","EstimateTime":"","CarInfo":"","Lon":120.23563,"Lat":23.012473,"Turn":22,"DayValue":"一,二,四,五,六","RecycleDate":""},{"StopId":2034,"StopName":"中華雅築(南工街247巷6弄15號)","ScheduleTime":"11:07","EstimateTime":"","CarInfo":"","Lon":120.238741,"Lat":23.012461,"Turn":23,"DayValue":"一,二,四,五,六","RecycleDate":""},{"StopId":2035,"StopName":"凡爾賽宮(復華3街90巷12號)","ScheduleTime":"11:20","EstimateTime":"","CarInfo":"","Lon":120.24536,"Lat":23.009821,"Turn":24,"DayValue":"一,二,四,五,六","RecycleDate":""},{"StopId":2036,"StopName":"白金漢宮(復華3衡","ScheduleTime":"11:26","EstimateTime":"","CarInfo":"","Lon":120.245896,"Lat":23.009756,"Turn":25,"DayValue":"一,二,四,五,六","RecycleDate":""},{"StopId":2037,"StopName":"H會館","ScheduleTime":"11:31","EstimateTime":"","CarInfo":"","Lon":120.245937,"Lat":23.010987,"Turn":26,"DayValue":"一,二,四,五,六","RecycleDate":""},{"StopId":2038,"StopName":"棕櫚泉(復華八街)","ScheduleTime":"11:40","EstimateTime":"","CarInfo":"","Lon":120.245788,"Lat":23.017239,"Turn":27,"DayValue":"一,二,四,五,六","RecycleDate":""}],"CarData":[{"CarNo":"505-TQ","Angle":63,"Lon":120.25579,"Lat":23.025598}],"RouteId":50,"RouteName":"永康-日間4","RouteInfo":"勝利國小前~棕櫚泉(復華八街)","IsWork":true}]