[{"StopData":[{"StopId":6395,"StopName":"27-6號(鴨頭)","ScheduleTime":"15:50","EstimateTime":"","CarInfo":"","Lon":120.4105027,"Lat":23.321465,"Turn":1,"DayValue":"一,三,五,六","RecycleDate":"三,六"},{"StopId":6396,"StopName":"凹子腳30-5號(凹子腳三叉路口)","ScheduleTime":"16:07","EstimateTime":"","CarInfo":"","Lon":120.4255053,"Lat":23.315191,"Turn":2,"DayValue":"一,三,五,六","RecycleDate":"三,六"},{"StopId":6397,"StopName":"凹子腳20-1號(凹子腳高速公路下)","ScheduleTime":"16:09","EstimateTime":"","CarInfo":"","Lon":120.4275008,"Lat":23.3144643,"Turn":3,"DayValue":"一,三,五,六","RecycleDate":"三,六"},{"StopId":6398,"StopName":"大庄51-1號(大庄路口)","ScheduleTime":"16:21","EstimateTime":"","CarInfo":"","Lon":120.4102826,"Lat":23.3135014,"Turn":4,"DayValue":"一,三,五,六","RecycleDate":"三,六"},{"StopId":6399,"StopName":"下庄子19-1號(下庄子中路)","ScheduleTime":"16:23","EstimateTime":"","CarInfo":"","Lon":120.4098653,"Lat":23.3069,"Turn":5,"DayValue":"一,三,五,六","RecycleDate":"三,六"},{"StopId":6400,"StopName":"下庄子28-6號","ScheduleTime":"16:26","EstimateTime":"","CarInfo":"","Lon":120.4087012,"Lat":23.307107,"Turn":6,"DayValue":"一,三,五,六","RecycleDate":"三,六"},{"StopId":6401,"StopName":"下庄子32-1號(下庄子廟)(迴轉)","ScheduleTime":"16:28","EstimateTime":"","CarInfo":"","Lon":120.4088997,"Lat":23.3061782,"Turn":7,"DayValue":"一,三,五,六","RecycleDate":"三,六"},{"StopId":6402,"StopName":"下庄子28-2號(太子府)","ScheduleTime":"16:30","EstimateTime":"","CarInfo":"","Lon":120.4074271,"Lat":23.303806,"Turn":8,"DayValue":"一,三,五,六","RecycleDate":"三,六"},{"StopId":6403,"StopName":"枋子林 79號","ScheduleTime":"16:34","EstimateTime":"","CarInfo":"","Lon":120.4029972,"Lat":23.2946385,"Turn":9,"DayValue":"一,三,五,六","RecycleDate":"三,六"},{"StopId":6404,"StopName":"枋子林 39號(香菇寮)","ScheduleTime":"16:37","EstimateTime":"","CarInfo":"","Lon":120.398078,"Lat":23.2929657,"Turn":10,"DayValue":"一,三,五,六","RecycleDate":"三,六"},{"StopId":6405,"StopName":"枋子林59號(廟邊鐵工廠對面)","ScheduleTime":"16:39","EstimateTime":"","CarInfo":"","Lon":120.3962058,"Lat":23.2930519,"Turn":11,"DayValue":"一,三,五,六","RecycleDate":"三,六"},{"StopId":6406,"StopName":"枋子林14-2號(廟邊商店)","ScheduleTime":"16:41","EstimateTime":"","CarInfo":"","Lon":120.3957606,"Lat":23.293143,"Turn":12,"DayValue":"一,三,五,六","RecycleDate":"三,六"},{"StopId":6407,"StopName":"枋子林52-2號","ScheduleTime":"16:46","EstimateTime":"","CarInfo":"","Lon":120.3957285,"Lat":23.2918521,"Turn":13,"DayValue":"一,三,五,六","RecycleDate":"三,六"},{"StopId":6408,"StopName":"枋子林67-9號(圓環榕樹下)","ScheduleTime":"16:50","EstimateTime":"","CarInfo":"","Lon":120.3952054,"Lat":23.2925838,"Turn":14,"DayValue":"一,三,五,六","RecycleDate":"三,六"},{"StopId":6409,"StopName":"枋子林15號(枋子林往東河最後工廠)","ScheduleTime":"16:59","EstimateTime":"","CarInfo":"","Lon":120.3913805,"Lat":23.2933697,"Turn":15,"DayValue":"一,三,五,六","RecycleDate":"三,六"},{"StopId":6410,"StopName":"許秀才1-8號","ScheduleTime":"17:12","EstimateTime":"","CarInfo":"","Lon":120.3838331,"Lat":23.310464,"Turn":16,"DayValue":"一,三,五,六","RecycleDate":"三,六"},{"StopId":6411,"StopName":"北勢寮 85-4號(麵店)","ScheduleTime":"17:25","EstimateTime":"","CarInfo":"","Lon":120.3632349,"Lat":23.3098373,"Turn":17,"DayValue":"一,三,五,六","RecycleDate":"三,六"},{"StopId":6412,"StopName":"田尾70-1號","ScheduleTime":"17:27","EstimateTime":"","CarInfo":"","Lon":120.3627358,"Lat":23.3085024,"Turn":18,"DayValue":"一,三,五,六","RecycleDate":"三,六"},{"StopId":6413,"StopName":"田尾61號","ScheduleTime":"17:29","EstimateTime":"","CarInfo":"","Lon":120.3626433,"Lat":23.3064354,"Turn":19,"DayValue":"一,三,五,六","RecycleDate":"三,六"},{"StopId":6414,"StopName":"北勢寮85-10號(估阜有限公司)","ScheduleTime":"17:31","EstimateTime":"","CarInfo":"","Lon":120.3630848,"Lat":23.3094382,"Turn":20,"DayValue":"一,三,五,六","RecycleDate":"三,六"},{"StopId":6415,"StopName":"北勢寮85-3號(正一品招牌下)","ScheduleTime":"17:33","EstimateTime":"","CarInfo":"","Lon":120.3632939,"Lat":23.3104777,"Turn":21,"DayValue":"一,三,五,六","RecycleDate":"三,六"},{"StopId":6416,"StopName":"北勢寮84-20號(救世堂)","ScheduleTime":"17:35","EstimateTime":"","CarInfo":"","Lon":120.3635139,"Lat":23.3119558,"Turn":22,"DayValue":"一,三,五,六","RecycleDate":"三,六"},{"StopId":6417,"StopName":"北勢寮95-7號(鐵路口)","ScheduleTime":"17:37","EstimateTime":"","CarInfo":"","Lon":120.3636855,"Lat":23.3127686,"Turn":23,"DayValue":"一,三,五,六","RecycleDate":"三,六"},{"StopId":6418,"StopName":"北勢寮73-17號","ScheduleTime":"17:41","EstimateTime":"","CarInfo":"","Lon":120.3640772,"Lat":23.3157491,"Turn":24,"DayValue":"一,三,五,六","RecycleDate":"三,六"},{"StopId":6419,"StopName":"北勢寮73-14號","ScheduleTime":"17:43","EstimateTime":"","CarInfo":"","Lon":120.3641871,"Lat":23.3164683,"Turn":25,"DayValue":"一,三,五,六","RecycleDate":"三,六"},{"StopId":6420,"StopName":"北勢寮40-5號(泉福堂)","ScheduleTime":"17:45","EstimateTime":"","CarInfo":"","Lon":120.3639056,"Lat":23.3176359,"Turn":26,"DayValue":"一,三,五,六","RecycleDate":"三,六"},{"StopId":6421,"StopName":"北勢寮38-1號","ScheduleTime":"17:49","EstimateTime":"","CarInfo":"","Lon":120.3634656,"Lat":23.3183674,"Turn":27,"DayValue":"一,三,五,六","RecycleDate":"三,六"},{"StopId":6422,"StopName":"北勢寮61號(活動中心)","ScheduleTime":"17:55","EstimateTime":"","CarInfo":"","Lon":120.3650481,"Lat":23.3173206,"Turn":28,"DayValue":"一,三,五,六","RecycleDate":"三,六"},{"StopId":6423,"StopName":"北勢寮79-3號","ScheduleTime":"17:58","EstimateTime":"","CarInfo":"","Lon":120.3654129,"Lat":23.3162319,"Turn":29,"DayValue":"一,三,五,六","RecycleDate":"三,六"},{"StopId":6424,"StopName":"北勢寮81-12號","ScheduleTime":"18:00","EstimateTime":"","CarInfo":"","Lon":120.3655363,"Lat":23.3153253,"Turn":30,"DayValue":"一,三,五,六","RecycleDate":"三,六"},{"StopId":6425,"StopName":"北勢寮81號","ScheduleTime":"18:02","EstimateTime":"","CarInfo":"","Lon":120.3648658,"Lat":23.3152909,"Turn":31,"DayValue":"一,三,五,六","RecycleDate":"三,六"},{"StopId":6426,"StopName":"北勢寮 80-18號","ScheduleTime":"18:04","EstimateTime":"","CarInfo":"","Lon":120.3643293,"Lat":23.315685,"Turn":32,"DayValue":"一,三,五,六","RecycleDate":"三,六"},{"StopId":6427,"StopName":"北勢寮94-1號(髮型設計)","ScheduleTime":"18:06","EstimateTime":"","CarInfo":"","Lon":120.3631545,"Lat":23.3105763,"Turn":33,"DayValue":"一,三,五,六","RecycleDate":"三,六"},{"StopId":6428,"StopName":"北勢寮110-1號","ScheduleTime":"18:08","EstimateTime":"","CarInfo":"","Lon":120.3623391,"Lat":23.3097855,"Turn":34,"DayValue":"一,三,五,六","RecycleDate":"三,六"},{"StopId":6429,"StopName":"頂窩62-1號(頂窩牌樓~岱承工程)","ScheduleTime":"18:14","EstimateTime":"","CarInfo":"","Lon":120.3465858,"Lat":23.3087077,"Turn":35,"DayValue":"一,三,五,六","RecycleDate":"三,六"},{"StopId":6430,"StopName":"頂窩41-1號(救世堂接骨所招牌)","ScheduleTime":"18:16","EstimateTime":"","CarInfo":"","Lon":120.3453681,"Lat":23.3085525,"Turn":36,"DayValue":"一,三,五,六","RecycleDate":"三,六"},{"StopId":6431,"StopName":"頂窩32-8號(華濟回頭至檳榔站)","ScheduleTime":"18:20","EstimateTime":"","CarInfo":"","Lon":120.3447995,"Lat":23.308348,"Turn":37,"DayValue":"一,三,五,六","RecycleDate":"三,六"},{"StopId":6432,"StopName":"頂窩1-1號(烘焙屋)","ScheduleTime":"18:23","EstimateTime":"","CarInfo":"","Lon":120.3487398,"Lat":23.3083336,"Turn":38,"DayValue":"一,三,五,六","RecycleDate":"三,六"},{"StopId":6433,"StopName":"頂窩57-9號","ScheduleTime":"18:25","EstimateTime":"","CarInfo":"","Lon":120.3492573,"Lat":23.3089243,"Turn":39,"DayValue":"一,三,五,六","RecycleDate":"三,六"},{"StopId":6434,"StopName":"頂窩44-12號","ScheduleTime":"18:28","EstimateTime":"","CarInfo":"","Lon":120.3469237,"Lat":23.3099344,"Turn":40,"DayValue":"一,三,五,六","RecycleDate":"三,六"},{"StopId":6435,"StopName":"頂窩56-7號(永靈殿)","ScheduleTime":"18:30","EstimateTime":"","CarInfo":"","Lon":120.3467013,"Lat":23.3091317,"Turn":41,"DayValue":"一,三,五,六","RecycleDate":"三,六"},{"StopId":6436,"StopName":"頂窩 13-3號","ScheduleTime":"18:36","EstimateTime":"","CarInfo":"","Lon":120.3463578,"Lat":23.3080549,"Turn":42,"DayValue":"一,三,五,六","RecycleDate":"三,六"},{"StopId":6437,"StopName":"頂窩2-2號","ScheduleTime":"18:39","EstimateTime":"","CarInfo":"","Lon":120.3482892,"Lat":23.3076242,"Turn":43,"DayValue":"一,三,五,六","RecycleDate":"三,六"},{"StopId":6439,"StopName":"頂窩68號(久芳興業)","ScheduleTime":"18:41","EstimateTime":"","CarInfo":"","Lon":120.3536429,"Lat":23.3095459,"Turn":44,"DayValue":"一,三,五,六","RecycleDate":"三,六"},{"StopId":6440,"StopName":"田尾41-3號(田尾榕樹下)","ScheduleTime":"18:45","EstimateTime":"","CarInfo":"","Lon":120.3603098,"Lat":23.3060708,"Turn":45,"DayValue":"一,三,五,六","RecycleDate":"三,六"},{"StopId":6441,"StopName":"田尾 37號(光發汽修廠~木瓜園)","ScheduleTime":"18:47","EstimateTime":"","CarInfo":"","Lon":120.3603781,"Lat":23.3056229,"Turn":46,"DayValue":"一,三,五,六","RecycleDate":"三,六"},{"StopId":6442,"StopName":"田尾27-2號(活動中心)","ScheduleTime":"18:49","EstimateTime":"","CarInfo":"","Lon":120.3617191,"Lat":23.3053568,"Turn":47,"DayValue":"一,三,五,六","RecycleDate":"三,六"},{"StopId":6443,"StopName":"田尾45號","ScheduleTime":"18:51","EstimateTime":"","CarInfo":"","Lon":120.3612579,"Lat":23.3069777,"Turn":48,"DayValue":"一,三,五,六","RecycleDate":"三,六"},{"StopId":6444,"StopName":"田尾33-1號(雜貨店)","ScheduleTime":"18:53","EstimateTime":"","CarInfo":"","Lon":120.3612808,"Lat":23.3063714,"Turn":49,"DayValue":"一,三,五,六","RecycleDate":"三,六"},{"StopId":6445,"StopName":"田尾36號(欣龍工程行)","ScheduleTime":"18:55","EstimateTime":"","CarInfo":"","Lon":120.3620947,"Lat":23.3048148,"Turn":50,"DayValue":"一,三,五,六","RecycleDate":"三,六"},{"StopId":6446,"StopName":"田尾7號","ScheduleTime":"18:57","EstimateTime":"","CarInfo":"","Lon":120.3644551,"Lat":23.305209,"Turn":51,"DayValue":"一,三,五,六","RecycleDate":"三,六"},{"StopId":6447,"StopName":"田尾4-1號","ScheduleTime":"18:59","EstimateTime":"","CarInfo":"","Lon":120.3642941,"Lat":23.305682,"Turn":52,"DayValue":"一,三,五,六","RecycleDate":"三,六"},{"StopId":6448,"StopName":"吉貝耍75-2號(洗衣涼亭)","ScheduleTime":"19:03","EstimateTime":"","CarInfo":"","Lon":120.3824106,"Lat":23.2975863,"Turn":53,"DayValue":"一,三,五,六","RecycleDate":"三,六"},{"StopId":6449,"StopName":"吉貝耍 155號","ScheduleTime":"19:05","EstimateTime":"","CarInfo":"","Lon":120.3823704,"Lat":23.2962313,"Turn":54,"DayValue":"一,三,五,六","RecycleDate":"三,六"},{"StopId":6450,"StopName":"吉貝耍149-2號(池塘邊)","ScheduleTime":"19:07","EstimateTime":"","CarInfo":"","Lon":120.3823329,"Lat":23.2952212,"Turn":55,"DayValue":"一,三,五,六","RecycleDate":"三,六"},{"StopId":6451,"StopName":"吉貝耍104-1號(王爺廟)","ScheduleTime":"19:09","EstimateTime":"","CarInfo":"","Lon":120.3835371,"Lat":23.2950069,"Turn":56,"DayValue":"一,三,五,六","RecycleDate":"三,六"},{"StopId":6452,"StopName":"吉貝耍36-1號(阿豪布袋戲招牌邊)","ScheduleTime":"19:11","EstimateTime":"","CarInfo":"","Lon":120.3836149,"Lat":23.2958224,"Turn":57,"DayValue":"一,三,五,六","RecycleDate":"三,六"},{"StopId":6453,"StopName":"吉貝耍73-1號","ScheduleTime":"19:13","EstimateTime":"","CarInfo":"","Lon":120.3834414,"Lat":23.2970095,"Turn":58,"DayValue":"一,三,五,六","RecycleDate":"三,六"},{"StopId":6454,"StopName":"吉貝耍54-1號(家庭美髮前)","ScheduleTime":"19:15","EstimateTime":"","CarInfo":"","Lon":120.3842829,"Lat":23.297202,"Turn":59,"DayValue":"一,三,五,六","RecycleDate":"三,六"},{"StopId":6455,"StopName":"吉貝耍52-3號(譯站小吃部)","ScheduleTime":"19:17","EstimateTime":"","CarInfo":"","Lon":120.3862328,"Lat":23.2957386,"Turn":60,"DayValue":"一,三,五,六","RecycleDate":"三,六"},{"StopId":6457,"StopName":"吉貝耍2-5號(淩湖禪寺路口)","ScheduleTime":"19:19","EstimateTime":"","CarInfo":"","Lon":120.3837517,"Lat":23.2928711,"Turn":61,"DayValue":"一,三,五,六","RecycleDate":"三,六"},{"StopId":6458,"StopName":"吉貝耍6-10號(砂石場)","ScheduleTime":"19:21","EstimateTime":"","CarInfo":"","Lon":120.383674,"Lat":23.2921615,"Turn":62,"DayValue":"一,三,五,六","RecycleDate":"三,六"},{"StopId":6459,"StopName":"吉貝耍2-2號(福德堂對面)","ScheduleTime":"19:23","EstimateTime":"","CarInfo":"","Lon":120.3847817,"Lat":23.2937185,"Turn":63,"DayValue":"一,三,五,六","RecycleDate":"三,六"},{"StopId":6460,"StopName":"吉貝耍20號(安南府前)","ScheduleTime":"19:25","EstimateTime":"","CarInfo":"","Lon":120.3842105,"Lat":23.2951376,"Turn":64,"DayValue":"一,三,五,六","RecycleDate":"三,六"},{"StopId":6461,"StopName":"吉貝耍89-1號","ScheduleTime":"19:27","EstimateTime":"","CarInfo":"","Lon":120.3819386,"Lat":23.2957681,"Turn":65,"DayValue":"一,三,五,六","RecycleDate":"三,六"},{"StopId":6462,"StopName":"吉貝耍120-1號(東河宮)","ScheduleTime":"19:29","EstimateTime":"","CarInfo":"","Lon":120.3812045,"Lat":23.2948417,"Turn":66,"DayValue":"一,三,五,六","RecycleDate":"三,六"},{"StopId":6463,"StopName":"吉貝耍137號","ScheduleTime":"19:31","EstimateTime":"","CarInfo":"","Lon":120.3810857,"Lat":23.2961623,"Turn":67,"DayValue":"一,三,五,六","RecycleDate":"三,六"},{"StopId":6464,"StopName":"吉貝耍161號","ScheduleTime":"19:33","EstimateTime":"","CarInfo":"","Lon":120.3829693,"Lat":23.2965119,"Turn":68,"DayValue":"一,三,五,六","RecycleDate":"三,六"},{"StopId":6465,"StopName":"吉貝耍36-3號(河戊商店邊)","ScheduleTime":"19:35","EstimateTime":"","CarInfo":"","Lon":120.3840521,"Lat":23.2962608,"Turn":69,"DayValue":"一,三,五,六","RecycleDate":"三,六"},{"StopId":6466,"StopName":"56-3號(吉貝耍55號對面椰子樹)","ScheduleTime":"19:37","EstimateTime":"","CarInfo":"","Lon":120.3859614,"Lat":23.2958359,"Turn":70,"DayValue":"一,三,五,六","RecycleDate":"三,六"}],"CarData":[],"RouteId":162,"RouteName":"東山2","RouteInfo":"27-6號(鴨頭)~56-3號(吉貝耍55號對面椰子樹)","IsWork":false}]