[{"StopData":[{"StopId":2932,"StopName":"永華路323號","ScheduleTime":"16:53","EstimateTime":"","CarInfo":"","Lon":120.2589017,"Lat":23.0128656,"Turn":1,"DayValue":"一,二,四,六","RecycleDate":"二,六"},{"StopId":2933,"StopName":"永華路69號","ScheduleTime":"16:48","EstimateTime":"","CarInfo":"","Lon":120.2594019,"Lat":23.007534,"Turn":2,"DayValue":"一,二,四,六","RecycleDate":"二,六"},{"StopId":2934,"StopName":"大仁街199巷22號","ScheduleTime":"16:52","EstimateTime":"","CarInfo":"","Lon":120.2574233,"Lat":23.0053251,"Turn":3,"DayValue":"一,二,四,六","RecycleDate":"二,六"},{"StopId":2935,"StopName":"大仁街107巷9號","ScheduleTime":"16:58","EstimateTime":"","CarInfo":"","Lon":120.2565838,"Lat":23.0029872,"Turn":4,"DayValue":"一,二,四,六","RecycleDate":"二,六"},{"StopId":2936,"StopName":"崑山街23號","ScheduleTime":"17:05","EstimateTime":"","CarInfo":"","Lon":120.2578327,"Lat":23.0009842,"Turn":5,"DayValue":"一,二,四,六","RecycleDate":"二,六"},{"StopId":2937,"StopName":"大仁街11巷23號","ScheduleTime":"17:13","EstimateTime":"","CarInfo":"","Lon":120.2561643,"Lat":23.0006029,"Turn":6,"DayValue":"一,二,四,六","RecycleDate":"二,六"},{"StopId":2938,"StopName":"國光一街70巷21號","ScheduleTime":"17:18","EstimateTime":"","CarInfo":"","Lon":120.2571985,"Lat":23.001841,"Turn":7,"DayValue":"一,二,四,六","RecycleDate":"二,六"},{"StopId":2939,"StopName":"崑山街96巷12號","ScheduleTime":"17:23","EstimateTime":"","CarInfo":"","Lon":120.258897,"Lat":23.002319,"Turn":8,"DayValue":"一,二,四,六","RecycleDate":"二,六"},{"StopId":2940,"StopName":"國光二街28號","ScheduleTime":"17:28","EstimateTime":"","CarInfo":"","Lon":120.2584915,"Lat":23.0019795,"Turn":9,"DayValue":"一,二,四,六","RecycleDate":"二,六"},{"StopId":2941,"StopName":"崑山街123巷17號","ScheduleTime":"17:32","EstimateTime":"","CarInfo":"","Lon":120.2580637,"Lat":23.0030691,"Turn":10,"DayValue":"一,二,四,六","RecycleDate":"二,六"},{"StopId":2942,"StopName":"國光三街48號","ScheduleTime":"17:35","EstimateTime":"","CarInfo":"","Lon":120.258537,"Lat":23.0039751,"Turn":11,"DayValue":"一,二,四,六","RecycleDate":"二,六"},{"StopId":2943,"StopName":"崑山街203巷6號","ScheduleTime":"17:41","EstimateTime":"","CarInfo":"","Lon":120.2590532,"Lat":23.0047963,"Turn":12,"DayValue":"一,二,四,六","RecycleDate":"二,六"},{"StopId":2944,"StopName":"永華路32巷40號","ScheduleTime":"17:49","EstimateTime":"","CarInfo":"","Lon":120.260452,"Lat":23.006356,"Turn":13,"DayValue":"一,二,四,六","RecycleDate":"二,六"},{"StopId":2945,"StopName":"國光六街51號","ScheduleTime":"17:53","EstimateTime":"","CarInfo":"","Lon":120.2602849,"Lat":23.0073153,"Turn":14,"DayValue":"一,二,四,六","RecycleDate":"二,六"},{"StopId":2946,"StopName":"永華路52巷18號","ScheduleTime":"17:58","EstimateTime":"","CarInfo":"","Lon":120.2601262,"Lat":23.00692,"Turn":15,"DayValue":"一,二,四,六","RecycleDate":"二,六"},{"StopId":2947,"StopName":"公園路127號","ScheduleTime":"18:02","EstimateTime":"","CarInfo":"","Lon":120.2599636,"Lat":23.0132344,"Turn":16,"DayValue":"一,二,四,六","RecycleDate":"二,六"},{"StopId":2948,"StopName":"公園路7巷10弄1號","ScheduleTime":"18:47","EstimateTime":"","CarInfo":"","Lon":120.2631638,"Lat":23.0134839,"Turn":17,"DayValue":"一,二,四,六","RecycleDate":"二,六"},{"StopId":2949,"StopName":"永華路376巷25號","ScheduleTime":"18:51","EstimateTime":"","CarInfo":"","Lon":120.2602415,"Lat":23.0124707,"Turn":18,"DayValue":"一,二,四,六","RecycleDate":"二,六"},{"StopId":2950,"StopName":"公園路93巷6弄2號","ScheduleTime":"18:54","EstimateTime":"","CarInfo":"","Lon":120.2608981,"Lat":23.0130086,"Turn":19,"DayValue":"一,二,四,六","RecycleDate":"二,六"},{"StopId":2951,"StopName":"永華路233巷23號","ScheduleTime":"18:59","EstimateTime":"","CarInfo":"","Lon":120.2584422,"Lat":23.0115105,"Turn":20,"DayValue":"一,二,四,六","RecycleDate":"二,六"},{"StopId":2952,"StopName":"國光七街58號","ScheduleTime":"19:03","EstimateTime":"","CarInfo":"","Lon":120.2600973,"Lat":23.0095562,"Turn":21,"DayValue":"一,二,四,六","RecycleDate":"二,六"},{"StopId":2953,"StopName":"國光八街41巷15號","ScheduleTime":"19:09","EstimateTime":"","CarInfo":"","Lon":120.261988,"Lat":23.0112437,"Turn":22,"DayValue":"一,二,四,六","RecycleDate":"二,六"},{"StopId":2954,"StopName":"國光七街20巷1號","ScheduleTime":"19:14","EstimateTime":"","CarInfo":"","Lon":120.2615608,"Lat":23.0096486,"Turn":23,"DayValue":"一,二,四,六","RecycleDate":"二,六"},{"StopId":2955,"StopName":"公園路7巷44弄32號","ScheduleTime":"19:19","EstimateTime":"","CarInfo":"","Lon":120.262429,"Lat":23.012526,"Turn":24,"DayValue":"一,二,四,六","RecycleDate":"二,六"},{"StopId":2956,"StopName":"大勇路62巷32號","ScheduleTime":"19:26","EstimateTime":"","CarInfo":"","Lon":120.2615259,"Lat":23.0085389,"Turn":25,"DayValue":"一,二,四,六","RecycleDate":"二,六"},{"StopId":2957,"StopName":"大勇路48巷40號","ScheduleTime":"19:31","EstimateTime":"","CarInfo":"","Lon":120.2613804,"Lat":23.0080335,"Turn":26,"DayValue":"一,二,四,六","RecycleDate":"二,六"},{"StopId":2958,"StopName":"大灣路942巷453號","ScheduleTime":"19:36","EstimateTime":"","CarInfo":"","Lon":120.2579424,"Lat":23.0082305,"Turn":27,"DayValue":"一,二,四,六","RecycleDate":"二,六"},{"StopId":2959,"StopName":"大灣路942巷388弄28號","ScheduleTime":"19:40","EstimateTime":"","CarInfo":"","Lon":120.2588377,"Lat":23.0088482,"Turn":28,"DayValue":"一,二,四,六","RecycleDate":"二,六"},{"StopId":2960,"StopName":"永華路159巷16號","ScheduleTime":"19:43","EstimateTime":"","CarInfo":"","Lon":120.2587054,"Lat":23.0094716,"Turn":29,"DayValue":"一,二,四,六","RecycleDate":"二,六"},{"StopId":2961,"StopName":"大灣路942巷500弄3號","ScheduleTime":"19:51","EstimateTime":"","CarInfo":"","Lon":120.2576236,"Lat":23.0122347,"Turn":30,"DayValue":"一,二,四,六","RecycleDate":"二,六"},{"StopId":2962,"StopName":"永華路339巷27號","ScheduleTime":"19:55","EstimateTime":"","CarInfo":"","Lon":120.2583353,"Lat":23.0133311,"Turn":31,"DayValue":"一,二,四,六","RecycleDate":"二,六"}],"CarData":[],"RouteId":67,"RouteName":"永康-夜間27","RouteInfo":"永華路323號~永華路339巷27號","IsWork":true}]