[{"StopData":[{"StopId":8320,"StopName":"外角三民西巷350巷323號","ScheduleTime":"16:30","EstimateTime":"","CarInfo":"","Lon":120.418144,"Lat":23.350637,"Turn":1,"DayValue":"一","RecycleDate":""},{"StopId":8321,"StopName":"下秀祐731巷20號","ScheduleTime":"16:44","EstimateTime":"","CarInfo":"","Lon":120.400211,"Lat":23.347493,"Turn":2,"DayValue":"一","RecycleDate":""},{"StopId":8322,"StopName":"舉人街256號","ScheduleTime":"16:55","EstimateTime":"","CarInfo":"","Lon":120.401373,"Lat":23.353934,"Turn":3,"DayValue":"一","RecycleDate":""},{"StopId":8323,"StopName":"明晃電機行中正路117號","ScheduleTime":"17:16","EstimateTime":"","CarInfo":"","Lon":120.40886,"Lat":23.348985,"Turn":4,"DayValue":"一","RecycleDate":""},{"StopId":8324,"StopName":"西勢尾159號","ScheduleTime":"17:25","EstimateTime":"","CarInfo":"","Lon":120.415789,"Lat":23.340479,"Turn":5,"DayValue":"一","RecycleDate":""},{"StopId":8325,"StopName":"保安宮20號","ScheduleTime":"17:30","EstimateTime":"","CarInfo":"","Lon":120.418675,"Lat":23.327941,"Turn":6,"DayValue":"一","RecycleDate":""},{"StopId":8326,"StopName":"土庫6鄰57號","ScheduleTime":"17:38","EstimateTime":"","CarInfo":"","Lon":120.425076,"Lat":23.325179,"Turn":7,"DayValue":"一","RecycleDate":""},{"StopId":8327,"StopName":"檨仔林保安宮20-13號","ScheduleTime":"18:00","EstimateTime":"","CarInfo":"","Lon":120.441313,"Lat":23.336533,"Turn":8,"DayValue":"一","RecycleDate":""},{"StopId":8328,"StopName":"河東顯濟宮80-18號","ScheduleTime":"18:25","EstimateTime":"","CarInfo":"","Lon":120.435718,"Lat":23.343686,"Turn":9,"DayValue":"一","RecycleDate":""},{"StopId":8329,"StopName":"檨仔坑2鄰15號","ScheduleTime":"18:33","EstimateTime":"","CarInfo":"","Lon":120.442414,"Lat":23.323784,"Turn":10,"DayValue":"一","RecycleDate":""},{"StopId":8330,"StopName":"六重溪回國小宅5鄰22號","ScheduleTime":"18:49","EstimateTime":"","CarInfo":"","Lon":120.459375,"Lat":23.309598,"Turn":11,"DayValue":"一","RecycleDate":""}],"CarData":[],"RouteId":405,"RouteName":"白河-4-1","RouteInfo":"外角三民西巷350巷323號~六重溪回國小宅5鄰22號","IsWork":false}]