[{"StopData":[{"StopId":11743,"StopName":"瓦寮魚塭(174線約12.7公里處)","ScheduleTime":"07:40","EstimateTime":"","CarInfo":"","Lon":120.215647,"Lat":23.237918,"Turn":1,"DayValue":"一,三,五","RecycleDate":"一"},{"StopId":11744,"StopName":"瓦寮魚塭(174線約13.6公里處)","ScheduleTime":"07:55","EstimateTime":"","CarInfo":"","Lon":120.222555,"Lat":23.235111,"Turn":2,"DayValue":"一,三,五","RecycleDate":"一"},{"StopId":11745,"StopName":"西平寮81號之12","ScheduleTime":"08:11","EstimateTime":"","CarInfo":"","Lon":120.206157,"Lat":23.248029,"Turn":3,"DayValue":"一,三,五","RecycleDate":"一"},{"StopId":11746,"StopName":"西平寮67號之17","ScheduleTime":"08:19","EstimateTime":"","CarInfo":"","Lon":120.227326,"Lat":23.249782,"Turn":4,"DayValue":"一,三,五","RecycleDate":"一"},{"StopId":11747,"StopName":"德安寮34之2號","ScheduleTime":"08:25","EstimateTime":"","CarInfo":"","Lon":120.190492,"Lat":23.2537987,"Turn":5,"DayValue":"一,三,五","RecycleDate":"一"},{"StopId":11748,"StopName":"德安寮65號","ScheduleTime":"08:31","EstimateTime":"","CarInfo":"","Lon":120.177966,"Lat":23.262774,"Turn":6,"DayValue":"一,三,五","RecycleDate":"一"},{"StopId":11749,"StopName":"一秀154之28號","ScheduleTime":"08:59","EstimateTime":"","CarInfo":"","Lon":120.170269,"Lat":23.255876,"Turn":7,"DayValue":"一,三,五","RecycleDate":"一"},{"StopId":11750,"StopName":"筏子頭3之12號","ScheduleTime":"09:10","EstimateTime":"","CarInfo":"","Lon":120.1635184,"Lat":23.2615947,"Turn":8,"DayValue":"一,三,五","RecycleDate":"一"},{"StopId":11751,"StopName":"筏子頭3號之16","ScheduleTime":"09:15","EstimateTime":"","CarInfo":"","Lon":120.166338,"Lat":23.262589,"Turn":9,"DayValue":"一,三,五","RecycleDate":"一"},{"StopId":11752,"StopName":"筏子頭8號之20","ScheduleTime":"09:27","EstimateTime":"","CarInfo":"","Lon":120.1671247,"Lat":23.27055,"Turn":10,"DayValue":"一,三,五","RecycleDate":"一"},{"StopId":11753,"StopName":"美和62之1號","ScheduleTime":"10:05","EstimateTime":"","CarInfo":"","Lon":120.199325,"Lat":23.222817,"Turn":11,"DayValue":"一,三,五","RecycleDate":"一"}],"CarData":[],"RouteId":298,"RouteName":"學甲-4(日間)","RouteInfo":"瓦寮魚塭(174線約12.7公里處)~美和62之1號","IsWork":false}]