[{"StopData":[{"StopId":11838,"StopName":"柳營路二段59號","ScheduleTime":"17:55","EstimateTime":"","CarInfo":"","Lon":120.312312,"Lat":23.277816,"Turn":1,"DayValue":"一","RecycleDate":"三,六"},{"StopId":11839,"StopName":"柳營路二段238號博愛幼稚園","ScheduleTime":"17:58","EstimateTime":"","CarInfo":"","Lon":120.312219,"Lat":23.282291,"Turn":2,"DayValue":"一","RecycleDate":"三,六"},{"StopId":11840,"StopName":"光福里279之1","ScheduleTime":"18:01","EstimateTime":"","CarInfo":"","Lon":120.3129383,"Lat":23.2842166,"Turn":3,"DayValue":"一","RecycleDate":"三,六"},{"StopId":11841,"StopName":"建業路101巷262號","ScheduleTime":"18:03","EstimateTime":"","CarInfo":"","Lon":120.313305,"Lat":23.282818,"Turn":4,"DayValue":"一","RecycleDate":"三,六"},{"StopId":11842,"StopName":"光福七街87之1","ScheduleTime":"18:05","EstimateTime":"","CarInfo":"","Lon":120.31298,"Lat":23.281838,"Turn":5,"DayValue":"一","RecycleDate":"三,六"},{"StopId":11843,"StopName":"十美街650號","ScheduleTime":"18:10","EstimateTime":"","CarInfo":"","Lon":120.312372,"Lat":23.27993,"Turn":6,"DayValue":"一","RecycleDate":"三,六"},{"StopId":11844,"StopName":"十美街596號","ScheduleTime":"18:13","EstimateTime":"","CarInfo":"","Lon":120.313368,"Lat":23.280454,"Turn":7,"DayValue":"一","RecycleDate":"三,六"},{"StopId":11845,"StopName":"十美街406號","ScheduleTime":"18:17","EstimateTime":"","CarInfo":"","Lon":120.3165,"Lat":23.280815,"Turn":8,"DayValue":"一","RecycleDate":"三,六"},{"StopId":11846,"StopName":"十美街209號","ScheduleTime":"18:19","EstimateTime":"","CarInfo":"","Lon":120.318569,"Lat":23.280776,"Turn":9,"DayValue":"一","RecycleDate":"三,六"},{"StopId":11847,"StopName":"東昇ㄧ街21號","ScheduleTime":"18:23","EstimateTime":"","CarInfo":"","Lon":120.320493,"Lat":23.279579,"Turn":10,"DayValue":"一","RecycleDate":"三,六"},{"StopId":11848,"StopName":"十美街537-8號","ScheduleTime":"18:27","EstimateTime":"","CarInfo":"","Lon":120.322046,"Lat":23.281015,"Turn":11,"DayValue":"一","RecycleDate":"三,六"},{"StopId":11849,"StopName":"十美街5號","ScheduleTime":"18:31","EstimateTime":"","CarInfo":"","Lon":120.322155,"Lat":23.279406,"Turn":12,"DayValue":"一","RecycleDate":"三,六"},{"StopId":11850,"StopName":"建國路62巷16號","ScheduleTime":"18:35","EstimateTime":"","CarInfo":"","Lon":120.322581,"Lat":23.277545,"Turn":13,"DayValue":"一","RecycleDate":"三,六"},{"StopId":11851,"StopName":"太康16-56號","ScheduleTime":"18:40","EstimateTime":"","CarInfo":"","Lon":120.3260398,"Lat":23.288276,"Turn":14,"DayValue":"一","RecycleDate":"三,六"},{"StopId":11852,"StopName":"太康14-36號","ScheduleTime":"18:43","EstimateTime":"","CarInfo":"","Lon":120.3262987,"Lat":23.2896318,"Turn":15,"DayValue":"一","RecycleDate":"三,六"},{"StopId":11853,"StopName":"太康里30之35號","ScheduleTime":"18:45","EstimateTime":"","CarInfo":"","Lon":120.3282462,"Lat":23.2901668,"Turn":16,"DayValue":"一","RecycleDate":"三,六"},{"StopId":11854,"StopName":"五軍營34之1","ScheduleTime":"18:48","EstimateTime":"","CarInfo":"","Lon":120.3495041,"Lat":23.2957215,"Turn":17,"DayValue":"一","RecycleDate":"三,六"},{"StopId":11855,"StopName":"五軍營1號","ScheduleTime":"18:51","EstimateTime":"","CarInfo":"","Lon":120.350913,"Lat":23.296005,"Turn":18,"DayValue":"一","RecycleDate":"三,六"},{"StopId":11856,"StopName":"五軍營20之4號","ScheduleTime":"18:55","EstimateTime":"","CarInfo":"","Lon":120.3504751,"Lat":23.296766,"Turn":19,"DayValue":"一","RecycleDate":"三,六"},{"StopId":11857,"StopName":"小腳腿173之6號","ScheduleTime":"19:04","EstimateTime":"","CarInfo":"","Lon":120.3674517,"Lat":23.2929749,"Turn":20,"DayValue":"一","RecycleDate":"三,六"},{"StopId":11858,"StopName":"小腳腿172號","ScheduleTime":"19:10","EstimateTime":"","CarInfo":"","Lon":120.3662345,"Lat":23.2925128,"Turn":21,"DayValue":"一","RecycleDate":"三,六"},{"StopId":11859,"StopName":"小腳腿137號","ScheduleTime":"19:15","EstimateTime":"","CarInfo":"","Lon":120.3658639,"Lat":23.2914031,"Turn":22,"DayValue":"一","RecycleDate":"三,六"},{"StopId":11860,"StopName":"小腳腿55之1號","ScheduleTime":"19:17","EstimateTime":"","CarInfo":"","Lon":120.366985,"Lat":23.2901466,"Turn":23,"DayValue":"一","RecycleDate":"三,六"},{"StopId":11861,"StopName":"小腳腿36之24號","ScheduleTime":"19:18","EstimateTime":"","CarInfo":"","Lon":120.3662072,"Lat":23.2893977,"Turn":24,"DayValue":"一","RecycleDate":"三,六"},{"StopId":11862,"StopName":"小腳腿2之10號","ScheduleTime":"19:20","EstimateTime":"","CarInfo":"","Lon":120.363246,"Lat":23.287683,"Turn":25,"DayValue":"一","RecycleDate":"三,六"},{"StopId":11863,"StopName":"小腳腿12之4號","ScheduleTime":"19:24","EstimateTime":"","CarInfo":"","Lon":120.3663788,"Lat":23.2875352,"Turn":26,"DayValue":"一","RecycleDate":"三,六"},{"StopId":11864,"StopName":"小腳腿12之1號","ScheduleTime":"19:26","EstimateTime":"","CarInfo":"","Lon":120.3664271,"Lat":23.2877273,"Turn":27,"DayValue":"一","RecycleDate":"三,六"},{"StopId":11865,"StopName":"義士路一段832巷125號","ScheduleTime":"19:30","EstimateTime":"","CarInfo":"","Lon":120.3679594,"Lat":23.2879128,"Turn":28,"DayValue":"一","RecycleDate":"三,六"},{"StopId":11866,"StopName":"義士路一段832巷42弄2號","ScheduleTime":"19:32","EstimateTime":"","CarInfo":"","Lon":120.367666,"Lat":23.285268,"Turn":29,"DayValue":"一","RecycleDate":"三,六"},{"StopId":11867,"StopName":"義士路一段661號","ScheduleTime":"19:34","EstimateTime":"","CarInfo":"","Lon":120.368922,"Lat":23.284526,"Turn":30,"DayValue":"一","RecycleDate":"三,六"},{"StopId":11868,"StopName":"義士路一段938號","ScheduleTime":"19:38","EstimateTime":"","CarInfo":"","Lon":120.36573,"Lat":23.285375,"Turn":31,"DayValue":"一","RecycleDate":"三,六"},{"StopId":11869,"StopName":"小腳腿5之60號","ScheduleTime":"19:40","EstimateTime":"","CarInfo":"","Lon":120.3657566,"Lat":23.2859584,"Turn":32,"DayValue":"一","RecycleDate":"三,六"},{"StopId":11870,"StopName":"義士路二段6號","ScheduleTime":"19:42","EstimateTime":"","CarInfo":"","Lon":120.3637648,"Lat":23.2856809,"Turn":33,"DayValue":"一","RecycleDate":"三,六"},{"StopId":11871,"StopName":"義士路二段136號","ScheduleTime":"19:44","EstimateTime":"","CarInfo":"","Lon":120.3620267,"Lat":23.2858977,"Turn":34,"DayValue":"一","RecycleDate":"三,六"}],"CarData":[],"RouteId":378,"RouteName":"柳營三線之一","RouteInfo":"柳營路二段59號~義士路二段136號","IsWork":false}]