[{"StopData":[{"StopId":7668,"StopName":"新吉里14-1號","ScheduleTime":"17:30","EstimateTime":"","CarInfo":"","Lon":120.219592,"Lat":23.096904,"Turn":1,"DayValue":"一,三,五,六","RecycleDate":"三,六"},{"StopId":7669,"StopName":"新吉高球場:新吉里146-2號","ScheduleTime":"17:50","EstimateTime":"","CarInfo":"","Lon":120.209807,"Lat":23.088501,"Turn":2,"DayValue":"一,三,五,六","RecycleDate":"三,六"},{"StopId":7670,"StopName":"137茶坊:新吉里60-7號","ScheduleTime":"17:52","EstimateTime":"","CarInfo":"","Lon":120.2104369,"Lat":23.0861081,"Turn":3,"DayValue":"一,三,五,六","RecycleDate":"三,六"},{"StopId":7671,"StopName":"里長宅:新吉里127號","ScheduleTime":"17:54","EstimateTime":"","CarInfo":"","Lon":120.2104101,"Lat":23.0843316,"Turn":4,"DayValue":"一,三,五,六","RecycleDate":"三,六"},{"StopId":7672,"StopName":"幸連髮型坊:新吉里135號","ScheduleTime":"17:56","EstimateTime":"","CarInfo":"","Lon":120.2106354,"Lat":23.0851507,"Turn":5,"DayValue":"一,三,五,六","RecycleDate":"三,六"},{"StopId":7673,"StopName":"合羅殿:新吉里193號","ScheduleTime":"17:58","EstimateTime":"","CarInfo":"","Lon":120.2105067,"Lat":23.0870556,"Turn":6,"DayValue":"一,三,五,六","RecycleDate":"三,六"},{"StopId":7674,"StopName":"新吉里254號","ScheduleTime":"18:00","EstimateTime":"","CarInfo":"","Lon":120.209636,"Lat":23.086291,"Turn":7,"DayValue":"一,三,五,六","RecycleDate":"三,六"},{"StopId":7675,"StopName":"新吉里49-36號","ScheduleTime":"18:02","EstimateTime":"","CarInfo":"","Lon":120.209652,"Lat":23.086006,"Turn":8,"DayValue":"一,三,五,六","RecycleDate":"三,六"},{"StopId":7676,"StopName":"新吉里59-3號","ScheduleTime":"18:05","EstimateTime":"","CarInfo":"","Lon":120.209522,"Lat":23.084619,"Turn":9,"DayValue":"一,三,五,六","RecycleDate":"三,六"},{"StopId":7677,"StopName":"昱城裝潢:新吉里56-15號","ScheduleTime":"18:07","EstimateTime":"","CarInfo":"","Lon":120.206145,"Lat":3.084266,"Turn":10,"DayValue":"一,三,五,六","RecycleDate":"三,六"},{"StopId":7678,"StopName":"大銘電器:新吉里56-5號","ScheduleTime":"18:09","EstimateTime":"","CarInfo":"","Lon":120.206033,"Lat":23.082321,"Turn":11,"DayValue":"一,三,五,六","RecycleDate":"三,六"},{"StopId":7679,"StopName":"華盛頓社區:新吉里56-87號","ScheduleTime":"18:11","EstimateTime":"","CarInfo":"","Lon":120.2044985,"Lat":23.0822095,"Turn":12,"DayValue":"一,三,五,六","RecycleDate":"三,六"},{"StopId":7680,"StopName":"公親寮(週2.4.6)新吉里4-2號","ScheduleTime":"18:17","EstimateTime":"","CarInfo":"","Lon":120.201907,"Lat":23.077954,"Turn":13,"DayValue":"一,三,五,六","RecycleDate":"三,六"},{"StopId":7681,"StopName":"羅丹小鎮社區內:新吉里51號","ScheduleTime":"18:21","EstimateTime":"","CarInfo":"","Lon":120.210081,"Lat":23.085611,"Turn":14,"DayValue":"一,三,五,六","RecycleDate":"三,六"},{"StopId":7682,"StopName":"新吉社區活動中心:新吉里99-10號","ScheduleTime":"18:25","EstimateTime":"","CarInfo":"","Lon":120.2122662,"Lat":23.0848843,"Turn":15,"DayValue":"一,三,五,六","RecycleDate":"三,六"},{"StopId":7683,"StopName":"新吉大廟後:新吉里88-3號","ScheduleTime":"18:29","EstimateTime":"","CarInfo":"","Lon":120.2123735,"Lat":23.0854764,"Turn":16,"DayValue":"一,三,五,六","RecycleDate":"三,六"},{"StopId":7684,"StopName":"榕樹公住宅:新吉里73-11號","ScheduleTime":"18:31","EstimateTime":"","CarInfo":"","Lon":120.2109573,"Lat":23.0854123,"Turn":17,"DayValue":"一,三,五,六","RecycleDate":"三,六"},{"StopId":7685,"StopName":"新吉里73-16號","ScheduleTime":"18:33","EstimateTime":"","CarInfo":"","Lon":120.2114,"Lat":23.086354,"Turn":18,"DayValue":"一,三,五,六","RecycleDate":"三,六"},{"StopId":7686,"StopName":"王老師畫室:新吉里22-18號","ScheduleTime":"18:35","EstimateTime":"","CarInfo":"","Lon":120.2142939,"Lat":23.0861377,"Turn":19,"DayValue":"一,三,五,六","RecycleDate":"三,六"},{"StopId":7687,"StopName":"大地春回社區:新吉里","ScheduleTime":"18:39","EstimateTime":"","CarInfo":"","Lon":120.214847,"Lat":23.087117,"Turn":20,"DayValue":"一,三,五,六","RecycleDate":"三,六"},{"StopId":7688,"StopName":"集合住宅:新吉里41-4號","ScheduleTime":"18:41","EstimateTime":"","CarInfo":"","Lon":120.212374,"Lat":23.086901,"Turn":21,"DayValue":"一,三,五,六","RecycleDate":"三,六"},{"StopId":7689,"StopName":"集合住宅:新吉里2-11號","ScheduleTime":"18:45","EstimateTime":"","CarInfo":"","Lon":120.211013,"Lat":23.086771,"Turn":22,"DayValue":"一,三,五,六","RecycleDate":"三,六"},{"StopId":7690,"StopName":"港口齒科:港口里244-29號","ScheduleTime":"19:05","EstimateTime":"","CarInfo":"","Lon":120.236253,"Lat":23.092296,"Turn":23,"DayValue":"一,三,五,六","RecycleDate":"三,六"},{"StopId":7691,"StopName":"中榮鐵工廠:中榮里1-3號","ScheduleTime":"19:07","EstimateTime":"","CarInfo":"","Lon":120.238628,"Lat":23.094092,"Turn":24,"DayValue":"一,三,五,六","RecycleDate":"三,六"},{"StopId":7692,"StopName":"中榮里3-1號","ScheduleTime":"19:09","EstimateTime":"","CarInfo":"","Lon":120.240277,"Lat":23.094685,"Turn":25,"DayValue":"一,三,五,六","RecycleDate":"三,六"},{"StopId":7693,"StopName":"中榮里長宅:中榮里10-10號","ScheduleTime":"19:11","EstimateTime":"","CarInfo":"","Lon":120.2406397,"Lat":23.0945773,"Turn":26,"DayValue":"一,三,五,六","RecycleDate":"三,六"},{"StopId":7694,"StopName":"永龍建設集合住宅:中榮里15-1號","ScheduleTime":"19:13","EstimateTime":"","CarInfo":"","Lon":120.241421,"Lat":23.094362,"Turn":27,"DayValue":"一,三,五,六","RecycleDate":"三,六"},{"StopId":7695,"StopName":"中榮里雜貨舖:中榮里55號","ScheduleTime":"19:15","EstimateTime":"","CarInfo":"","Lon":120.24252,"Lat":23.094575,"Turn":28,"DayValue":"一,三,五,六","RecycleDate":"三,六"},{"StopId":7696,"StopName":"集合住宅:中榮里12-41號","ScheduleTime":"19:17","EstimateTime":"","CarInfo":"","Lon":120.242786,"Lat":23.093687,"Turn":29,"DayValue":"一,三,五,六","RecycleDate":"三,六"},{"StopId":7697,"StopName":"倍幼安幼稚園:中榮里25-9號","ScheduleTime":"19:19","EstimateTime":"","CarInfo":"","Lon":120.2431116,"Lat":23.0928543,"Turn":30,"DayValue":"一,三,五,六","RecycleDate":"三,六"},{"StopId":7698,"StopName":"集合住宅:中榮里23-3號","ScheduleTime":"19:21","EstimateTime":"","CarInfo":"","Lon":120.2440664,"Lat":23.0934954,"Turn":31,"DayValue":"一,三,五,六","RecycleDate":"三,六"},{"StopId":7699,"StopName":"中榮里大廟後:中榮里27-1號","ScheduleTime":"19:23","EstimateTime":"","CarInfo":"","Lon":120.243369,"Lat":23.0945218,"Turn":32,"DayValue":"一,三,五,六","RecycleDate":"三,六"},{"StopId":7700,"StopName":"社區活動中心後:中榮里38-1號","ScheduleTime":"19:25","EstimateTime":"","CarInfo":"","Lon":120.2435192,"Lat":23.0950547,"Turn":33,"DayValue":"一,三,五,六","RecycleDate":"三,六"},{"StopId":7701,"StopName":"高第建設集合住宅:中榮里40號","ScheduleTime":"19:27","EstimateTime":"","CarInfo":"","Lon":120.24284,"Lat":23.0957822,"Turn":34,"DayValue":"一,三,五,六","RecycleDate":"三,六"},{"StopId":7702,"StopName":"利祥商店:中榮里","ScheduleTime":"19:29","EstimateTime":"","CarInfo":"","Lon":120.2419527,"Lat":23.0964494,"Turn":35,"DayValue":"一,三,五,六","RecycleDate":"三,六"},{"StopId":7703,"StopName":"中榮里35-11號","ScheduleTime":"19:31","EstimateTime":"","CarInfo":"","Lon":120.242395,"Lat":23.094986,"Turn":36,"DayValue":"一,三,五,六","RecycleDate":"三,六"},{"StopId":7704,"StopName":"中榮里38-5號","ScheduleTime":"19:33","EstimateTime":"","CarInfo":"","Lon":120.2433087,"Lat":23.095743,"Turn":37,"DayValue":"一,三,五,六","RecycleDate":"三,六"},{"StopId":7705,"StopName":"中榮外環道:中榮里77-11號","ScheduleTime":"19:35","EstimateTime":"","CarInfo":"","Lon":120.242941,"Lat":23.096562,"Turn":38,"DayValue":"一,三,五,六","RecycleDate":"三,六"},{"StopId":7706,"StopName":"中榮陸橋(週2.4.6)","ScheduleTime":"19:37","EstimateTime":"","CarInfo":"","Lon":120.248112,"Lat":23.1004354,"Turn":39,"DayValue":"一,三,五,六","RecycleDate":"三,六"},{"StopId":7707,"StopName":"渡仔頭:中榮里95-1號","ScheduleTime":"19:39","EstimateTime":"","CarInfo":"","Lon":120.2432098,"Lat":23.0985739,"Turn":40,"DayValue":"一,三,五,六","RecycleDate":"三,六"},{"StopId":7708,"StopName":"渡仔頭:中榮里82-26號","ScheduleTime":"19:41","EstimateTime":"","CarInfo":"","Lon":120.2417506,"Lat":23.0970739,"Turn":41,"DayValue":"一,三,五,六","RecycleDate":"三,六"},{"StopId":7709,"StopName":"輕鋼架:中榮里83號","ScheduleTime":"19:43","EstimateTime":"","CarInfo":"","Lon":120.2412893,"Lat":23.0961857,"Turn":42,"DayValue":"一,三,五,六","RecycleDate":"三,六"},{"StopId":7710,"StopName":"翁稼茶站:中榮里85號","ScheduleTime":"19:45","EstimateTime":"","CarInfo":"","Lon":120.2407743,"Lat":23.0958304,"Turn":43,"DayValue":"一,三,五,六","RecycleDate":"三,六"},{"StopId":7711,"StopName":"中榮里90-6號","ScheduleTime":"19:47","EstimateTime":"","CarInfo":"","Lon":120.239373,"Lat":23.094782,"Turn":44,"DayValue":"一,三,五,六","RecycleDate":"三,六"}],"CarData":[],"RouteId":107,"RouteName":"安定-3(夜間)","RouteInfo":"新吉里14-1號~中榮里90-6號","IsWork":false}]