[{"StopData":[{"StopId":13045,"StopName":"永福街12號","ScheduleTime":"17:30","EstimateTime":"","CarInfo":"","Lon":120.2959072,"Lat":23.0749117,"Turn":1,"DayValue":"一,三,五,六","RecycleDate":"一,三,五,六"},{"StopId":13046,"StopName":"永福街16巷口","ScheduleTime":"17:31","EstimateTime":"","CarInfo":"","Lon":120.2952631,"Lat":23.0750139,"Turn":2,"DayValue":"一,三,五,六","RecycleDate":"一,三,五,六"},{"StopId":13047,"StopName":"忠孝街180巷口","ScheduleTime":"17:32","EstimateTime":"","CarInfo":"","Lon":120.2946452,"Lat":23.0750889,"Turn":3,"DayValue":"一,三,五,六","RecycleDate":"一,三,五,六"},{"StopId":13048,"StopName":"忠孝街194巷口","ScheduleTime":"17:33","EstimateTime":"","CarInfo":"","Lon":120.2946775,"Lat":23.0758181,"Turn":4,"DayValue":"一,三,五,六","RecycleDate":"一,三,五,六"},{"StopId":13049,"StopName":"忠孝街218巷前","ScheduleTime":"17:36","EstimateTime":"","CarInfo":"","Lon":120.2946501,"Lat":23.0764562,"Turn":5,"DayValue":"一,三,五,六","RecycleDate":"一,三,五,六"},{"StopId":13050,"StopName":"忠孝街225號","ScheduleTime":"17:37","EstimateTime":"","CarInfo":"","Lon":120.2945712,"Lat":23.0763929,"Turn":6,"DayValue":"一,三,五,六","RecycleDate":"一,三,五,六"},{"StopId":13051,"StopName":"忠孝街203號","ScheduleTime":"17:38","EstimateTime":"","CarInfo":"","Lon":120.2945928,"Lat":23.0758839,"Turn":7,"DayValue":"一,三,五,六","RecycleDate":"一,三,五,六"},{"StopId":13052,"StopName":"忠孝街201巷2弄","ScheduleTime":"17:39","EstimateTime":"","CarInfo":"","Lon":120.2940979,"Lat":23.0757581,"Turn":8,"DayValue":"一,三,五,六","RecycleDate":"一,三,五,六"},{"StopId":13053,"StopName":"忠孝街227巷2號(王尊大樓)","ScheduleTime":"17:42","EstimateTime":"","CarInfo":"","Lon":120.2941126,"Lat":23.0763701,"Turn":9,"DayValue":"一,三,五,六","RecycleDate":"一,三,五,六"},{"StopId":13054,"StopName":"忠孝街169號","ScheduleTime":"17:43","EstimateTime":"","CarInfo":"","Lon":120.2945313,"Lat":23.0749554,"Turn":10,"DayValue":"一,三,五,六","RecycleDate":"一,三,五,六"},{"StopId":13055,"StopName":"永福街22號","ScheduleTime":"17:44","EstimateTime":"","CarInfo":"","Lon":120.2948935,"Lat":23.0743382,"Turn":11,"DayValue":"一,三,五,六","RecycleDate":"一,三,五,六"},{"StopId":13056,"StopName":"忠孝街93號","ScheduleTime":"17:45","EstimateTime":"","CarInfo":"","Lon":120.2941763,"Lat":23.0732149,"Turn":12,"DayValue":"一,三,五,六","RecycleDate":"一,三,五,六"},{"StopId":13057,"StopName":"忠孝街83號前","ScheduleTime":"17:53","EstimateTime":"","CarInfo":"","Lon":120.2941391,"Lat":23.0729985,"Turn":13,"DayValue":"一,三,五,六","RecycleDate":"一,三,五,六"},{"StopId":13058,"StopName":"忠孝街31號","ScheduleTime":"17:54","EstimateTime":"","CarInfo":"","Lon":120.294037,"Lat":23.0726166,"Turn":14,"DayValue":"一,三,五,六","RecycleDate":"一,三,五,六"},{"StopId":13059,"StopName":"忠孝街39巷","ScheduleTime":"17:55","EstimateTime":"","CarInfo":"","Lon":120.2938385,"Lat":23.0724115,"Turn":15,"DayValue":"一,三,五,六","RecycleDate":"一,三,五,六"},{"StopId":13060,"StopName":"忠孝街34號","ScheduleTime":"17:56","EstimateTime":"","CarInfo":"","Lon":120.2935336,"Lat":23.0724507,"Turn":16,"DayValue":"一,三,五,六","RecycleDate":"一,三,五,六"},{"StopId":13061,"StopName":"可口街19巷前","ScheduleTime":"17:58","EstimateTime":"","CarInfo":"","Lon":120.293219,"Lat":23.071772,"Turn":17,"DayValue":"一,三,五,六","RecycleDate":"一,三,五,六"},{"StopId":13062,"StopName":"仁愛街124號","ScheduleTime":"17:59","EstimateTime":"","CarInfo":"","Lon":120.2929685,"Lat":23.0730576,"Turn":18,"DayValue":"一,三,五,六","RecycleDate":"一,三,五,六"},{"StopId":13063,"StopName":"仁愛街152巷","ScheduleTime":"18:00","EstimateTime":"","CarInfo":"","Lon":120.2931676,"Lat":23.0735659,"Turn":19,"DayValue":"一,三,五,六","RecycleDate":"一,三,五,六"},{"StopId":13064,"StopName":"可口街70號","ScheduleTime":"18:01","EstimateTime":"","CarInfo":"","Lon":120.2935139,"Lat":23.073021,"Turn":20,"DayValue":"一,三,五,六","RecycleDate":"一,三,五,六"},{"StopId":13065,"StopName":"中正路92巷10號(七美仙境)","ScheduleTime":"18:05","EstimateTime":"","CarInfo":"","Lon":120.2925194,"Lat":23.0726268,"Turn":21,"DayValue":"一,三,五,六","RecycleDate":"一,三,五,六"},{"StopId":13066,"StopName":"中正路92巷5號","ScheduleTime":"18:06","EstimateTime":"","CarInfo":"","Lon":120.2919094,"Lat":23.0726092,"Turn":22,"DayValue":"一,三,五,六","RecycleDate":"一,三,五,六"},{"StopId":13067,"StopName":"中正路37號","ScheduleTime":"18:07","EstimateTime":"","CarInfo":"","Lon":120.2921614,"Lat":23.0709309,"Turn":23,"DayValue":"一,三,五,六","RecycleDate":"一,三,五,六"},{"StopId":13068,"StopName":"中正路50號","ScheduleTime":"18:08","EstimateTime":"","CarInfo":"","Lon":120.2920296,"Lat":23.0714093,"Turn":24,"DayValue":"一,三,五,六","RecycleDate":"一,三,五,六"},{"StopId":13069,"StopName":"中正路88號前","ScheduleTime":"18:11","EstimateTime":"","CarInfo":"","Lon":120.2918525,"Lat":23.0719885,"Turn":25,"DayValue":"一,三,五,六","RecycleDate":"一,三,五,六"},{"StopId":13070,"StopName":"仁愛街59號","ScheduleTime":"18:12","EstimateTime":"","CarInfo":"","Lon":120.2925337,"Lat":23.071534,"Turn":26,"DayValue":"一,三,五,六","RecycleDate":"一,三,五,六"},{"StopId":13071,"StopName":"仁愛街100號","ScheduleTime":"18:13","EstimateTime":"","CarInfo":"","Lon":120.2927312,"Lat":23.0719639,"Turn":27,"DayValue":"一,三,五,六","RecycleDate":"一,三,五,六"},{"StopId":13072,"StopName":"仁愛街154號","ScheduleTime":"18:14","EstimateTime":"","CarInfo":"","Lon":120.293147,"Lat":23.073662,"Turn":28,"DayValue":"一,三,五,六","RecycleDate":"一,三,五,六"},{"StopId":13073,"StopName":"永福街90巷前","ScheduleTime":"18:23","EstimateTime":"","CarInfo":"","Lon":120.2928155,"Lat":23.0746514,"Turn":29,"DayValue":"一,三,五,六","RecycleDate":"一,三,五,六"},{"StopId":13074,"StopName":"成功街41號","ScheduleTime":"18:24","EstimateTime":"","CarInfo":"","Lon":120.2920609,"Lat":23.0745139,"Turn":30,"DayValue":"一,三,五,六","RecycleDate":"一,三,五,六"},{"StopId":13075,"StopName":"成功街與銘傳街口","ScheduleTime":"18:25","EstimateTime":"","CarInfo":"","Lon":120.2919791,"Lat":23.0741197,"Turn":31,"DayValue":"一,三,五,六","RecycleDate":"一,三,五,六"},{"StopId":13076,"StopName":"成功街2巷口","ScheduleTime":"18:28","EstimateTime":"","CarInfo":"","Lon":120.291941,"Lat":23.073262,"Turn":32,"DayValue":"一,三,五,六","RecycleDate":"一,三,五,六"},{"StopId":13077,"StopName":"中正路138號","ScheduleTime":"18:30","EstimateTime":"","CarInfo":"","Lon":120.2913796,"Lat":23.0739327,"Turn":33,"DayValue":"一,三,五,六","RecycleDate":"一,三,五,六"},{"StopId":13078,"StopName":"銘傳街25號","ScheduleTime":"18:32","EstimateTime":"","CarInfo":"","Lon":120.2923693,"Lat":23.0740337,"Turn":34,"DayValue":"一,三,五,六","RecycleDate":"一,三,五,六"},{"StopId":13079,"StopName":"仁愛街214號","ScheduleTime":"18:34","EstimateTime":"","CarInfo":"","Lon":120.2934621,"Lat":23.075198,"Turn":35,"DayValue":"一,三,五,六","RecycleDate":"一,三,五,六"},{"StopId":13080,"StopName":"仁愛街205巷44號","ScheduleTime":"18:35","EstimateTime":"","CarInfo":"","Lon":120.292278,"Lat":23.075484,"Turn":36,"DayValue":"一,三,五,六","RecycleDate":"一,三,五,六"},{"StopId":13081,"StopName":"仁愛街268號","ScheduleTime":"18:40","EstimateTime":"","CarInfo":"","Lon":120.2935466,"Lat":23.0758809,"Turn":37,"DayValue":"一,三,五,六","RecycleDate":"一,三,五,六"},{"StopId":13082,"StopName":"仁愛街296號","ScheduleTime":"18:41","EstimateTime":"","CarInfo":"","Lon":120.2938069,"Lat":23.0768788,"Turn":38,"DayValue":"一,三,五,六","RecycleDate":"一,三,五,六"},{"StopId":13083,"StopName":"華興街37-1號","ScheduleTime":"18:42","EstimateTime":"","CarInfo":"","Lon":120.2945001,"Lat":23.0770183,"Turn":39,"DayValue":"一,三,五,六","RecycleDate":"一,三,五,六"},{"StopId":13084,"StopName":"華興街13號","ScheduleTime":"18:43","EstimateTime":"","CarInfo":"","Lon":120.2952398,"Lat":23.0771201,"Turn":40,"DayValue":"一,三,五,六","RecycleDate":"一,三,五,六"},{"StopId":13085,"StopName":"光華街129號","ScheduleTime":"18:45","EstimateTime":"","CarInfo":"","Lon":120.2957767,"Lat":23.0766061,"Turn":41,"DayValue":"一,三,五,六","RecycleDate":"一,三,五,六"},{"StopId":13086,"StopName":"光華街105-7號","ScheduleTime":"18:50","EstimateTime":"","CarInfo":"","Lon":120.2959228,"Lat":23.0760537,"Turn":42,"DayValue":"一,三,五,六","RecycleDate":"一,三,五,六"},{"StopId":13087,"StopName":"光華街91號前(第一車次)","ScheduleTime":"18:55","EstimateTime":"","CarInfo":"","Lon":120.2960465,"Lat":23.0756551,"Turn":43,"DayValue":"一,三,五,六","RecycleDate":"一,三,五,六"},{"StopId":13088,"StopName":"光華街170-1號前","ScheduleTime":"19:40","EstimateTime":"","CarInfo":"","Lon":120.2959029,"Lat":23.0764999,"Turn":44,"DayValue":"一,三,五,六","RecycleDate":"一,三,五,六"},{"StopId":13089,"StopName":"光華街183巷口","ScheduleTime":"19:45","EstimateTime":"","CarInfo":"","Lon":120.295774,"Lat":23.076708,"Turn":45,"DayValue":"一,三,五,六","RecycleDate":"一,三,五,六"},{"StopId":13090,"StopName":"華興街30號","ScheduleTime":"19:52","EstimateTime":"","CarInfo":"","Lon":120.2947565,"Lat":23.0771686,"Turn":46,"DayValue":"一,三,五,六","RecycleDate":"一,三,五,六"},{"StopId":13091,"StopName":"華興街62號-1","ScheduleTime":"19:53","EstimateTime":"","CarInfo":"","Lon":120.2940435,"Lat":23.0770394,"Turn":47,"DayValue":"一,三,五,六","RecycleDate":"一,三,五,六"},{"StopId":13092,"StopName":"華興街67號(清保宮)","ScheduleTime":"19:54","EstimateTime":"","CarInfo":"","Lon":120.2934468,"Lat":23.0769639,"Turn":48,"DayValue":"一,三,五,六","RecycleDate":"一,三,五,六"},{"StopId":13093,"StopName":"華興街109號","ScheduleTime":"19:55","EstimateTime":"","CarInfo":"","Lon":120.2926005,"Lat":23.0767783,"Turn":49,"DayValue":"一,三,五,六","RecycleDate":"一,三,五,六"},{"StopId":13094,"StopName":"華興街61號","ScheduleTime":"19:58","EstimateTime":"","CarInfo":"","Lon":120.2936081,"Lat":23.0769804,"Turn":50,"DayValue":"一,三,五,六","RecycleDate":"一,三,五,六"},{"StopId":13095,"StopName":"仁愛街306-1號前","ScheduleTime":"20:00","EstimateTime":"","CarInfo":"","Lon":120.2938511,"Lat":23.0771508,"Turn":51,"DayValue":"一,三,五,六","RecycleDate":"一,三,五,六"},{"StopId":13096,"StopName":"仁愛街336號","ScheduleTime":"20:01","EstimateTime":"","CarInfo":"","Lon":120.2939924,"Lat":23.0778289,"Turn":52,"DayValue":"一,三,五,六","RecycleDate":"一,三,五,六"},{"StopId":13097,"StopName":"中興街53號","ScheduleTime":"20:03","EstimateTime":"","CarInfo":"","Lon":120.294118,"Lat":23.078194,"Turn":53,"DayValue":"一,三,五,六","RecycleDate":"一,三,五,六"},{"StopId":13098,"StopName":"中興街10號公所前","ScheduleTime":"20:07","EstimateTime":"","CarInfo":"","Lon":120.295359,"Lat":23.078984,"Turn":54,"DayValue":"一,三,五,六","RecycleDate":"一,三,五,六"},{"StopId":13099,"StopName":"中興街80號","ScheduleTime":"20:09","EstimateTime":"","CarInfo":"","Lon":120.29343,"Lat":23.078099,"Turn":55,"DayValue":"一,三,五,六","RecycleDate":"一,三,五,六"},{"StopId":13100,"StopName":"中興街91號","ScheduleTime":"20:14","EstimateTime":"","CarInfo":"","Lon":120.293282,"Lat":23.078044,"Turn":56,"DayValue":"一,三,五,六","RecycleDate":"一,三,五,六"},{"StopId":13101,"StopName":"仁愛街217號(郵局前)","ScheduleTime":"20:19","EstimateTime":"","CarInfo":"","Lon":120.2934319,"Lat":23.0753691,"Turn":57,"DayValue":"一,三,五,六","RecycleDate":"一,三,五,六"},{"StopId":13102,"StopName":"仁愛街77號","ScheduleTime":"20:20","EstimateTime":"","CarInfo":"","Lon":120.292632,"Lat":23.07194,"Turn":58,"DayValue":"一,三,五,六","RecycleDate":"一,三,五,六"},{"StopId":13103,"StopName":"中正路102號","ScheduleTime":"20:24","EstimateTime":"","CarInfo":"","Lon":120.291631,"Lat":23.072776,"Turn":59,"DayValue":"一,三,五,六","RecycleDate":"一,三,五,六"},{"StopId":13104,"StopName":"中正路236號","ScheduleTime":"20:29","EstimateTime":"","CarInfo":"","Lon":120.291793,"Lat":23.076419,"Turn":60,"DayValue":"一,三,五,六","RecycleDate":"一,三,五,六"},{"StopId":13105,"StopName":"中正路286巷","ScheduleTime":"20:31","EstimateTime":"","CarInfo":"","Lon":120.2914281,"Lat":23.0732015,"Turn":61,"DayValue":"一,三,五,六","RecycleDate":"一,三,五,六"},{"StopId":13106,"StopName":"中正路290-1號","ScheduleTime":"20:34","EstimateTime":"","CarInfo":"","Lon":120.29299,"Lat":23.079115,"Turn":62,"DayValue":"一,三,五,六","RecycleDate":"一,三,五,六"},{"StopId":13107,"StopName":"中正路408號","ScheduleTime":"20:38","EstimateTime":"","CarInfo":"","Lon":120.295072,"Lat":23.079795,"Turn":63,"DayValue":"一,三,五,六","RecycleDate":"一,三,五,六"},{"StopId":13108,"StopName":"中正路281號","ScheduleTime":"20:40","EstimateTime":"","CarInfo":"","Lon":120.2926974,"Lat":23.079026,"Turn":64,"DayValue":"一,三,五,六","RecycleDate":"一,三,五,六"},{"StopId":13109,"StopName":"中正路237-1號","ScheduleTime":"20:44","EstimateTime":"","CarInfo":"","Lon":120.29185,"Lat":23.078178,"Turn":65,"DayValue":"一,三,五,六","RecycleDate":"一,三,五,六"},{"StopId":13110,"StopName":"中正路119號","ScheduleTime":"20:48","EstimateTime":"","CarInfo":"","Lon":120.291308,"Lat":23.074328,"Turn":66,"DayValue":"一,三,五,六","RecycleDate":"一,三,五,六"},{"StopId":13111,"StopName":"富強路6-7號(終點)","ScheduleTime":"20:50","EstimateTime":"","CarInfo":"","Lon":120.290808,"Lat":23.072334,"Turn":67,"DayValue":"一,三,五,六","RecycleDate":"一,三,五,六"}],"CarData":[],"RouteId":269,"RouteName":"新市-4","RouteInfo":"永福街12號~富強路6-7號(終點)","IsWork":false}]