[{"StopData":[{"StopId":2478,"StopName":"鹽行路6號(三村國小)","ScheduleTime":"06:30","EstimateTime":"","CarInfo":"","Lon":120.236379,"Lat":23.0419265,"Turn":1,"DayValue":"一,二,四,五,六","RecycleDate":""},{"StopId":2479,"StopName":"中正北路19巷1號(駿達天下)","ScheduleTime":"06:51","EstimateTime":"","CarInfo":"","Lon":120.2381763,"Lat":23.0418842,"Turn":2,"DayValue":"一,二,四,五,六","RecycleDate":""},{"StopId":2480,"StopName":"中正路870號(和美家專一期)","ScheduleTime":"06:55","EstimateTime":"","CarInfo":"","Lon":120.239814,"Lat":23.038997,"Turn":3,"DayValue":"一,二,四,五,六","RecycleDate":""},{"StopId":2481,"StopName":"中華路912巷47號(南台吉第)","ScheduleTime":"07:20","EstimateTime":"","CarInfo":"","Lon":120.2248199,"Lat":23.020345,"Turn":4,"DayValue":"一,二,四,五,六","RecycleDate":""},{"StopId":2482,"StopName":"中華路916之1號(尚頂里活動中心後面)","ScheduleTime":"07:25","EstimateTime":"","CarInfo":"","Lon":120.224192,"Lat":23.019784,"Turn":5,"DayValue":"一,二,四,五,六","RecycleDate":""},{"StopId":2483,"StopName":"南台街135巷1弄1號(飛雁新村)","ScheduleTime":"07:38","EstimateTime":"","CarInfo":"","Lon":120.2210802,"Lat":23.0215147,"Turn":6,"DayValue":"一,二,四,五,六","RecycleDate":""},{"StopId":2484,"StopName":"中正南路52巷70號(甲頂里籃球場)","ScheduleTime":"07:43","EstimateTime":"","CarInfo":"","Lon":120.2198663,"Lat":23.0208751,"Turn":7,"DayValue":"一,二,四,五,六","RecycleDate":""},{"StopId":2485,"StopName":"大武街70號(東方荷蘭)","ScheduleTime":"07:58","EstimateTime":"","CarInfo":"","Lon":120.223318,"Lat":23.020936,"Turn":8,"DayValue":"一,二,四,五,六","RecycleDate":""},{"StopId":2486,"StopName":"中華路986號(台新銀行後面)","ScheduleTime":"08:04","EstimateTime":"","CarInfo":"","Lon":120.2221762,"Lat":23.021246,"Turn":9,"DayValue":"一,二,四,五,六","RecycleDate":""},{"StopId":2487,"StopName":"南台街13巷37號(泰國大樓)","ScheduleTime":"08:12","EstimateTime":"","CarInfo":"","Lon":120.22298,"Lat":23.021113,"Turn":10,"DayValue":"一,二,四,五,六","RecycleDate":""},{"StopId":2488,"StopName":"南台街89巷13號(中華新世紀)","ScheduleTime":"08:16","EstimateTime":"","CarInfo":"","Lon":120.2213811,"Lat":23.0221353,"Turn":11,"DayValue":"一,二,四,五,六","RecycleDate":""},{"StopId":2489,"StopName":"南台街170號(柏克萊大廈)","ScheduleTime":"08:19","EstimateTime":"","CarInfo":"","Lon":120.219814,"Lat":23.022988,"Turn":12,"DayValue":"一,二,四,五,六","RecycleDate":""},{"StopId":2490,"StopName":"正南五街289巷51之1號(家專大學城)","ScheduleTime":"08:29","EstimateTime":"","CarInfo":"","Lon":120.2368442,"Lat":23.0352402,"Turn":13,"DayValue":"一,二,四,五,六","RecycleDate":""},{"StopId":2491,"StopName":"中正北路175號(家專組曲)","ScheduleTime":"08:34","EstimateTime":"","CarInfo":"","Lon":120.2430428,"Lat":23.0417919,"Turn":14,"DayValue":"一,二,四,五,六","RecycleDate":""},{"StopId":2492,"StopName":"中正北路54號(鳳翔金世界)","ScheduleTime":"08:37","EstimateTime":"","CarInfo":"","Lon":120.2390214,"Lat":23.0411641,"Turn":15,"DayValue":"一,二,四,五,六","RecycleDate":""},{"StopId":2493,"StopName":"中正七街25巷2號(泊采會館)","ScheduleTime":"08:40","EstimateTime":"","CarInfo":"","Lon":120.23986,"Lat":23.040132,"Turn":16,"DayValue":"一,二,四,五,六","RecycleDate":""},{"StopId":2494,"StopName":"中正七街23號(麗晶雅舍)","ScheduleTime":"08:43","EstimateTime":"","CarInfo":"","Lon":120.239855,"Lat":23.039844,"Turn":17,"DayValue":"一,二,四,五,六","RecycleDate":""},{"StopId":2495,"StopName":"中正七街21號(和美家專2期)","ScheduleTime":"08:45","EstimateTime":"","CarInfo":"","Lon":120.2397433,"Lat":23.0397866,"Turn":18,"DayValue":"一,二,四,五,六","RecycleDate":""},{"StopId":2496,"StopName":"監行路146巷20弄7號(凱稅新世界)","ScheduleTime":"08:47","EstimateTime":"","CarInfo":"","Lon":120.2329413,"Lat":23.0436122,"Turn":19,"DayValue":"一,二,四,五,六","RecycleDate":""},{"StopId":2497,"StopName":"鹽洲二街160巷3號(蝶戀大樓)","ScheduleTime":"08:51","EstimateTime":"","CarInfo":"","Lon":120.235535,"Lat":23.0437444,"Turn":20,"DayValue":"一,二,四,五,六","RecycleDate":""},{"StopId":2498,"StopName":"三村一街23號(任全企業)","ScheduleTime":"08:55","EstimateTime":"","CarInfo":"","Lon":120.2414629,"Lat":23.0430907,"Turn":21,"DayValue":"一,二,四,五,六","RecycleDate":""},{"StopId":2499,"StopName":"永安路105巷42號","ScheduleTime":"08:59","EstimateTime":"","CarInfo":"","Lon":120.244854,"Lat":23.043429,"Turn":22,"DayValue":"一,二,四,五,六","RecycleDate":""},{"StopId":2500,"StopName":"永安路165巷155號(統一學苑)","ScheduleTime":"09:07","EstimateTime":"","CarInfo":"","Lon":120.242797,"Lat":23.044795,"Turn":23,"DayValue":"一,二,四,五,六","RecycleDate":""},{"StopId":2501,"StopName":"永安一街86號(科學苑)","ScheduleTime":"09:12","EstimateTime":"","CarInfo":"","Lon":120.2435511,"Lat":23.0443344,"Turn":24,"DayValue":"一,二,四,五,六","RecycleDate":""},{"StopId":2502,"StopName":"新行街291巷15號(統一職棒)","ScheduleTime":"09:16","EstimateTime":"","CarInfo":"","Lon":120.242119,"Lat":23.045259,"Turn":25,"DayValue":"一,二,四,五,六","RecycleDate":""},{"StopId":2503,"StopName":"新行街125號","ScheduleTime":"09:19","EstimateTime":"","CarInfo":"","Lon":120.2420638,"Lat":23.0409994,"Turn":26,"DayValue":"一,二,四,五,六","RecycleDate":""},{"StopId":2504,"StopName":"新行街98巷13弄1-1號(家專天地銀區)","ScheduleTime":"09:23","EstimateTime":"","CarInfo":"","Lon":120.242068,"Lat":23.0407388,"Turn":27,"DayValue":"一,二,四,五,六","RecycleDate":""},{"StopId":2505,"StopName":"新行街98巷14弄12號(家專天地金區)","ScheduleTime":"09:26","EstimateTime":"","CarInfo":"","Lon":120.2419878,"Lat":23.0401384,"Turn":28,"DayValue":"一,二,四,五,六","RecycleDate":""},{"StopId":2506,"StopName":"中山南路195號32號","ScheduleTime":"10:23","EstimateTime":"","CarInfo":"","Lon":120.233508,"Lat":23.017176,"Turn":29,"DayValue":"一,二,四,五,六","RecycleDate":""},{"StopId":2507,"StopName":"中華路349號(中華大道)","ScheduleTime":"10:35","EstimateTime":"","CarInfo":"","Lon":120.2338543,"Lat":23.0083617,"Turn":30,"DayValue":"一,二,四,五,六","RecycleDate":""},{"StopId":2508,"StopName":"中山南路490巷2弄6號(歐香大地)","ScheduleTime":"10:43","EstimateTime":"","CarInfo":"","Lon":120.239628,"Lat":23.017319,"Turn":31,"DayValue":"一,二,四,五,六","RecycleDate":""},{"StopId":2509,"StopName":"永二街411號(維冠龍殿)","ScheduleTime":"10:52","EstimateTime":"","CarInfo":"","Lon":120.2468936,"Lat":23.0196533,"Turn":32,"DayValue":"一,二,四,五,六","RecycleDate":""},{"StopId":2510,"StopName":"二王路10號(永康綠地)","ScheduleTime":"11:02","EstimateTime":"","CarInfo":"","Lon":120.24874,"Lat":23.0213587,"Turn":33,"DayValue":"一,二,四,五,六","RecycleDate":""},{"StopId":2511,"StopName":"中正路55巷2號(啟順名夏)","ScheduleTime":"11:08","EstimateTime":"","CarInfo":"","Lon":120.254429,"Lat":23.029776,"Turn":34,"DayValue":"一,二,四,五,六","RecycleDate":""},{"StopId":2512,"StopName":"四維街51巷5號(羅丹天地)","ScheduleTime":"11:11","EstimateTime":"","CarInfo":"","Lon":120.2526544,"Lat":23.0323338,"Turn":35,"DayValue":"一,二,四,五,六","RecycleDate":""},{"StopId":2513,"StopName":"正強路290號(歐洲世界6期)","ScheduleTime":"11:17","EstimateTime":"","CarInfo":"","Lon":120.2515186,"Lat":23.0311421,"Turn":36,"DayValue":"一,二,四,五,六","RecycleDate":""},{"StopId":2514,"StopName":"中正路256巷1號(歐洲世界5期)","ScheduleTime":"11:20","EstimateTime":"","CarInfo":"","Lon":120.2513052,"Lat":23.0315923,"Turn":37,"DayValue":"一,二,四,五,六","RecycleDate":""},{"StopId":2515,"StopName":"龍埔街85號(新天地)","ScheduleTime":"11:30","EstimateTime":"","CarInfo":"","Lon":120.2643483,"Lat":23.0335151,"Turn":38,"DayValue":"一,二,四,五,六","RecycleDate":""},{"StopId":2516,"StopName":"龍埔街137號(永康分局)","ScheduleTime":"11:35","EstimateTime":"","CarInfo":"","Lon":120.2638353,"Lat":23.0338957,"Turn":39,"DayValue":"一,二,四,五,六","RecycleDate":""},{"StopId":2517,"StopName":"永大路3段360巷30弄8號(統偉建設)","ScheduleTime":"11:39","EstimateTime":"","CarInfo":"","Lon":120.2601516,"Lat":23.0335633,"Turn":40,"DayValue":"一,二,四,五,六","RecycleDate":""},{"StopId":2518,"StopName":"八德街55巷17號","ScheduleTime":"11:42","EstimateTime":"","CarInfo":"","Lon":120.2608055,"Lat":23.0361839,"Turn":41,"DayValue":"一,二,四,五,六","RecycleDate":""},{"StopId":2519,"StopName":"竹園一街51號(雅太晶華一期)","ScheduleTime":"11:50","EstimateTime":"","CarInfo":"","Lon":120.2623601,"Lat":23.0404126,"Turn":42,"DayValue":"一,二,四,五,六","RecycleDate":""},{"StopId":2520,"StopName":"竹園一街41號(雅太晶華二期)","ScheduleTime":"11:55","EstimateTime":"","CarInfo":"","Lon":120.2627375,"Lat":23.0405362,"Turn":43,"DayValue":"一,二,四,五,六","RecycleDate":""},{"StopId":2521,"StopName":"龍橋街296巷1號(龍橋會館)","ScheduleTime":"12:00","EstimateTime":"","CarInfo":"","Lon":120.2636777,"Lat":23.0407362,"Turn":44,"DayValue":"一,二,四,五,六","RecycleDate":""},{"StopId":2522,"StopName":"龍安街290號(龍傳人)","ScheduleTime":"12:06","EstimateTime":"","CarInfo":"","Lon":120.266112,"Lat":23.037191,"Turn":45,"DayValue":"一,二,四,五,六","RecycleDate":""},{"StopId":2523,"StopName":"龍安街249號(東澳大樓)","ScheduleTime":"12:11","EstimateTime":"","CarInfo":"","Lon":120.265915,"Lat":23.037268,"Turn":46,"DayValue":"一,二,四,五,六","RecycleDate":""}],"CarData":[],"RouteId":48,"RouteName":"永康-日間2","RouteInfo":"鹽行路6號(三村國小)~龍安街249號(東澳大樓)","IsWork":true}]