[{"StopData":[{"StopId":7699,"StopName":"裕敬路5號","ScheduleTime":"15:43","EstimateTime":"","CarInfo":"","Lon":120.2422449,"Lat":22.9798694,"Turn":1,"DayValue":"一,二,四,六","RecycleDate":"二,六"},{"StopId":7700,"StopName":"裕忠路307號","ScheduleTime":"15:46","EstimateTime":"","CarInfo":"","Lon":120.241895,"Lat":22.980408,"Turn":2,"DayValue":"一,二,四,六","RecycleDate":"二,六"},{"StopId":7701,"StopName":"裕忠路與裕忠一街口","ScheduleTime":"15:49","EstimateTime":"","CarInfo":"","Lon":120.241818,"Lat":22.981231,"Turn":3,"DayValue":"一,二,四,六","RecycleDate":"二,六"},{"StopId":7702,"StopName":"裕文路132號","ScheduleTime":"15:52","EstimateTime":"","CarInfo":"","Lon":120.243066,"Lat":22.982385,"Turn":4,"DayValue":"一,二,四,六","RecycleDate":"二,六"},{"StopId":7703,"StopName":"裕文路168號","ScheduleTime":"15:55","EstimateTime":"","CarInfo":"","Lon":120.2439518,"Lat":22.9822205,"Turn":5,"DayValue":"一,二,四,六","RecycleDate":"二,六"},{"StopId":7704,"StopName":"裕孝路與裕文路口","ScheduleTime":"15:57","EstimateTime":"","CarInfo":"","Lon":120.2435279,"Lat":22.9823483,"Turn":6,"DayValue":"一,二,四,六","RecycleDate":"二,六"},{"StopId":7705,"StopName":"裕孝路258號","ScheduleTime":"16:01","EstimateTime":"","CarInfo":"","Lon":120.2434669,"Lat":22.9843165,"Turn":7,"DayValue":"一,二,四,六","RecycleDate":"二,六"},{"StopId":7706,"StopName":"裕孝路與裕忠一街口","ScheduleTime":"16:03","EstimateTime":"","CarInfo":"","Lon":120.2435037,"Lat":22.9812282,"Turn":8,"DayValue":"一,二,四,六","RecycleDate":"二,六"},{"StopId":7707,"StopName":"裕孝路423號前","ScheduleTime":"16:06","EstimateTime":"","CarInfo":"","Lon":120.2434408,"Lat":22.9801481,"Turn":9,"DayValue":"一,二,四,六","RecycleDate":"二,六"},{"StopId":7708,"StopName":"裕孝路960號","ScheduleTime":"16:09","EstimateTime":"","CarInfo":"","Lon":120.2434618,"Lat":22.9774986,"Turn":10,"DayValue":"一,二,四,六","RecycleDate":"二,六"},{"StopId":7709,"StopName":"裕孝路與裕孝三街口","ScheduleTime":"16:11","EstimateTime":"","CarInfo":"","Lon":120.2435235,"Lat":22.9781608,"Turn":11,"DayValue":"一,二,四,六","RecycleDate":"二,六"},{"StopId":7710,"StopName":"裕孝三街與裕敬一街口","ScheduleTime":"16:13","EstimateTime":"","CarInfo":"","Lon":120.244529,"Lat":22.978231,"Turn":12,"DayValue":"一,二,四,六","RecycleDate":"二,六"},{"StopId":7711,"StopName":"裕孝三街57-3號前","ScheduleTime":"16:15","EstimateTime":"","CarInfo":"","Lon":120.2456783,"Lat":22.9782252,"Turn":13,"DayValue":"一,二,四,六","RecycleDate":"二,六"},{"StopId":7712,"StopName":"裕信三街113號","ScheduleTime":"16:20","EstimateTime":"","CarInfo":"","Lon":120.247425,"Lat":22.980637,"Turn":14,"DayValue":"一,二,四,六","RecycleDate":"二,六"},{"StopId":7713,"StopName":"裕信三街與裕敬三街口","ScheduleTime":"16:23","EstimateTime":"","CarInfo":"","Lon":120.246781,"Lat":22.981819,"Turn":15,"DayValue":"一,二,四,六","RecycleDate":"二,六"},{"StopId":7714,"StopName":"裕文一街與裕文路口","ScheduleTime":"16:26","EstimateTime":"","CarInfo":"","Lon":120.246414,"Lat":22.98229,"Turn":16,"DayValue":"一,二,四,六","RecycleDate":"二,六"},{"StopId":7715,"StopName":"裕文一街與裕正街口","ScheduleTime":"16:27","EstimateTime":"","CarInfo":"","Lon":120.246396,"Lat":22.983327,"Turn":17,"DayValue":"一,二,四,六","RecycleDate":"二,六"},{"StopId":7716,"StopName":"裕文一街與裕信二街口","ScheduleTime":"16:29","EstimateTime":"","CarInfo":"","Lon":120.24639,"Lat":22.984378,"Turn":18,"DayValue":"一,二,四,六","RecycleDate":"二,六"},{"StopId":7717,"StopName":"裕文一街與裕平路口","ScheduleTime":"16:31","EstimateTime":"","CarInfo":"","Lon":120.246362,"Lat":22.984962,"Turn":19,"DayValue":"一,二,四,六","RecycleDate":"二,六"},{"StopId":7718,"StopName":"裕文一街163號前（成大建設）","ScheduleTime":"16:33","EstimateTime":"","CarInfo":"","Lon":120.2463711,"Lat":22.9866873,"Turn":20,"DayValue":"一,二,四,六","RecycleDate":"二,六"},{"StopId":7719,"StopName":"裕和五街197號聖汝宮前","ScheduleTime":"16:35","EstimateTime":"","CarInfo":"","Lon":120.247211,"Lat":22.985632,"Turn":21,"DayValue":"一,二,四,六","RecycleDate":"二,六"},{"StopId":7720,"StopName":"裕善街8號前","ScheduleTime":"16:40","EstimateTime":"","CarInfo":"","Lon":120.246155,"Lat":22.987274,"Turn":22,"DayValue":"一,二,四,六","RecycleDate":"二,六"},{"StopId":7721,"StopName":"裕善街68號前","ScheduleTime":"16:43","EstimateTime":"","CarInfo":"","Lon":120.246832,"Lat":22.987177,"Turn":23,"DayValue":"一,二,四,六","RecycleDate":"二,六"},{"StopId":7722,"StopName":"裕義路66號(二、六)收運","ScheduleTime":"16:46","EstimateTime":"","CarInfo":"","Lon":120.247721,"Lat":22.989741,"Turn":24,"DayValue":"一,二,四,六","RecycleDate":"二,六"},{"StopId":7723,"StopName":"裕和五街43號旁","ScheduleTime":"16:48","EstimateTime":"","CarInfo":"","Lon":120.247142,"Lat":22.989438,"Turn":25,"DayValue":"一,二,四,六","RecycleDate":"二,六"},{"StopId":7724,"StopName":"裕誠街360號圓通寺旁","ScheduleTime":"16:50","EstimateTime":"","CarInfo":"","Lon":120.2465627,"Lat":22.9897848,"Turn":26,"DayValue":"一,二,四,六","RecycleDate":"二,六"},{"StopId":7725,"StopName":"裕信一街43號","ScheduleTime":"16:52","EstimateTime":"","CarInfo":"","Lon":120.245965,"Lat":22.989255,"Turn":27,"DayValue":"一,二,四,六","RecycleDate":"二,六"},{"StopId":7726,"StopName":"裕和路302號","ScheduleTime":"16:57","EstimateTime":"","CarInfo":"","Lon":120.2446427,"Lat":22.987749,"Turn":28,"DayValue":"一,二,四,六","RecycleDate":"二,六"},{"StopId":7727,"StopName":"裕信路218號(統一神曲)","ScheduleTime":"17:00","EstimateTime":"","CarInfo":"","Lon":120.2449351,"Lat":22.9864831,"Turn":29,"DayValue":"一,二,四,六","RecycleDate":"二,六"},{"StopId":7728,"StopName":"裕信路222號(綠邑公寓旁)","ScheduleTime":"17:02","EstimateTime":"","CarInfo":"","Lon":120.2449289,"Lat":22.9859051,"Turn":30,"DayValue":"一,二,四,六","RecycleDate":"二,六"},{"StopId":7729,"StopName":"裕信路236號(復興明園)","ScheduleTime":"17:04","EstimateTime":"","CarInfo":"","Lon":120.2449266,"Lat":22.9853224,"Turn":31,"DayValue":"一,二,四,六","RecycleDate":"二,六"},{"StopId":7730,"StopName":"裕信路282號","ScheduleTime":"17:07","EstimateTime":"","CarInfo":"","Lon":120.245051,"Lat":22.983985,"Turn":32,"DayValue":"一,二,四,六","RecycleDate":"二,六"},{"StopId":7731,"StopName":"裕信路與裕興街口","ScheduleTime":"17:10","EstimateTime":"","CarInfo":"","Lon":120.2449979,"Lat":22.9833356,"Turn":33,"DayValue":"一,二,四,六","RecycleDate":"二,六"},{"StopId":7732,"StopName":"裕信路308之35號旁","ScheduleTime":"17:12","EstimateTime":"","CarInfo":"","Lon":120.2450323,"Lat":22.9825336,"Turn":34,"DayValue":"一,二,四,六","RecycleDate":"二,六"},{"StopId":7733,"StopName":"裕信路328號","ScheduleTime":"17:15","EstimateTime":"","CarInfo":"","Lon":120.245017,"Lat":22.9814319,"Turn":35,"DayValue":"一,二,四,六","RecycleDate":"二,六"},{"StopId":7734,"StopName":"裕信路332號","ScheduleTime":"17:18","EstimateTime":"","CarInfo":"","Lon":120.2450082,"Lat":22.9809473,"Turn":36,"DayValue":"一,二,四,六","RecycleDate":"二,六"},{"StopId":7735,"StopName":"裕信路346號","ScheduleTime":"17:20","EstimateTime":"","CarInfo":"","Lon":120.2450029,"Lat":22.9800938,"Turn":37,"DayValue":"一,二,四,六","RecycleDate":"二,六"},{"StopId":7736,"StopName":"裕信路380號","ScheduleTime":"17:22","EstimateTime":"","CarInfo":"","Lon":120.2450022,"Lat":22.9786615,"Turn":38,"DayValue":"一,二,四,六","RecycleDate":"二,六"},{"StopId":7737,"StopName":"裕信路466號","ScheduleTime":"17:24","EstimateTime":"","CarInfo":"","Lon":120.2448031,"Lat":22.9771914,"Turn":39,"DayValue":"一,二,四,六","RecycleDate":"二,六"},{"StopId":7738,"StopName":"裕義路246號長興汽車賓館邊空地","ScheduleTime":"17:30","EstimateTime":"","CarInfo":"","Lon":120.247848,"Lat":22.984208,"Turn":40,"DayValue":"一,二,四,六","RecycleDate":"二,六"},{"StopId":7739,"StopName":"裕信二街169號（香榭大道）","ScheduleTime":"18:50","EstimateTime":"","CarInfo":"","Lon":120.2471578,"Lat":22.9825466,"Turn":41,"DayValue":"一,二,四,六","RecycleDate":"二,六"},{"StopId":7740,"StopName":"裕信二街路與裕正街口","ScheduleTime":"18:53","EstimateTime":"","CarInfo":"","Lon":120.2471548,"Lat":22.9833796,"Turn":42,"DayValue":"一,二,四,六","RecycleDate":"二,六"},{"StopId":7741,"StopName":"裕信二街98號","ScheduleTime":"18:55","EstimateTime":"","CarInfo":"","Lon":120.247121,"Lat":22.983739,"Turn":43,"DayValue":"一,二,四,六","RecycleDate":"二,六"},{"StopId":7742,"StopName":"裕文一街與裕和三街口","ScheduleTime":"18:58","EstimateTime":"","CarInfo":"","Lon":120.246334,"Lat":22.985571,"Turn":44,"DayValue":"一,二,四,六","RecycleDate":"二,六"},{"StopId":7743,"StopName":"裕和三街23號前","ScheduleTime":"19:01","EstimateTime":"","CarInfo":"","Lon":120.2460819,"Lat":22.9855615,"Turn":45,"DayValue":"一,二,四,六","RecycleDate":"二,六"},{"StopId":7744,"StopName":"裕和路與裕和三街口","ScheduleTime":"19:04","EstimateTime":"","CarInfo":"","Lon":120.2457268,"Lat":22.9876786,"Turn":46,"DayValue":"一,二,四,六","RecycleDate":"二,六"},{"StopId":7745,"StopName":"裕信路22號","ScheduleTime":"19:06","EstimateTime":"","CarInfo":"","Lon":120.2450113,"Lat":22.9891137,"Turn":47,"DayValue":"一,二,四,六","RecycleDate":"二,六"},{"StopId":7746,"StopName":"裕信路36號前","ScheduleTime":"19:08","EstimateTime":"","CarInfo":"","Lon":120.2450065,"Lat":22.9885484,"Turn":48,"DayValue":"一,二,四,六","RecycleDate":"二,六"},{"StopId":7747,"StopName":"裕信路與裕和路口","ScheduleTime":"19:10","EstimateTime":"","CarInfo":"","Lon":120.2450068,"Lat":22.9878677,"Turn":49,"DayValue":"一,二,四,六","RecycleDate":"二,六"},{"StopId":7748,"StopName":"裕信路168號","ScheduleTime":"19:13","EstimateTime":"","CarInfo":"","Lon":120.244994,"Lat":22.987219,"Turn":50,"DayValue":"一,二,四,六","RecycleDate":"二,六"},{"StopId":7749,"StopName":"裕信六街1號(花與綠公園旁)","ScheduleTime":"19:17","EstimateTime":"","CarInfo":"","Lon":120.2451714,"Lat":22.9765889,"Turn":51,"DayValue":"一,二,四,六","RecycleDate":"二,六"},{"StopId":7750,"StopName":"裕信六街109號","ScheduleTime":"19:20","EstimateTime":"","CarInfo":"","Lon":120.246536,"Lat":22.976534,"Turn":52,"DayValue":"一,二,四,六","RecycleDate":"二,六"},{"StopId":7751,"StopName":"裕敬五街與裕信六街口","ScheduleTime":"19:22","EstimateTime":"","CarInfo":"","Lon":120.247468,"Lat":22.976539,"Turn":53,"DayValue":"一,二,四,六","RecycleDate":"二,六"},{"StopId":7752,"StopName":"裕敬五街與裕孝三街口","ScheduleTime":"19:24","EstimateTime":"","CarInfo":"","Lon":120.247417,"Lat":22.978229,"Turn":54,"DayValue":"一,二,四,六","RecycleDate":"二,六"},{"StopId":7753,"StopName":"裕東一街與裕華三街口（水泥工會）","ScheduleTime":"19:28","EstimateTime":"","CarInfo":"","Lon":120.246775,"Lat":22.977648,"Turn":55,"DayValue":"一,二,四,六","RecycleDate":"二,六"},{"StopId":7754,"StopName":"裕東二街30號前","ScheduleTime":"19:30","EstimateTime":"","CarInfo":"","Lon":120.246401,"Lat":22.977079,"Turn":56,"DayValue":"一,二,四,六","RecycleDate":"二,六"},{"StopId":7755,"StopName":"裕敬二街101號","ScheduleTime":"19:32","EstimateTime":"","CarInfo":"","Lon":120.2456718,"Lat":22.977469,"Turn":57,"DayValue":"一,二,四,六","RecycleDate":"二,六"},{"StopId":7756,"StopName":"裕信路347號","ScheduleTime":"19:36","EstimateTime":"","CarInfo":"","Lon":120.2451708,"Lat":22.979131,"Turn":58,"DayValue":"一,二,四,六","RecycleDate":"二,六"},{"StopId":7757,"StopName":"裕華二街32號(公園)","ScheduleTime":"19:40","EstimateTime":"","CarInfo":"","Lon":120.2461346,"Lat":22.9787201,"Turn":59,"DayValue":"一,二,四,六","RecycleDate":"二,六"},{"StopId":7758,"StopName":"裕華一街33號前(公園)","ScheduleTime":"19:43","EstimateTime":"","CarInfo":"","Lon":120.24701,"Lat":22.979271,"Turn":60,"DayValue":"一,二,四,六","RecycleDate":"二,六"},{"StopId":7759,"StopName":"裕敬路與裕敬五街口","ScheduleTime":"19:46","EstimateTime":"","CarInfo":"","Lon":120.247345,"Lat":22.979835,"Turn":61,"DayValue":"一,二,四,六","RecycleDate":"二,六"},{"StopId":7760,"StopName":"裕敬路與裕敬二街口","ScheduleTime":"19:48","EstimateTime":"","CarInfo":"","Lon":120.245686,"Lat":22.979845,"Turn":62,"DayValue":"一,二,四,六","RecycleDate":"二,六"},{"StopId":7761,"StopName":"裕信路283號（陽光綠邑）","ScheduleTime":"19:51","EstimateTime":"","CarInfo":"","Lon":120.2451697,"Lat":22.980542,"Turn":63,"DayValue":"一,二,四,六","RecycleDate":"二,六"},{"StopId":7762,"StopName":"裕敬三街與裕信三街口（凡人居）","ScheduleTime":"19:54","EstimateTime":"","CarInfo":"","Lon":120.2467596,"Lat":22.9803176,"Turn":64,"DayValue":"一,二,四,六","RecycleDate":"二,六"},{"StopId":7763,"StopName":"裕敬路與裕敬一街口","ScheduleTime":"19:57","EstimateTime":"","CarInfo":"","Lon":120.244534,"Lat":22.979841,"Turn":65,"DayValue":"一,二,四,六","RecycleDate":"二,六"},{"StopId":7764,"StopName":"裕敬一街與裕孝二街口","ScheduleTime":"20:01","EstimateTime":"","CarInfo":"","Lon":120.244527,"Lat":22.978752,"Turn":66,"DayValue":"一,二,四,六","RecycleDate":"二,六"},{"StopId":7765,"StopName":"裕孝路與裕孝一街口","ScheduleTime":"20:03","EstimateTime":"","CarInfo":"","Lon":120.24348,"Lat":22.979303,"Turn":67,"DayValue":"一,二,四,六","RecycleDate":"二,六"},{"StopId":7766,"StopName":"裕孝路與裕敬路口","ScheduleTime":"20:05","EstimateTime":"","CarInfo":"","Lon":120.243473,"Lat":22.979837,"Turn":68,"DayValue":"一,二,四,六","RecycleDate":"二,六"},{"StopId":7767,"StopName":"裕孝路與裕忠一街口","ScheduleTime":"20:08","EstimateTime":"","CarInfo":"","Lon":120.2435252,"Lat":22.9813023,"Turn":69,"DayValue":"一,二,四,六","RecycleDate":"二,六"},{"StopId":7768,"StopName":"裕孝路223號","ScheduleTime":"20:11","EstimateTime":"","CarInfo":"","Lon":120.243602,"Lat":22.982648,"Turn":70,"DayValue":"一,二,四,六","RecycleDate":"二,六"},{"StopId":7769,"StopName":"裕孝路與裕興街口","ScheduleTime":"20:14","EstimateTime":"","CarInfo":"","Lon":120.243498,"Lat":22.983417,"Turn":71,"DayValue":"一,二,四,六","RecycleDate":"二,六"},{"StopId":7770,"StopName":"裕平路276號","ScheduleTime":"20:17","EstimateTime":"","CarInfo":"","Lon":120.2443126,"Lat":22.9849701,"Turn":72,"DayValue":"一,二,四,六","RecycleDate":"二,六"},{"StopId":7771,"StopName":"裕孝路170號","ScheduleTime":"20:19","EstimateTime":"","CarInfo":"","Lon":120.2435278,"Lat":22.9847041,"Turn":73,"DayValue":"一,二,四,六","RecycleDate":"二,六"},{"StopId":7772,"StopName":"裕孝路157號","ScheduleTime":"20:22","EstimateTime":"","CarInfo":"","Lon":120.243504,"Lat":22.985907,"Turn":74,"DayValue":"一,二,四,六","RecycleDate":"二,六"},{"StopId":7773,"StopName":"裕孝路151號(統一神曲)","ScheduleTime":"20:25","EstimateTime":"","CarInfo":"","Lon":120.2435181,"Lat":22.9864701,"Turn":75,"DayValue":"一,二,四,六","RecycleDate":"二,六"},{"StopId":7774,"StopName":"裕孝路133號","ScheduleTime":"20:27","EstimateTime":"","CarInfo":"","Lon":120.243605,"Lat":22.987038,"Turn":76,"DayValue":"一,二,四,六","RecycleDate":"二,六"},{"StopId":7775,"StopName":"裕孝路47號","ScheduleTime":"20:30","EstimateTime":"","CarInfo":"","Lon":120.2433731,"Lat":22.9887088,"Turn":77,"DayValue":"一,二,四,六","RecycleDate":"二,六"},{"StopId":7776,"StopName":"裕誠街300號","ScheduleTime":"20:32","EstimateTime":"","CarInfo":"","Lon":120.2439286,"Lat":22.9892961,"Turn":78,"DayValue":"一,二,四,六","RecycleDate":"二,六"}],"CarData":[],"RouteId":188,"RouteName":"東區-22","RouteInfo":"裕敬路5號~裕誠街300號","IsWork":true}]