[{"StopData":[{"StopId":3930,"StopName":"新吉高球場：新吉里146-2號","ScheduleTime":"14:00","EstimateTime":"","CarInfo":"","Lon":120.2102147,"Lat":23.0885701,"Turn":1,"DayValue":"一,五","RecycleDate":""},{"StopId":3931,"StopName":"137茶坊：新吉里60-7號","ScheduleTime":"14:02","EstimateTime":"","CarInfo":"","Lon":120.2103672,"Lat":23.0865818,"Turn":2,"DayValue":"一,五","RecycleDate":""},{"StopId":3932,"StopName":"里長宅：新吉里127號","ScheduleTime":"14:04","EstimateTime":"","CarInfo":"","Lon":120.2104101,"Lat":23.084144,"Turn":3,"DayValue":"一,五","RecycleDate":""},{"StopId":3933,"StopName":"幸連髮型坊：新吉里135號","ScheduleTime":"14:06","EstimateTime":"","CarInfo":"","Lon":120.2105818,"Lat":23.0858021,"Turn":4,"DayValue":"一,五","RecycleDate":""},{"StopId":3934,"StopName":"合羅殿：新吉里193號","ScheduleTime":"14:09","EstimateTime":"","CarInfo":"","Lon":120.2104745,"Lat":23.0869865,"Turn":5,"DayValue":"一,五","RecycleDate":""},{"StopId":3935,"StopName":"新吉里254號","ScheduleTime":"14:10","EstimateTime":"","CarInfo":"","Lon":120.2094123,"Lat":23.0865818,"Turn":6,"DayValue":"一,五","RecycleDate":""},{"StopId":3936,"StopName":"正業代書：新吉里59-3號","ScheduleTime":"14:14","EstimateTime":"","CarInfo":"","Lon":120.2101741,"Lat":23.0863252,"Turn":7,"DayValue":"一,五","RecycleDate":""},{"StopId":3937,"StopName":"昱城裝潢：新吉里56-15號","ScheduleTime":"14:16","EstimateTime":"","CarInfo":"","Lon":120.2087364,"Lat":23.0844697,"Turn":8,"DayValue":"一,五","RecycleDate":""},{"StopId":3938,"StopName":"大銘電器：新吉里56-5號","ScheduleTime":"14:18","EstimateTime":"","CarInfo":"","Lon":120.2061615,"Lat":23.0830781,"Turn":9,"DayValue":"一,五","RecycleDate":""},{"StopId":3939,"StopName":"華盛頓社區：新吉里56-87號","ScheduleTime":"14:22","EstimateTime":"","CarInfo":"","Lon":120.2044771,"Lat":23.0821701,"Turn":10,"DayValue":"一,五","RecycleDate":""},{"StopId":3940,"StopName":"羅丹小鎮社區內：新吉里51號","ScheduleTime":"14:26","EstimateTime":"","CarInfo":"","Lon":120.2094338,"Lat":23.08521,"Turn":11,"DayValue":"一,五","RecycleDate":""},{"StopId":3941,"StopName":"新吉社區活動中心：新吉里99-10號","ScheduleTime":"14:31","EstimateTime":"","CarInfo":"","Lon":120.2123842,"Lat":23.0848398,"Turn":12,"DayValue":"一,五","RecycleDate":""},{"StopId":3942,"StopName":"新吉大廟後：新吉里88-3號","ScheduleTime":"14:36","EstimateTime":"","CarInfo":"","Lon":120.2123949,"Lat":23.0855357,"Turn":13,"DayValue":"一,五","RecycleDate":""},{"StopId":3943,"StopName":"新吉里73-11號","ScheduleTime":"14:38","EstimateTime":"","CarInfo":"","Lon":120.210968,"Lat":23.0853876,"Turn":14,"DayValue":"一,五","RecycleDate":""},{"StopId":3944,"StopName":"新吉里73-16號","ScheduleTime":"14:40","EstimateTime":"","CarInfo":"","Lon":120.2108822,"Lat":23.085886,"Turn":15,"DayValue":"一,五","RecycleDate":""},{"StopId":3945,"StopName":"王老師畫室：新吉里22-18號","ScheduleTime":"14:43","EstimateTime":"","CarInfo":"","Lon":120.2143261,"Lat":23.0861426,"Turn":16,"DayValue":"一,五","RecycleDate":""},{"StopId":3946,"StopName":"大地春回社區：新吉里","ScheduleTime":"14:46","EstimateTime":"","CarInfo":"","Lon":120.210968,"Lat":23.0867447,"Turn":17,"DayValue":"一,五","RecycleDate":""},{"StopId":3947,"StopName":"集合住宅：新吉里41-4號","ScheduleTime":"14:49","EstimateTime":"","CarInfo":"","Lon":120.2123574,"Lat":23.0868927,"Turn":18,"DayValue":"一,五","RecycleDate":""},{"StopId":3948,"StopName":"集合住宅：新吉里2-11號","ScheduleTime":"14:53","EstimateTime":"","CarInfo":"","Lon":120.2132479,"Lat":23.0874997,"Turn":19,"DayValue":"一,五","RecycleDate":""},{"StopId":3949,"StopName":"農路住宅(水圳)：新吉里14-1號","ScheduleTime":"14:56","EstimateTime":"","CarInfo":"","Lon":120.2140901,"Lat":23.0876033,"Turn":20,"DayValue":"一,五","RecycleDate":""},{"StopId":3950,"StopName":"資源回收場(132線)：南安里4-8號","ScheduleTime":"15:02","EstimateTime":"","CarInfo":"","Lon":120.2286971,"Lat":23.1049428,"Turn":21,"DayValue":"一,五","RecycleDate":""},{"StopId":3951,"StopName":"南安里大廟：南安里38-15號","ScheduleTime":"15:04","EstimateTime":"","CarInfo":"","Lon":120.2275169,"Lat":23.1024165,"Turn":22,"DayValue":"一,五","RecycleDate":""},{"StopId":3952,"StopName":"集合住宅：南安里40-1號","ScheduleTime":"15:07","EstimateTime":"","CarInfo":"","Lon":120.2261436,"Lat":23.0994559,"Turn":23,"DayValue":"一,五","RecycleDate":""},{"StopId":3953,"StopName":"南安里11-1號","ScheduleTime":"15:10","EstimateTime":"","CarInfo":"","Lon":120.2259398,"Lat":23.10178,"Turn":24,"DayValue":"一,五","RecycleDate":""},{"StopId":3954,"StopName":"南安大廟後8-1號","ScheduleTime":"15:13","EstimateTime":"","CarInfo":"","Lon":120.2269703,"Lat":23.1024075,"Turn":25,"DayValue":"一,五","RecycleDate":""},{"StopId":3955,"StopName":"消防隊：南安34號","ScheduleTime":"15:15","EstimateTime":"","CarInfo":"","Lon":120.2274111,"Lat":23.1024257,"Turn":26,"DayValue":"一,五","RecycleDate":""},{"StopId":3956,"StopName":"中榮里3-1號","ScheduleTime":"15:22","EstimateTime":"","CarInfo":"","Lon":120.2397561,"Lat":23.0947729,"Turn":27,"DayValue":"一,五","RecycleDate":""},{"StopId":3957,"StopName":"中榮里10-10號","ScheduleTime":"15:23","EstimateTime":"","CarInfo":"","Lon":120.2405968,"Lat":23.0945526,"Turn":28,"DayValue":"一,五","RecycleDate":""},{"StopId":3958,"StopName":"永龍建設集合住宅：中榮里15-1號","ScheduleTime":"15:24","EstimateTime":"","CarInfo":"","Lon":120.2403783,"Lat":23.0941469,"Turn":29,"DayValue":"一,五","RecycleDate":""},{"StopId":3959,"StopName":"中榮里雜貨舖：中榮里55號","ScheduleTime":"15:26","EstimateTime":"","CarInfo":"","Lon":120.2423211,"Lat":23.0945577,"Turn":30,"DayValue":"一,五","RecycleDate":""},{"StopId":3960,"StopName":"集合住宅：中榮里12-41號","ScheduleTime":"15:27","EstimateTime":"","CarInfo":"","Lon":120.2427131,"Lat":23.0935114,"Turn":31,"DayValue":"一,五","RecycleDate":""},{"StopId":3961,"StopName":"倍幼安幼稚園：中榮里25-9號","ScheduleTime":"15:29","EstimateTime":"","CarInfo":"","Lon":120.243117,"Lat":23.0928938,"Turn":32,"DayValue":"一,五","RecycleDate":""},{"StopId":3962,"StopName":"集合住宅：中榮里23-3號","ScheduleTime":"15:31","EstimateTime":"","CarInfo":"","Lon":120.2441147,"Lat":23.0934658,"Turn":33,"DayValue":"一,五","RecycleDate":""},{"StopId":3963,"StopName":"中榮里大廟後：中榮里27-1號","ScheduleTime":"15:35","EstimateTime":"","CarInfo":"","Lon":120.2433261,"Lat":23.0945514,"Turn":34,"DayValue":"一,五","RecycleDate":""},{"StopId":3964,"StopName":"社區活動中心後：中榮里38-1號","ScheduleTime":"15:37","EstimateTime":"","CarInfo":"","Lon":120.2434763,"Lat":23.0951189,"Turn":35,"DayValue":"一,五","RecycleDate":""},{"StopId":3965,"StopName":"高第建設集合住宅：中榮里40號","ScheduleTime":"15:38","EstimateTime":"","CarInfo":"","Lon":120.242958,"Lat":23.0957576,"Turn":36,"DayValue":"一,五","RecycleDate":""},{"StopId":3966,"StopName":"利祥商店：中榮里","ScheduleTime":"15:39","EstimateTime":"","CarInfo":"","Lon":120.2418995,"Lat":23.0965986,"Turn":37,"DayValue":"一,五","RecycleDate":""},{"StopId":3967,"StopName":"中榮里35-11號","ScheduleTime":"15:40","EstimateTime":"","CarInfo":"","Lon":120.2418904,"Lat":23.09553,"Turn":38,"DayValue":"一,五","RecycleDate":""},{"StopId":3968,"StopName":"中榮里38-5號","ScheduleTime":"15:41","EstimateTime":"","CarInfo":"","Lon":120.2440222,"Lat":23.0956097,"Turn":39,"DayValue":"一,五","RecycleDate":""},{"StopId":3969,"StopName":"中榮外環道：中榮里77-11號","ScheduleTime":"15:44","EstimateTime":"","CarInfo":"","Lon":120.2434944,"Lat":23.0963244,"Turn":40,"DayValue":"一,五","RecycleDate":""},{"StopId":3970,"StopName":"渡仔頭：中榮里95-1號","ScheduleTime":"15:47","EstimateTime":"","CarInfo":"","Lon":120.2432795,"Lat":23.0986233,"Turn":41,"DayValue":"一,五","RecycleDate":""},{"StopId":3971,"StopName":"渡仔頭：中榮里82-26號","ScheduleTime":"15:48","EstimateTime":"","CarInfo":"","Lon":120.2416863,"Lat":23.0970147,"Turn":42,"DayValue":"一,五","RecycleDate":""},{"StopId":3972,"StopName":"輕鋼架：中榮里83號","ScheduleTime":"15:49","EstimateTime":"","CarInfo":"","Lon":120.2411659,"Lat":23.0962005,"Turn":43,"DayValue":"一,五","RecycleDate":""},{"StopId":3973,"StopName":"翁稼茶站：中榮里85號","ScheduleTime":"15:50","EstimateTime":"","CarInfo":"","Lon":120.240726,"Lat":23.0958699,"Turn":44,"DayValue":"一,五","RecycleDate":""},{"StopId":3974,"StopName":"中榮里90-6號","ScheduleTime":"15:51","EstimateTime":"","CarInfo":"","Lon":120.2399589,"Lat":23.095258,"Turn":45,"DayValue":"一,五","RecycleDate":""}],"CarData":[],"RouteId":106,"RouteName":"安定-3(日間)","RouteInfo":"新吉高球場：新吉里146-2號~中榮里90-6號","IsWork":false}]