[{"StopData":[{"StopId":6623,"StopName":"所前路225號(東山區公所)","ScheduleTime":"16:30","EstimateTime":"","CarInfo":"","Lon":120.4043548,"Lat":23.3260168,"Turn":1,"DayValue":"一,三,五","RecycleDate":"一,三,五"},{"StopId":6624,"StopName":"中興北街219-2號(消防隊)","ScheduleTime":"16:52","EstimateTime":"","CarInfo":"","Lon":120.4033266,"Lat":23.3261291,"Turn":2,"DayValue":"一,三,五","RecycleDate":"一,三,五"},{"StopId":6625,"StopName":"北興街246-1號","ScheduleTime":"16:55","EstimateTime":"","CarInfo":"","Lon":120.4044605,"Lat":23.3268545,"Turn":3,"DayValue":"一,三,五","RecycleDate":"一,三,五"},{"StopId":6626,"StopName":"育英街139-5號","ScheduleTime":"16:58","EstimateTime":"","CarInfo":"","Lon":120.4046916,"Lat":23.324233,"Turn":4,"DayValue":"一,三,五","RecycleDate":"一,三,五"},{"StopId":6627,"StopName":"碧軒街230-2號","ScheduleTime":"17:02","EstimateTime":"","CarInfo":"","Lon":120.4049197,"Lat":23.3252906,"Turn":5,"DayValue":"一,三,五","RecycleDate":"一,三,五"},{"StopId":6628,"StopName":"青葉路二段1號(新發機車)","ScheduleTime":"17:05","EstimateTime":"","CarInfo":"","Lon":120.4047772,"Lat":23.3212102,"Turn":6,"DayValue":"一,三,五","RecycleDate":"一,三,五"},{"StopId":6629,"StopName":"青葉路一段283號(東山釣具)","ScheduleTime":"17:07","EstimateTime":"","CarInfo":"","Lon":120.404512,"Lat":23.320397,"Turn":7,"DayValue":"一,三,五","RecycleDate":"一,三,五"},{"StopId":6630,"StopName":"鳳安一街80號","ScheduleTime":"17:10","EstimateTime":"","CarInfo":"","Lon":120.400724,"Lat":23.318971,"Turn":8,"DayValue":"一,三,五","RecycleDate":"一,三,五"},{"StopId":6631,"StopName":"福安街22號","ScheduleTime":"17:12","EstimateTime":"","CarInfo":"","Lon":120.398298,"Lat":23.318984,"Turn":9,"DayValue":"一,三,五","RecycleDate":"一,三,五"},{"StopId":6632,"StopName":"育仁街19號","ScheduleTime":"17:15","EstimateTime":"","CarInfo":"","Lon":120.4010318,"Lat":23.3174492,"Turn":10,"DayValue":"一,三,五","RecycleDate":"一,三,五"},{"StopId":6633,"StopName":"鳳安二街40號","ScheduleTime":"17:19","EstimateTime":"","CarInfo":"","Lon":120.40009,"Lat":23.319938,"Turn":11,"DayValue":"一,三,五","RecycleDate":"一,三,五"},{"StopId":6634,"StopName":"成功街15號","ScheduleTime":"17:22","EstimateTime":"","CarInfo":"","Lon":120.401418,"Lat":23.320533,"Turn":12,"DayValue":"一,三,五","RecycleDate":"一,三,五"},{"StopId":6635,"StopName":"信義街3號","ScheduleTime":"17:25","EstimateTime":"","CarInfo":"","Lon":120.402555,"Lat":23.32096,"Turn":13,"DayValue":"一,三,五","RecycleDate":"一,三,五"},{"StopId":6636,"StopName":"和平街30號","ScheduleTime":"17:28","EstimateTime":"","CarInfo":"","Lon":120.402224,"Lat":23.320373,"Turn":14,"DayValue":"一,三,五","RecycleDate":"一,三,五"},{"StopId":6637,"StopName":"東仁街36號","ScheduleTime":"17:31","EstimateTime":"","CarInfo":"","Lon":120.402103,"Lat":23.319756,"Turn":15,"DayValue":"一,三,五","RecycleDate":"一,三,五"},{"StopId":6638,"StopName":"中興南路96號(七里香)","ScheduleTime":"17:35","EstimateTime":"","CarInfo":"","Lon":120.4030744,"Lat":23.3207318,"Turn":16,"DayValue":"一,三,五","RecycleDate":"一,三,五"},{"StopId":6639,"StopName":"中興路46號(錦貴診所)","ScheduleTime":"17:38","EstimateTime":"","CarInfo":"","Lon":120.4034493,"Lat":23.3221752,"Turn":17,"DayValue":"一,三,五","RecycleDate":"一,三,五"},{"StopId":6640,"StopName":"新東路一段18號(東山郵局)","ScheduleTime":"17:42","EstimateTime":"","CarInfo":"","Lon":120.4024905,"Lat":23.3225874,"Turn":18,"DayValue":"一,三,五","RecycleDate":"一,三,五"},{"StopId":6641,"StopName":"龍鳳一街400號","ScheduleTime":"17:45","EstimateTime":"","CarInfo":"","Lon":120.4018156,"Lat":23.3232399,"Turn":19,"DayValue":"一,三,五","RecycleDate":"一,三,五"},{"StopId":6642,"StopName":"龍鳳二街312-3號","ScheduleTime":"17:48","EstimateTime":"","CarInfo":"","Lon":120.401707,"Lat":23.324034,"Turn":20,"DayValue":"一,三,五","RecycleDate":"一,三,五"},{"StopId":6643,"StopName":"龍鳳三街276-2號","ScheduleTime":"17:51","EstimateTime":"","CarInfo":"","Lon":120.4019467,"Lat":23.327718,"Turn":21,"DayValue":"一,三,五","RecycleDate":"一,三,五"},{"StopId":6644,"StopName":"中興路89號","ScheduleTime":"17:54","EstimateTime":"","CarInfo":"","Lon":120.4030952,"Lat":23.3239472,"Turn":22,"DayValue":"一,三,五","RecycleDate":"一,三,五"},{"StopId":6645,"StopName":"達雲路一段36號(春成機車行)","ScheduleTime":"17:57","EstimateTime":"","CarInfo":"","Lon":120.4040562,"Lat":23.3215046,"Turn":23,"DayValue":"一,三,五","RecycleDate":"一,三,五"},{"StopId":6646,"StopName":"18鄰達雲路2段38號","ScheduleTime":"18:00","EstimateTime":"","CarInfo":"","Lon":120.4051492,"Lat":23.3199362,"Turn":24,"DayValue":"一,三,五","RecycleDate":"一,三,五"},{"StopId":6647,"StopName":"1鄰東勢1-31號","ScheduleTime":"18:03","EstimateTime":"","CarInfo":"","Lon":120.4099188,"Lat":23.3195042,"Turn":25,"DayValue":"一,三,五","RecycleDate":"一,三,五"},{"StopId":6648,"StopName":"中興路218號(碧軒寺)","ScheduleTime":"18:06","EstimateTime":"","CarInfo":"","Lon":120.403261,"Lat":23.325338,"Turn":26,"DayValue":"一,三,五","RecycleDate":"一,三,五"},{"StopId":6649,"StopName":"中興北街268號","ScheduleTime":"18:08","EstimateTime":"","CarInfo":"","Lon":120.4034715,"Lat":23.3280207,"Turn":27,"DayValue":"一,三,五","RecycleDate":"一,三,五"},{"StopId":6650,"StopName":"大仁街278-7號","ScheduleTime":"18:11","EstimateTime":"","CarInfo":"","Lon":120.4020123,"Lat":23.3286401,"Turn":28,"DayValue":"一,三,五","RecycleDate":"一,三,五"},{"StopId":6651,"StopName":"大智街314-2號","ScheduleTime":"18:14","EstimateTime":"","CarInfo":"","Lon":120.4021678,"Lat":23.3277112,"Turn":29,"DayValue":"一,三,五","RecycleDate":"一,三,五"},{"StopId":6652,"StopName":"文賢街320號(幸福幼兒園)","ScheduleTime":"18:17","EstimateTime":"","CarInfo":"","Lon":120.4002537,"Lat":23.3267428,"Turn":30,"DayValue":"一,三,五","RecycleDate":"一,三,五"},{"StopId":6653,"StopName":"下寮子35-1號","ScheduleTime":"18:22","EstimateTime":"","CarInfo":"","Lon":120.3893277,"Lat":23.3319354,"Turn":31,"DayValue":"一,三,五","RecycleDate":"一,三,五"},{"StopId":6654,"StopName":"下寮子39號","ScheduleTime":"18:25","EstimateTime":"","CarInfo":"","Lon":120.3901156,"Lat":23.3286101,"Turn":32,"DayValue":"一,三,五","RecycleDate":"一,三,五"},{"StopId":6655,"StopName":"大德街605號","ScheduleTime":"18:28","EstimateTime":"","CarInfo":"","Lon":120.4002843,"Lat":23.3258145,"Turn":33,"DayValue":"一,三,五","RecycleDate":"一,三,五"},{"StopId":6656,"StopName":"文中街543號","ScheduleTime":"18:31","EstimateTime":"","CarInfo":"","Lon":120.4009012,"Lat":23.325078,"Turn":34,"DayValue":"一,三,五","RecycleDate":"一,三,五"},{"StopId":6657,"StopName":"文化街494號","ScheduleTime":"18:34","EstimateTime":"","CarInfo":"","Lon":120.40122,"Lat":23.324448,"Turn":35,"DayValue":"一,三,五","RecycleDate":"一,三,五"},{"StopId":6658,"StopName":"文昌街417號","ScheduleTime":"18:37","EstimateTime":"","CarInfo":"","Lon":120.4012033,"Lat":23.3239246,"Turn":36,"DayValue":"一,三,五","RecycleDate":"一,三,五"},{"StopId":6659,"StopName":"惠明街16號","ScheduleTime":"18:41","EstimateTime":"","CarInfo":"","Lon":120.399452,"Lat":23.321039,"Turn":37,"DayValue":"一,三,五","RecycleDate":"一,三,五"},{"StopId":6660,"StopName":"許秀才31-1號","ScheduleTime":"18:44","EstimateTime":"","CarInfo":"","Lon":120.3873559,"Lat":23.3136479,"Turn":38,"DayValue":"一,三,五","RecycleDate":"一,三,五"},{"StopId":6661,"StopName":"許秀才27號(普庵宮)","ScheduleTime":"18:48","EstimateTime":"","CarInfo":"","Lon":120.3852118,"Lat":23.3145678,"Turn":39,"DayValue":"一,三,五","RecycleDate":"一,三,五"},{"StopId":6662,"StopName":"7鄰木柵35號","ScheduleTime":"18:55","EstimateTime":"","CarInfo":"","Lon":120.389762,"Lat":23.3200461,"Turn":40,"DayValue":"一,三,五","RecycleDate":"一,三,五"},{"StopId":6663,"StopName":"新東路二段15號","ScheduleTime":"19:05","EstimateTime":"","CarInfo":"","Lon":120.3991357,"Lat":23.3214473,"Turn":41,"DayValue":"一,三,五","RecycleDate":"一,三,五"},{"StopId":6664,"StopName":"新東路一段79號","ScheduleTime":"19:08","EstimateTime":"","CarInfo":"","Lon":120.400805,"Lat":23.321942,"Turn":42,"DayValue":"一,三,五","RecycleDate":"一,三,五"},{"StopId":6665,"StopName":"龍山二街302號","ScheduleTime":"19:12","EstimateTime":"","CarInfo":"","Lon":120.4024204,"Lat":23.3246211,"Turn":43,"DayValue":"一,三,五","RecycleDate":"一,三,五"},{"StopId":6666,"StopName":"青葉路三段240號(東山加油站)(迴轉)","ScheduleTime":"19:20","EstimateTime":"","CarInfo":"","Lon":120.4071205,"Lat":23.3297414,"Turn":44,"DayValue":"一,三,五","RecycleDate":"一,三,五"},{"StopId":6667,"StopName":"公園路32號(旺旺齒模)","ScheduleTime":"19:24","EstimateTime":"","CarInfo":"","Lon":120.4048665,"Lat":23.3189397,"Turn":45,"DayValue":"一,三,五","RecycleDate":"一,三,五"},{"StopId":6668,"StopName":"東勢二街42-3號","ScheduleTime":"19:35","EstimateTime":"","CarInfo":"","Lon":120.4080818,"Lat":23.3230566,"Turn":46,"DayValue":"一,三,五","RecycleDate":"一,三,五"},{"StopId":6669,"StopName":"德昌街34-5號","ScheduleTime":"19:39","EstimateTime":"","CarInfo":"","Lon":120.4090537,"Lat":23.3235043,"Turn":47,"DayValue":"一,三,五","RecycleDate":"一,三,五"},{"StopId":6670,"StopName":"廣安街140-9號","ScheduleTime":"19:51","EstimateTime":"","CarInfo":"","Lon":120.4077576,"Lat":23.3236481,"Turn":48,"DayValue":"一,三,五","RecycleDate":"一,三,五"},{"StopId":6671,"StopName":"育德街13號","ScheduleTime":"19:54","EstimateTime":"","CarInfo":"","Lon":120.4061267,"Lat":23.3227806,"Turn":49,"DayValue":"一,三,五","RecycleDate":"一,三,五"},{"StopId":6672,"StopName":"東勢一街12-5號","ScheduleTime":"19:57","EstimateTime":"","CarInfo":"","Lon":120.4076617,"Lat":23.3213287,"Turn":50,"DayValue":"一,三,五","RecycleDate":"一,三,五"},{"StopId":6673,"StopName":"東興二街161號","ScheduleTime":"20:00","EstimateTime":"","CarInfo":"","Lon":120.4073059,"Lat":23.3250951,"Turn":51,"DayValue":"一,三,五","RecycleDate":"一,三,五"},{"StopId":6674,"StopName":"正義街195-11號","ScheduleTime":"20:02","EstimateTime":"","CarInfo":"","Lon":120.4061523,"Lat":23.3258914,"Turn":52,"DayValue":"一,三,五","RecycleDate":"一,三,五"},{"StopId":6675,"StopName":"東興一街77-2號(廣安宮)","ScheduleTime":"20:05","EstimateTime":"","CarInfo":"","Lon":120.4065381,"Lat":23.3239906,"Turn":53,"DayValue":"一,三,五","RecycleDate":"一,三,五"},{"StopId":6676,"StopName":"北馬9-13號(迴轉)","ScheduleTime":"20:08","EstimateTime":"","CarInfo":"","Lon":120.3986505,"Lat":23.3085785,"Turn":54,"DayValue":"一,三,五","RecycleDate":"一,三,五"},{"StopId":6677,"StopName":"北馬4號(迴轉)","ScheduleTime":"20:11","EstimateTime":"","CarInfo":"","Lon":120.4007654,"Lat":23.3089259,"Turn":55,"DayValue":"一,三,五","RecycleDate":"一,三,五"},{"StopId":6678,"StopName":"北馬12號(神武殿北馬大廟)","ScheduleTime":"20:14","EstimateTime":"","CarInfo":"","Lon":120.3982858,"Lat":23.3061989,"Turn":56,"DayValue":"一,三,五","RecycleDate":"一,三,五"},{"StopId":6679,"StopName":"吉貝耍53-2號","ScheduleTime":"20:19","EstimateTime":"","CarInfo":"","Lon":120.3870401,"Lat":23.2967092,"Turn":57,"DayValue":"一,三,五","RecycleDate":"一,三,五"}],"CarData":[],"RouteId":160,"RouteName":"東山-1(一三五)","RouteInfo":"所前路225號(東山區公所)~吉貝耍53-2號","IsWork":false}]