[{"StopData":[{"StopId":14019,"StopName":"國平路599號(多摩西第)","ScheduleTime":"16:30","EstimateTime":"","CarInfo":"","Lon":120.1717358,"Lat":22.9966051,"Turn":1,"DayValue":"一,二,四,六","RecycleDate":"一,四"},{"StopId":14020,"StopName":"永華路819號(大世紀)","ScheduleTime":"16:33","EstimateTime":"","CarInfo":"","Lon":120.1687554,"Lat":22.9913227,"Turn":2,"DayValue":"一,二,四,六","RecycleDate":"一,四"},{"StopId":14021,"StopName":"健康三街225號（永華富邑）","ScheduleTime":"16:37","EstimateTime":"","CarInfo":"","Lon":120.168809,"Lat":22.9903344,"Turn":3,"DayValue":"一,二,四,六","RecycleDate":"一,四"},{"StopId":14022,"StopName":"育平5街21號(蘇都社區)","ScheduleTime":"16:39","EstimateTime":"","CarInfo":"","Lon":120.169431,"Lat":22.985479,"Turn":4,"DayValue":"一,二,四,六","RecycleDate":"一,四"},{"StopId":14023,"StopName":"府平路144巷67號(台南新世界)","ScheduleTime":"16:41","EstimateTime":"","CarInfo":"","Lon":120.1691437,"Lat":22.9887104,"Turn":5,"DayValue":"一,二,四,六","RecycleDate":"一,四"},{"StopId":14024,"StopName":"郡平路188號（南國）","ScheduleTime":"16:47","EstimateTime":"","CarInfo":"","Lon":120.167568,"Lat":22.989336,"Turn":6,"DayValue":"一,二,四,六","RecycleDate":"一,四"},{"StopId":14025,"StopName":"育平四街30號(地中海大樓)","ScheduleTime":"16:53","EstimateTime":"","CarInfo":"","Lon":120.1680973,"Lat":22.9896674,"Turn":7,"DayValue":"一,二,四,六","RecycleDate":"一,四"},{"StopId":14026,"StopName":"海巡署","ScheduleTime":"17:05","EstimateTime":"","CarInfo":"","Lon":120.1510276,"Lat":22.9876335,"Turn":8,"DayValue":"一,二,四,六","RecycleDate":"一,四"},{"StopId":14027,"StopName":"漁光路148號","ScheduleTime":"17:08","EstimateTime":"","CarInfo":"","Lon":120.153828,"Lat":22.985112,"Turn":9,"DayValue":"一,二,四,六","RecycleDate":"一,四"},{"StopId":14028,"StopName":"漁光路128號之一","ScheduleTime":"17:10","EstimateTime":"","CarInfo":"","Lon":120.1562607,"Lat":22.9824334,"Turn":10,"DayValue":"一,二,四,六","RecycleDate":"一,四"},{"StopId":14029,"StopName":"漁光路124號","ScheduleTime":"17:12","EstimateTime":"","CarInfo":"","Lon":120.1562769,"Lat":22.9820433,"Turn":11,"DayValue":"一,二,四,六","RecycleDate":"一,四"},{"StopId":14030,"StopName":"平豐路210號(摩登家園)","ScheduleTime":"17:45","EstimateTime":"","CarInfo":"","Lon":120.164338,"Lat":22.989265,"Turn":12,"DayValue":"一,二,四,六","RecycleDate":"一,四"},{"StopId":14031,"StopName":"光州五街35號","ScheduleTime":"17:48","EstimateTime":"","CarInfo":"","Lon":120.161113,"Lat":22.988939,"Turn":13,"DayValue":"一,二,四,六","RecycleDate":"一,四"},{"StopId":14032,"StopName":"郡平路388號與454號之間（品富天廈）","ScheduleTime":"17:50","EstimateTime":"","CarInfo":"","Lon":120.161445,"Lat":22.989574,"Turn":14,"DayValue":"一,二,四,六","RecycleDate":"一,四"},{"StopId":14033,"StopName":"光州路138號邊","ScheduleTime":"17:54","EstimateTime":"","CarInfo":"","Lon":120.159496,"Lat":22.993136,"Turn":15,"DayValue":"一,二,四,六","RecycleDate":"一,四"},{"StopId":14034,"StopName":"慶平路705號（綠園大道）","ScheduleTime":"17:58","EstimateTime":"","CarInfo":"","Lon":120.166859,"Lat":22.997637,"Turn":16,"DayValue":"一,二,四,六","RecycleDate":"一,四"},{"StopId":14035,"StopName":"文平路461巷21弄(名門天下)","ScheduleTime":"18:02","EstimateTime":"","CarInfo":"","Lon":120.177578,"Lat":22.993824,"Turn":17,"DayValue":"一,二,四,六","RecycleDate":"一,四"},{"StopId":14036,"StopName":"永華六街34號(國泰華園)","ScheduleTime":"18:06","EstimateTime":"","CarInfo":"","Lon":120.176771,"Lat":22.991915,"Turn":18,"DayValue":"一,二,四,六","RecycleDate":"一,四"},{"StopId":14037,"StopName":"永華六街22巷五號(佳南名邸)","ScheduleTime":"18:10","EstimateTime":"","CarInfo":"","Lon":120.1775099,"Lat":22.9914154,"Turn":19,"DayValue":"一,二,四,六","RecycleDate":"一,四"},{"StopId":14038,"StopName":"建平六街114號(昊鼎門第)","ScheduleTime":"18:14","EstimateTime":"","CarInfo":"","Lon":120.1825884,"Lat":22.987371,"Turn":20,"DayValue":"一,二,四,六","RecycleDate":"一,四"},{"StopId":14039,"StopName":"建平三街62巷14號（天賜良緣）","ScheduleTime":"18:18","EstimateTime":"","CarInfo":"","Lon":120.178243,"Lat":22.985292,"Turn":21,"DayValue":"一,二,四,六","RecycleDate":"一,四"},{"StopId":14040,"StopName":"建平三街9號","ScheduleTime":"18:20","EstimateTime":"","CarInfo":"","Lon":120.1753747,"Lat":22.985866,"Turn":22,"DayValue":"一,二,四,六","RecycleDate":"一,四"},{"StopId":14041,"StopName":"建平三街14號","ScheduleTime":"18:22","EstimateTime":"","CarInfo":"","Lon":120.178243,"Lat":22.985292,"Turn":23,"DayValue":"一,二,四,六","RecycleDate":"一,四"},{"StopId":14042,"StopName":"建平二街42號","ScheduleTime":"18:24","EstimateTime":"","CarInfo":"","Lon":120.182811,"Lat":22.984647,"Turn":24,"DayValue":"一,二,四,六","RecycleDate":"一,四"},{"StopId":14043,"StopName":"建平路32號邊","ScheduleTime":"18:26","EstimateTime":"","CarInfo":"","Lon":120.1817324,"Lat":22.9848699,"Turn":25,"DayValue":"一,二,四,六","RecycleDate":"一,四"},{"StopId":14044,"StopName":"建平一街23巷52號","ScheduleTime":"18:28","EstimateTime":"","CarInfo":"","Lon":120.1808419,"Lat":22.984835,"Turn":26,"DayValue":"一,二,四,六","RecycleDate":"一,四"},{"StopId":14045,"StopName":"建平一街23巷25弄（市政傳奇）","ScheduleTime":"18:30","EstimateTime":"","CarInfo":"","Lon":120.180979,"Lat":22.984136,"Turn":27,"DayValue":"一,二,四,六","RecycleDate":"一,四"},{"StopId":14046,"StopName":"建平一街16巷6號","ScheduleTime":"18:32","EstimateTime":"","CarInfo":"","Lon":120.1808712,"Lat":22.9835297,"Turn":28,"DayValue":"一,二,四,六","RecycleDate":"一,四"},{"StopId":14047,"StopName":"建平一街17號旁路口","ScheduleTime":"18:34","EstimateTime":"","CarInfo":"","Lon":120.180942,"Lat":22.983819,"Turn":29,"DayValue":"一,二,四,六","RecycleDate":"一,四"},{"StopId":14048,"StopName":"建平一街38號(臺邦新世紀)","ScheduleTime":"18:37","EstimateTime":"","CarInfo":"","Lon":120.1803914,"Lat":22.9839419,"Turn":30,"DayValue":"一,二,四,六","RecycleDate":"一,四"},{"StopId":14049,"StopName":"健康路三段180號（南紡健康城)","ScheduleTime":"18:40","EstimateTime":"","CarInfo":"","Lon":120.175975,"Lat":22.9833804,"Turn":31,"DayValue":"一,二,四,六","RecycleDate":"一,四"},{"StopId":14050,"StopName":"華平路21巷32弄22號(華平特區公園社區)","ScheduleTime":"18:43","EstimateTime":"","CarInfo":"","Lon":120.173247,"Lat":22.985347,"Turn":32,"DayValue":"一,二,四,六","RecycleDate":"一,四"},{"StopId":14051,"StopName":"府平路364號(大隆新香港公寓)","ScheduleTime":"18:46","EstimateTime":"","CarInfo":"","Lon":120.167736,"Lat":22.987187,"Turn":33,"DayValue":"一,二,四,六","RecycleDate":"一,四"},{"StopId":14052,"StopName":"府平路144巷67號（台南新世界）","ScheduleTime":"18:50","EstimateTime":"","CarInfo":"","Lon":120.1691437,"Lat":22.9887104,"Turn":34,"DayValue":"一,二,四,六","RecycleDate":"一,四"},{"StopId":14053,"StopName":"育平五街21號(蘇都社區)","ScheduleTime":"18:52","EstimateTime":"","CarInfo":"","Lon":120.1694576,"Lat":22.9905629,"Turn":35,"DayValue":"一,二,四,六","RecycleDate":"一,四"},{"StopId":14054,"StopName":"健康三街225號（永華富邑）","ScheduleTime":"18:53","EstimateTime":"","CarInfo":"","Lon":120.168809,"Lat":22.9903344,"Turn":36,"DayValue":"一,二,四,六","RecycleDate":"一,四"},{"StopId":14055,"StopName":"郡平路188號（南國）","ScheduleTime":"18:57","EstimateTime":"","CarInfo":"","Lon":120.1670316,"Lat":22.9893804,"Turn":37,"DayValue":"一,二,四,六","RecycleDate":"一,四"},{"StopId":14056,"StopName":"永華五街與平通路口","ScheduleTime":"19:15","EstimateTime":"","CarInfo":"","Lon":120.1797288,"Lat":22.9924907,"Turn":38,"DayValue":"一,二,四,六","RecycleDate":"一,四"},{"StopId":14057,"StopName":"怡平路140巷17弄3號","ScheduleTime":"19:19","EstimateTime":"","CarInfo":"","Lon":120.179527,"Lat":22.994397,"Turn":39,"DayValue":"一,二,四,六","RecycleDate":"一,四"},{"StopId":14058,"StopName":"建平十一街226號","ScheduleTime":"19:22","EstimateTime":"","CarInfo":"","Lon":120.1793794,"Lat":22.9948827,"Turn":40,"DayValue":"一,二,四,六","RecycleDate":"一,四"},{"StopId":14059,"StopName":"建平十二街95號","ScheduleTime":"19:24","EstimateTime":"","CarInfo":"","Lon":120.179559,"Lat":22.995274,"Turn":41,"DayValue":"一,二,四,六","RecycleDate":"一,四"},{"StopId":14060,"StopName":"建平十二街與永華三街口","ScheduleTime":"19:26","EstimateTime":"","CarInfo":"","Lon":120.181241,"Lat":22.995148,"Turn":42,"DayValue":"一,二,四,六","RecycleDate":"一,四"},{"StopId":14061,"StopName":"建平十二街70號","ScheduleTime":"19:27","EstimateTime":"","CarInfo":"","Lon":120.182955,"Lat":22.995095,"Turn":43,"DayValue":"一,二,四,六","RecycleDate":"一,四"},{"StopId":14062,"StopName":"建平十三街與永華三街口","ScheduleTime":"19:29","EstimateTime":"","CarInfo":"","Lon":120.182071,"Lat":22.995488,"Turn":44,"DayValue":"一,二,四,六","RecycleDate":"一,四"},{"StopId":14063,"StopName":"建平十四街與永華三街口","ScheduleTime":"19:31","EstimateTime":"","CarInfo":"","Lon":120.182114,"Lat":22.995932,"Turn":45,"DayValue":"一,二,四,六","RecycleDate":"一,四"},{"StopId":14064,"StopName":"建平十五街與永華三街口","ScheduleTime":"19:32","EstimateTime":"","CarInfo":"","Lon":120.18218,"Lat":22.996401,"Turn":46,"DayValue":"一,二,四,六","RecycleDate":"一,四"}],"CarData":[],"RouteId":334,"RouteName":"安平區-2(夜間)","RouteInfo":"國平路599號(多摩西第)~建平十五街與永華三街口","IsWork":true}]