[{"StopData":[{"StopId":3616,"StopName":"洪厝溪洲21號","ScheduleTime":"16:30","EstimateTime":"","CarInfo":"","Lon":120.4420892,"Lat":23.3574647,"Turn":1,"DayValue":"一","RecycleDate":""},{"StopId":3617,"StopName":"枋子林15-1號","ScheduleTime":"16:40","EstimateTime":"","CarInfo":"","Lon":120.4520113,"Lat":23.3671141,"Turn":2,"DayValue":"一","RecycleDate":""},{"StopId":3618,"StopName":"林仔內21-3號","ScheduleTime":"16:46","EstimateTime":"","CarInfo":"","Lon":120.4620896,"Lat":23.3663488,"Turn":3,"DayValue":"一","RecycleDate":""},{"StopId":3619,"StopName":"五汴頭18-1號","ScheduleTime":"16:55","EstimateTime":"","CarInfo":"","Lon":120.4560069,"Lat":23.3702026,"Turn":4,"DayValue":"一","RecycleDate":""},{"StopId":3620,"StopName":"頭前溪越仔厝14號","ScheduleTime":"17:10","EstimateTime":"","CarInfo":"","Lon":120.481893,"Lat":23.3795739,"Turn":5,"DayValue":"一","RecycleDate":""},{"StopId":3621,"StopName":"鹿寮水庫11號","ScheduleTime":"17:20","EstimateTime":"","CarInfo":"","Lon":120.4543069,"Lat":23.3798129,"Turn":6,"DayValue":"一","RecycleDate":""},{"StopId":3622,"StopName":"崎內國小38-10號","ScheduleTime":"17:28","EstimateTime":"","CarInfo":"","Lon":120.4673394,"Lat":23.3849652,"Turn":7,"DayValue":"一","RecycleDate":""},{"StopId":3623,"StopName":"外崎內16號","ScheduleTime":"17:33","EstimateTime":"","CarInfo":"","Lon":120.4551115,"Lat":23.3802575,"Turn":8,"DayValue":"一","RecycleDate":""},{"StopId":3624,"StopName":"國公爺廟前社區(竹門)58-36號","ScheduleTime":"17:35","EstimateTime":"","CarInfo":"","Lon":120.4512045,"Lat":23.3781152,"Turn":9,"DayValue":"一","RecycleDate":""},{"StopId":3625,"StopName":"埤仔頭8號","ScheduleTime":"17:47","EstimateTime":"","CarInfo":"","Lon":120.4383613,"Lat":23.3673724,"Turn":10,"DayValue":"一","RecycleDate":""},{"StopId":3626,"StopName":"惡狗厝竹子圍1-4號","ScheduleTime":"17:58","EstimateTime":"","CarInfo":"","Lon":120.4382974,"Lat":23.3764841,"Turn":11,"DayValue":"一","RecycleDate":""},{"StopId":3627,"StopName":"番子園7-2號","ScheduleTime":"18:01","EstimateTime":"","CarInfo":"","Lon":120.4363277,"Lat":23.3803053,"Turn":12,"DayValue":"一","RecycleDate":""},{"StopId":3628,"StopName":"甘宅里45-1號全部","ScheduleTime":"18:10","EstimateTime":"","CarInfo":"","Lon":120.4391455,"Lat":23.3828718,"Turn":13,"DayValue":"一","RecycleDate":""},{"StopId":3629,"StopName":"草店里8-1號","ScheduleTime":"18:20","EstimateTime":"","CarInfo":"","Lon":120.4388599,"Lat":23.3930588,"Turn":14,"DayValue":"一","RecycleDate":""},{"StopId":3630,"StopName":"內角里67-1號","ScheduleTime":"18:30","EstimateTime":"","CarInfo":"","Lon":120.437575,"Lat":23.3982359,"Turn":15,"DayValue":"一","RecycleDate":""},{"StopId":3631,"StopName":"太城宮46號","ScheduleTime":"18:36","EstimateTime":"","CarInfo":"","Lon":120.4376586,"Lat":23.3980113,"Turn":16,"DayValue":"一","RecycleDate":""},{"StopId":3632,"StopName":"乞丐營103號","ScheduleTime":"18:40","EstimateTime":"","CarInfo":"","Lon":120.4341605,"Lat":23.4014901,"Turn":17,"DayValue":"一","RecycleDate":""},{"StopId":3633,"StopName":"大埔109號","ScheduleTime":"18:44","EstimateTime":"","CarInfo":"","Lon":120.4235578,"Lat":23.3951357,"Turn":18,"DayValue":"一","RecycleDate":""},{"StopId":3634,"StopName":"橋頭84-1號","ScheduleTime":"18:47","EstimateTime":"","CarInfo":"","Lon":120.4303632,"Lat":23.3876915,"Turn":19,"DayValue":"一","RecycleDate":""},{"StopId":3635,"StopName":"下面厝仔93-3號","ScheduleTime":"18:49","EstimateTime":"","CarInfo":"","Lon":120.4323239,"Lat":23.3849442,"Turn":20,"DayValue":"一","RecycleDate":""}],"CarData":[],"RouteId":98,"RouteName":"白河-6-1","RouteInfo":"洪厝溪洲21號~下面厝仔93-3號","IsWork":false}]