[{"StopData":[{"StopId":17466,"StopName":"忠孝路243巷前","ScheduleTime":"16:50","EstimateTime":"","CarInfo":"","Lon":120.302143,"Lat":23.037382,"Turn":1,"DayValue":"四","RecycleDate":"四"},{"StopId":17467,"StopName":"正新路251巷19號(聯興市場)","ScheduleTime":"16:53","EstimateTime":"","CarInfo":"","Lon":120.302302,"Lat":23.036716,"Turn":2,"DayValue":"四","RecycleDate":"四"},{"StopId":17468,"StopName":"正新路265號","ScheduleTime":"16:55","EstimateTime":"","CarInfo":"","Lon":120.30303,"Lat":23.037058,"Turn":3,"DayValue":"四","RecycleDate":"四"},{"StopId":17469,"StopName":"民權街122號","ScheduleTime":"16:58","EstimateTime":"","CarInfo":"","Lon":120.304493,"Lat":23.039319,"Turn":4,"DayValue":"四","RecycleDate":"四"},{"StopId":17470,"StopName":"民權街166號(紅橋)","ScheduleTime":"17:01","EstimateTime":"","CarInfo":"","Lon":120.304414,"Lat":23.040229,"Turn":5,"DayValue":"四","RecycleDate":"四"},{"StopId":17471,"StopName":"中正路633巷10號","ScheduleTime":"17:03","EstimateTime":"","CarInfo":"","Lon":120.305647,"Lat":23.040318,"Turn":6,"DayValue":"四","RecycleDate":"四"},{"StopId":17472,"StopName":"中正路580巷2-7號(水利會前)","ScheduleTime":"17:06","EstimateTime":"","CarInfo":"","Lon":120.306327,"Lat":23.041338,"Turn":7,"DayValue":"四","RecycleDate":"四"},{"StopId":17473,"StopName":"民生路300號","ScheduleTime":"17:08","EstimateTime":"","CarInfo":"","Lon":120.306607,"Lat":23.042764,"Turn":8,"DayValue":"四","RecycleDate":"四"},{"StopId":17474,"StopName":"民生路314巷16號","ScheduleTime":"17:11","EstimateTime":"","CarInfo":"","Lon":120.306943,"Lat":23.043219,"Turn":9,"DayValue":"四","RecycleDate":"四"},{"StopId":17475,"StopName":"民生路314巷36號","ScheduleTime":"17:13","EstimateTime":"","CarInfo":"","Lon":120.307572,"Lat":23.043171,"Turn":10,"DayValue":"四","RecycleDate":"四"},{"StopId":17476,"StopName":"民生路234巷15號","ScheduleTime":"17:21","EstimateTime":"","CarInfo":"","Lon":120.307753,"Lat":23.041709,"Turn":11,"DayValue":"四","RecycleDate":"四"},{"StopId":17477,"StopName":"民生路315號","ScheduleTime":"17:24","EstimateTime":"","CarInfo":"","Lon":120.306248,"Lat":23.042857,"Turn":12,"DayValue":"四","RecycleDate":"四"},{"StopId":17478,"StopName":"民生路221號至高中後門迴轉","ScheduleTime":"17:26","EstimateTime":"","CarInfo":"","Lon":120.308697,"Lat":23.039804,"Turn":13,"DayValue":"四","RecycleDate":"四"},{"StopId":17479,"StopName":"中正路590巷1號","ScheduleTime":"17:30","EstimateTime":"","CarInfo":"","Lon":120.305365,"Lat":23.043028,"Turn":14,"DayValue":"四","RecycleDate":"四"},{"StopId":17480,"StopName":"中正路707巷11號","ScheduleTime":"17:32","EstimateTime":"","CarInfo":"","Lon":120.304427,"Lat":23.04259,"Turn":15,"DayValue":"四","RecycleDate":"四"},{"StopId":17481,"StopName":"中正路707巷33號","ScheduleTime":"17:36","EstimateTime":"","CarInfo":"","Lon":120.303201,"Lat":23.04208,"Turn":16,"DayValue":"四","RecycleDate":"四"},{"StopId":17482,"StopName":"太平街150巷222號","ScheduleTime":"17:39","EstimateTime":"","CarInfo":"","Lon":120.300292,"Lat":23.04061,"Turn":17,"DayValue":"四","RecycleDate":"四"},{"StopId":17483,"StopName":"太平街150巷與大新路116巷口","ScheduleTime":"17:41","EstimateTime":"","CarInfo":"","Lon":120.300468,"Lat":23.039885,"Turn":18,"DayValue":"四","RecycleDate":"四"},{"StopId":17484,"StopName":"正新路363巷43號","ScheduleTime":"17:44","EstimateTime":"","CarInfo":"","Lon":120.30099,"Lat":23.03972,"Turn":19,"DayValue":"四","RecycleDate":"四"},{"StopId":17485,"StopName":"正新路363巷22號(京都大樓)","ScheduleTime":"17:46","EstimateTime":"","CarInfo":"","Lon":120.302138,"Lat":23.040147,"Turn":20,"DayValue":"四","RecycleDate":"四"},{"StopId":17486,"StopName":"太平街150巷1號","ScheduleTime":"17:51","EstimateTime":"","CarInfo":"","Lon":120.300802,"Lat":23.038397,"Turn":21,"DayValue":"四","RecycleDate":"四"},{"StopId":17487,"StopName":"正新路312號","ScheduleTime":"17:53","EstimateTime":"","CarInfo":"","Lon":120.302722,"Lat":23.039245,"Turn":22,"DayValue":"四","RecycleDate":"四"},{"StopId":17488,"StopName":"大新路116巷15號","ScheduleTime":"17:56","EstimateTime":"","CarInfo":"","Lon":120.29891,"Lat":23.039323,"Turn":23,"DayValue":"四","RecycleDate":"四"},{"StopId":17489,"StopName":"大新路79號(大新大樓)","ScheduleTime":"17:58","EstimateTime":"","CarInfo":"","Lon":120.298275,"Lat":23.038482,"Turn":24,"DayValue":"四","RecycleDate":"四"},{"StopId":17490,"StopName":"大新路3號","ScheduleTime":"18:00","EstimateTime":"","CarInfo":"","Lon":120.29957,"Lat":23.037141,"Turn":25,"DayValue":"四","RecycleDate":"四"},{"StopId":17491,"StopName":"民治路與中山路路口","ScheduleTime":"18:03","EstimateTime":"","CarInfo":"","Lon":120.304034,"Lat":23.035807,"Turn":26,"DayValue":"四","RecycleDate":"四"},{"StopId":17492,"StopName":"民治路與信義路路口","ScheduleTime":"18:05","EstimateTime":"","CarInfo":"","Lon":120.304143,"Lat":23.034564,"Turn":27,"DayValue":"四","RecycleDate":"四"},{"StopId":17493,"StopName":"民治路41號","ScheduleTime":"18:09","EstimateTime":"","CarInfo":"","Lon":120.304446,"Lat":23.032878,"Turn":28,"DayValue":"四","RecycleDate":"四"},{"StopId":17494,"StopName":"長青街與竹林路路口","ScheduleTime":"18:14","EstimateTime":"","CarInfo":"","Lon":120.30571,"Lat":23.036547,"Turn":29,"DayValue":"四","RecycleDate":"四"},{"StopId":17495,"StopName":"仁愛街80號","ScheduleTime":"18:17","EstimateTime":"","CarInfo":"","Lon":120.30597,"Lat":23.037229,"Turn":30,"DayValue":"四","RecycleDate":"四"},{"StopId":17496,"StopName":"仁愛街54-3號","ScheduleTime":"18:20","EstimateTime":"","CarInfo":"","Lon":120.306967,"Lat":23.037302,"Turn":31,"DayValue":"四","RecycleDate":"四"},{"StopId":17497,"StopName":"信義路103號","ScheduleTime":"19:00","EstimateTime":"","CarInfo":"","Lon":120.314535,"Lat":23.037672,"Turn":32,"DayValue":"四","RecycleDate":"四"},{"StopId":17498,"StopName":"信義路83-2號","ScheduleTime":"19:04","EstimateTime":"","CarInfo":"","Lon":120.315768,"Lat":23.038505,"Turn":33,"DayValue":"四","RecycleDate":"四"},{"StopId":17499,"StopName":"復興路292-2號(不二髮門)","ScheduleTime":"19:14","EstimateTime":"","CarInfo":"","Lon":120.310455,"Lat":23.036294,"Turn":34,"DayValue":"四","RecycleDate":"四"},{"StopId":17500,"StopName":"大同街108號","ScheduleTime":"19:18","EstimateTime":"","CarInfo":"","Lon":120.306913,"Lat":23.035307,"Turn":35,"DayValue":"四","RecycleDate":"四"},{"StopId":17501,"StopName":"信義路與和平街路口","ScheduleTime":"19:22","EstimateTime":"","CarInfo":"","Lon":120.306199,"Lat":23.034754,"Turn":36,"DayValue":"四","RecycleDate":"四"},{"StopId":17502,"StopName":"大同街53號","ScheduleTime":"19:25","EstimateTime":"","CarInfo":"","Lon":120.307185,"Lat":23.033739,"Turn":37,"DayValue":"四","RecycleDate":"四"},{"StopId":17503,"StopName":"和平街131(新象大樓)","ScheduleTime":"19:28","EstimateTime":"","CarInfo":"","Lon":120.306346,"Lat":23.033321,"Turn":38,"DayValue":"四","RecycleDate":"四"},{"StopId":17504,"StopName":"信義路352號","ScheduleTime":"19:31","EstimateTime":"","CarInfo":"","Lon":120.30533,"Lat":23.034686,"Turn":39,"DayValue":"四","RecycleDate":"四"},{"StopId":17505,"StopName":"健康路101巷口","ScheduleTime":"19:33","EstimateTime":"","CarInfo":"","Lon":120.305272,"Lat":23.033573,"Turn":40,"DayValue":"四","RecycleDate":"四"},{"StopId":17506,"StopName":"健康路21號","ScheduleTime":"19:36","EstimateTime":"","CarInfo":"","Lon":120.305749,"Lat":23.033019,"Turn":41,"DayValue":"四","RecycleDate":"四"},{"StopId":17507,"StopName":"正新南路91號","ScheduleTime":"19:38","EstimateTime":"","CarInfo":"","Lon":120.306641,"Lat":23.032025,"Turn":42,"DayValue":"四","RecycleDate":"四"},{"StopId":17508,"StopName":"正新南路182號","ScheduleTime":"19:41","EstimateTime":"","CarInfo":"","Lon":120.304805,"Lat":23.031553,"Turn":43,"DayValue":"四","RecycleDate":"四"},{"StopId":17509,"StopName":"民治路15號","ScheduleTime":"19:43","EstimateTime":"","CarInfo":"","Lon":120.304595,"Lat":23.032096,"Turn":44,"DayValue":"四","RecycleDate":"四"},{"StopId":17510,"StopName":"民治路(香吉士大樓)","ScheduleTime":"19:45","EstimateTime":"","CarInfo":"","Lon":120.303919,"Lat":23.033272,"Turn":45,"DayValue":"四","RecycleDate":"四"},{"StopId":17511,"StopName":"健康路47巷32號","ScheduleTime":"19:49","EstimateTime":"","CarInfo":"","Lon":120.305737,"Lat":23.032261,"Turn":46,"DayValue":"四","RecycleDate":"四"},{"StopId":17512,"StopName":"正新路135號","ScheduleTime":"19:55","EstimateTime":"","CarInfo":"","Lon":120.302996,"Lat":23.033559,"Turn":47,"DayValue":"四","RecycleDate":"四"},{"StopId":17513,"StopName":"正新路27號","ScheduleTime":"20:00","EstimateTime":"","CarInfo":"","Lon":120.303768,"Lat":23.031435,"Turn":48,"DayValue":"四","RecycleDate":"四"},{"StopId":17514,"StopName":"正新路217巷路口","ScheduleTime":"20:07","EstimateTime":"","CarInfo":"","Lon":120.302934,"Lat":23.035162,"Turn":49,"DayValue":"四","RecycleDate":"四"},{"StopId":17515,"StopName":"信義路與大智路口500號","ScheduleTime":"20:11","EstimateTime":"","CarInfo":"","Lon":120.300995,"Lat":23.035468,"Turn":50,"DayValue":"四","RecycleDate":"四"},{"StopId":17516,"StopName":"信義路484巷1號(信義大樓)","ScheduleTime":"20:14","EstimateTime":"","CarInfo":"","Lon":120.301755,"Lat":23.034643,"Turn":51,"DayValue":"四","RecycleDate":"四"},{"StopId":17517,"StopName":"中山路439號","ScheduleTime":"20:17","EstimateTime":"","CarInfo":"","Lon":120.304708,"Lat":23.035732,"Turn":52,"DayValue":"四","RecycleDate":"四"},{"StopId":17518,"StopName":"中山路355號(盧勝一牙醫診所)","ScheduleTime":"20:20","EstimateTime":"","CarInfo":"","Lon":120.305789,"Lat":23.035757,"Turn":53,"DayValue":"四","RecycleDate":"四"},{"StopId":17519,"StopName":"中山路與大同街路口","ScheduleTime":"20:22","EstimateTime":"","CarInfo":"","Lon":120.30678,"Lat":23.035831,"Turn":54,"DayValue":"四","RecycleDate":"四"},{"StopId":17520,"StopName":"中正路488號(楊逵文學館)","ScheduleTime":"20:23","EstimateTime":"","CarInfo":"","Lon":120.307338,"Lat":23.038125,"Turn":55,"DayValue":"四","RecycleDate":"四"}],"CarData":[],"RouteId":428,"RouteName":"新化-5.4(夜間)","RouteInfo":"忠孝路243巷前~中正路488號(楊逵文學館)","IsWork":false}]