[{"StopData":[{"StopId":7629,"StopName":"新吉高球場:新吉里146-2號","ScheduleTime":"14:00","EstimateTime":"","CarInfo":"","Lon":120.2102147,"Lat":23.0885701,"Turn":1,"DayValue":"一,五","RecycleDate":""},{"StopId":7630,"StopName":"137茶坊:新吉里60-7號","ScheduleTime":"14:02","EstimateTime":"","CarInfo":"","Lon":120.2103672,"Lat":23.0865818,"Turn":2,"DayValue":"一,五","RecycleDate":""},{"StopId":7631,"StopName":"里長宅:新吉里127號","ScheduleTime":"14:04","EstimateTime":"","CarInfo":"","Lon":120.2104101,"Lat":23.084144,"Turn":3,"DayValue":"一,五","RecycleDate":""},{"StopId":7632,"StopName":"幸連髮型坊:新吉里135號","ScheduleTime":"14:06","EstimateTime":"","CarInfo":"","Lon":120.2105818,"Lat":23.0858021,"Turn":4,"DayValue":"一,五","RecycleDate":""},{"StopId":7633,"StopName":"合羅殿:新吉里193號","ScheduleTime":"14:09","EstimateTime":"","CarInfo":"","Lon":120.2104745,"Lat":23.0869865,"Turn":5,"DayValue":"一,五","RecycleDate":""},{"StopId":7634,"StopName":"新吉里254號","ScheduleTime":"14:10","EstimateTime":"","CarInfo":"","Lon":120.209636,"Lat":23.086291,"Turn":6,"DayValue":"一,五","RecycleDate":""},{"StopId":7635,"StopName":"新吉里49-36號","ScheduleTime":"14:14","EstimateTime":"","CarInfo":"","Lon":120.209652,"Lat":23.086006,"Turn":7,"DayValue":"一,五","RecycleDate":""},{"StopId":7636,"StopName":"新吉里59-3號","ScheduleTime":"14:17","EstimateTime":"","CarInfo":"","Lon":120.209522,"Lat":23.084619,"Turn":8,"DayValue":"一,五","RecycleDate":""},{"StopId":7637,"StopName":"昱城裝潢:新吉里56-15號","ScheduleTime":"14:19","EstimateTime":"","CarInfo":"","Lon":120.206145,"Lat":23.084266,"Turn":9,"DayValue":"一,五","RecycleDate":""},{"StopId":7638,"StopName":"大銘電器:新吉里56-5號","ScheduleTime":"14:21","EstimateTime":"","CarInfo":"","Lon":120.206033,"Lat":23.082321,"Turn":10,"DayValue":"一,五","RecycleDate":""},{"StopId":7639,"StopName":"華盛頓社區:新吉里56-87號","ScheduleTime":"14:23","EstimateTime":"","CarInfo":"","Lon":120.2044771,"Lat":23.0821701,"Turn":11,"DayValue":"一,五","RecycleDate":""},{"StopId":7640,"StopName":"羅丹小鎮社區內:新吉里51號","ScheduleTime":"14:26","EstimateTime":"","CarInfo":"","Lon":120.210081,"Lat":23.085611,"Turn":12,"DayValue":"一,五","RecycleDate":""},{"StopId":7641,"StopName":"新吉社區活動中心:新吉里99-10號","ScheduleTime":"14:28","EstimateTime":"","CarInfo":"","Lon":120.2123842,"Lat":23.0848398,"Turn":13,"DayValue":"一,五","RecycleDate":""},{"StopId":7642,"StopName":"新吉大廟後:新吉里88-3號","ScheduleTime":"14:30","EstimateTime":"","CarInfo":"","Lon":120.2123949,"Lat":23.0855357,"Turn":14,"DayValue":"一,五","RecycleDate":""},{"StopId":7643,"StopName":"榕樹公住宅:新吉里73-11號","ScheduleTime":"14:32","EstimateTime":"","CarInfo":"","Lon":120.210968,"Lat":23.0853876,"Turn":15,"DayValue":"一,五","RecycleDate":""},{"StopId":7644,"StopName":"新吉里73-16號","ScheduleTime":"14:34","EstimateTime":"","CarInfo":"","Lon":120.2114,"Lat":23.086354,"Turn":16,"DayValue":"一,五","RecycleDate":""},{"StopId":7645,"StopName":"王老師畫室:新吉里22-18號","ScheduleTime":"14:36","EstimateTime":"","CarInfo":"","Lon":120.2143261,"Lat":23.0861426,"Turn":17,"DayValue":"一,五","RecycleDate":""},{"StopId":7646,"StopName":"大地春回社區:新吉里","ScheduleTime":"14:38","EstimateTime":"","CarInfo":"","Lon":120.214847,"Lat":23.087117,"Turn":18,"DayValue":"一,五","RecycleDate":""},{"StopId":7647,"StopName":"集合住宅:新吉里41-4號","ScheduleTime":"14:40","EstimateTime":"","CarInfo":"","Lon":120.212374,"Lat":23.086901,"Turn":19,"DayValue":"一,五","RecycleDate":""},{"StopId":7648,"StopName":"集合住宅:新吉里2-11號","ScheduleTime":"14:42","EstimateTime":"","CarInfo":"","Lon":120.211013,"Lat":23.086771,"Turn":20,"DayValue":"一,五","RecycleDate":""},{"StopId":7649,"StopName":"中榮里3-1號","ScheduleTime":"14:58","EstimateTime":"","CarInfo":"","Lon":120.240277,"Lat":23.094685,"Turn":21,"DayValue":"一,五","RecycleDate":""},{"StopId":7650,"StopName":"中榮里長宅:中榮里10-10號","ScheduleTime":"15:00","EstimateTime":"","CarInfo":"","Lon":120.2405968,"Lat":23.0945526,"Turn":22,"DayValue":"一,五","RecycleDate":""},{"StopId":7651,"StopName":"永龍建設集合住宅:中榮里15-1號","ScheduleTime":"15:02","EstimateTime":"","CarInfo":"","Lon":120.241421,"Lat":23.094362,"Turn":23,"DayValue":"一,五","RecycleDate":""},{"StopId":7652,"StopName":"中榮里雜貨舖:中榮里55號","ScheduleTime":"15:04","EstimateTime":"","CarInfo":"","Lon":120.24252,"Lat":23.094575,"Turn":24,"DayValue":"一,五","RecycleDate":""},{"StopId":7653,"StopName":"集合住宅:中榮里12-41號","ScheduleTime":"15:06","EstimateTime":"","CarInfo":"","Lon":120.242786,"Lat":23.093687,"Turn":25,"DayValue":"一,五","RecycleDate":""},{"StopId":7654,"StopName":"倍幼安幼稚園:中榮里25-9號","ScheduleTime":"15:08","EstimateTime":"","CarInfo":"","Lon":120.243117,"Lat":23.0928938,"Turn":26,"DayValue":"一,五","RecycleDate":""},{"StopId":7655,"StopName":"集合住宅:中榮里23-3號","ScheduleTime":"15:10","EstimateTime":"","CarInfo":"","Lon":120.2441147,"Lat":23.0934658,"Turn":27,"DayValue":"一,五","RecycleDate":""},{"StopId":7656,"StopName":"中榮里大廟後:中榮里27-1號","ScheduleTime":"15:12","EstimateTime":"","CarInfo":"","Lon":120.2433261,"Lat":23.0945514,"Turn":28,"DayValue":"一,五","RecycleDate":""},{"StopId":7657,"StopName":"社區活動中心後:中榮里38-1號","ScheduleTime":"15:14","EstimateTime":"","CarInfo":"","Lon":120.2434763,"Lat":23.0951189,"Turn":29,"DayValue":"一,五","RecycleDate":""},{"StopId":7658,"StopName":"高第建設集合住宅:中榮里40號","ScheduleTime":"15:16","EstimateTime":"","CarInfo":"","Lon":120.242958,"Lat":23.0957576,"Turn":30,"DayValue":"一,五","RecycleDate":""},{"StopId":7659,"StopName":"利祥商店:中榮里","ScheduleTime":"15:18","EstimateTime":"","CarInfo":"","Lon":120.2418995,"Lat":23.0965986,"Turn":31,"DayValue":"一,五","RecycleDate":""},{"StopId":7660,"StopName":"中榮里35-11號","ScheduleTime":"15:20","EstimateTime":"","CarInfo":"","Lon":120.242395,"Lat":23.094986,"Turn":32,"DayValue":"一,五","RecycleDate":""},{"StopId":7661,"StopName":"中榮里38-5號","ScheduleTime":"15:22","EstimateTime":"","CarInfo":"","Lon":120.2440222,"Lat":23.0956097,"Turn":33,"DayValue":"一,五","RecycleDate":""},{"StopId":7662,"StopName":"中榮外環道:中榮里77-11號","ScheduleTime":"15:24","EstimateTime":"","CarInfo":"","Lon":120.242941,"Lat":23.096562,"Turn":34,"DayValue":"一,五","RecycleDate":""},{"StopId":7663,"StopName":"渡仔頭:中榮里95-1號","ScheduleTime":"15:26","EstimateTime":"","CarInfo":"","Lon":120.2432795,"Lat":23.0986233,"Turn":35,"DayValue":"一,五","RecycleDate":""},{"StopId":7664,"StopName":"渡仔頭:中榮里82-26號","ScheduleTime":"15:28","EstimateTime":"","CarInfo":"","Lon":120.2416863,"Lat":23.0970147,"Turn":36,"DayValue":"一,五","RecycleDate":""},{"StopId":7665,"StopName":"輕鋼架:中榮里83號","ScheduleTime":"15:30","EstimateTime":"","CarInfo":"","Lon":120.2411659,"Lat":23.0962005,"Turn":37,"DayValue":"一,五","RecycleDate":""},{"StopId":7666,"StopName":"翁稼茶站:中榮里85號","ScheduleTime":"15:32","EstimateTime":"","CarInfo":"","Lon":120.240726,"Lat":23.0958699,"Turn":38,"DayValue":"一,五","RecycleDate":""},{"StopId":7667,"StopName":"中榮里90-6號","ScheduleTime":"15:34","EstimateTime":"","CarInfo":"","Lon":120.239373,"Lat":23.094782,"Turn":39,"DayValue":"一,五","RecycleDate":""}],"CarData":[],"RouteId":106,"RouteName":"安定-3(日間)","RouteInfo":"新吉高球場:新吉里146-2號~中榮里90-6號","IsWork":false}]