[{"StopData":[{"StopId":9448,"StopName":"文昌路63號旺仔剉冰(起點)","ScheduleTime":"17:23","EstimateTime":"","CarInfo":"","Lon":120.253238,"Lat":23.189384,"Turn":1,"DayValue":"一,二,四,六","RecycleDate":"二,六"},{"StopId":9449,"StopName":"文昌路25-2號文水機車","ScheduleTime":"17:25","EstimateTime":"","CarInfo":"","Lon":120.252773,"Lat":23.186102,"Turn":2,"DayValue":"一,二,四,六","RecycleDate":"二,六"},{"StopId":9450,"StopName":"忠孝路14-3號 林家經濟便當","ScheduleTime":"17:26","EstimateTime":"","CarInfo":"","Lon":120.25099,"Lat":23.185105,"Turn":3,"DayValue":"一,二,四,六","RecycleDate":"二,六"},{"StopId":9451,"StopName":"忠孝路23-26號林眼科","ScheduleTime":"17:26","EstimateTime":"","CarInfo":"","Lon":120.250707,"Lat":23.185288,"Turn":4,"DayValue":"一,二,四,六","RecycleDate":"二,六"},{"StopId":9452,"StopName":"忠孝路10-1號千家素食便當","ScheduleTime":"17:26","EstimateTime":"","CarInfo":"","Lon":120.249933,"Lat":23.185007,"Turn":5,"DayValue":"一,二,四,六","RecycleDate":"二,六"},{"StopId":9453,"StopName":"博愛路1-8號主安醫院","ScheduleTime":"17:34","EstimateTime":"","CarInfo":"","Lon":120.2508023,"Lat":23.1841059,"Turn":6,"DayValue":"一,二,四,六","RecycleDate":"二,六"},{"StopId":9454,"StopName":"復興街24號 北極殿","ScheduleTime":"17:35","EstimateTime":"","CarInfo":"","Lon":120.249307,"Lat":23.184405,"Turn":7,"DayValue":"一,二,四,六","RecycleDate":"二,六"},{"StopId":9455,"StopName":"復興街43號 富國理髮","ScheduleTime":"17:35","EstimateTime":"","CarInfo":"","Lon":120.249009,"Lat":23.184338,"Turn":8,"DayValue":"一,二,四,六","RecycleDate":"二,六"},{"StopId":9456,"StopName":"忠孝路8-11號 市場忠孝路","ScheduleTime":"17:35","EstimateTime":"","CarInfo":"","Lon":120.249168,"Lat":23.185213,"Turn":9,"DayValue":"一,二,四,六","RecycleDate":"二,六"},{"StopId":9457,"StopName":"興南路16號 老人活動中心","ScheduleTime":"17:35","EstimateTime":"","CarInfo":"","Lon":120.248853,"Lat":23.183084,"Turn":10,"DayValue":"一,二,四,六","RecycleDate":"二,六"},{"StopId":9458,"StopName":"民族路1號","ScheduleTime":"17:35","EstimateTime":"","CarInfo":"","Lon":120.249775,"Lat":23.183569,"Turn":11,"DayValue":"一,二,四,六","RecycleDate":"二,六"},{"StopId":9459,"StopName":"民權路2-7號 麻豆戲院","ScheduleTime":"17:35","EstimateTime":"","CarInfo":"","Lon":120.251344,"Lat":23.183468,"Turn":12,"DayValue":"一,二,四,六","RecycleDate":"二,六"},{"StopId":9460,"StopName":"民權路10-2號 便利超商","ScheduleTime":"17:35","EstimateTime":"","CarInfo":"","Lon":120.25135,"Lat":23.182818,"Turn":13,"DayValue":"一,二,四,六","RecycleDate":"二,六"},{"StopId":9461,"StopName":"民權路20-2號晉江里辦公處","ScheduleTime":"17:35","EstimateTime":"","CarInfo":"","Lon":120.251364,"Lat":23.181245,"Turn":14,"DayValue":"一,二,四,六","RecycleDate":"二,六"},{"StopId":9462,"StopName":"民權路66-26號翌愛幼稚園","ScheduleTime":"17:51","EstimateTime":"","CarInfo":"","Lon":120.252251,"Lat":23.178266,"Turn":15,"DayValue":"一,二,四,六","RecycleDate":"二,六"},{"StopId":9463,"StopName":"晉江里柯厝21-2號","ScheduleTime":"17:52","EstimateTime":"","CarInfo":"","Lon":120.2517988,"Lat":23.1790339,"Turn":16,"DayValue":"一,二,四,六","RecycleDate":"二,六"},{"StopId":9464,"StopName":"民權路50號 晉江里廟前","ScheduleTime":"17:52","EstimateTime":"","CarInfo":"","Lon":120.251613,"Lat":23.179736,"Turn":17,"DayValue":"一,二,四,六","RecycleDate":"二,六"},{"StopId":9465,"StopName":"民權路17號 星辰花園","ScheduleTime":"17:52","EstimateTime":"","CarInfo":"","Lon":120.251346,"Lat":23.182096,"Turn":18,"DayValue":"一,二,四,六","RecycleDate":"二,六"},{"StopId":9466,"StopName":"同仁街5號","ScheduleTime":"18:04","EstimateTime":"","CarInfo":"","Lon":120.255726,"Lat":23.182576,"Turn":19,"DayValue":"一,二,四,六","RecycleDate":"二,六"},{"StopId":9467,"StopName":"信義路128號 國泰瓦斯行","ScheduleTime":"18:05","EstimateTime":"","CarInfo":"","Lon":120.256916,"Lat":23.1820632,"Turn":20,"DayValue":"一,二,四,六","RecycleDate":"二,六"},{"StopId":9468,"StopName":"同仁街16號","ScheduleTime":"18:05","EstimateTime":"","CarInfo":"","Lon":120.2556619,"Lat":23.1817938,"Turn":21,"DayValue":"一,二,四,六","RecycleDate":"二,六"},{"StopId":9469,"StopName":"民生路78號 全家福大樓","ScheduleTime":"18:10","EstimateTime":"","CarInfo":"","Lon":120.255145,"Lat":23.179991,"Turn":22,"DayValue":"一,二,四,六","RecycleDate":"二,六"},{"StopId":9470,"StopName":"民生路36-6號 一口萬水餃","ScheduleTime":"18:11","EstimateTime":"","CarInfo":"","Lon":120.2548299,"Lat":23.181154,"Turn":23,"DayValue":"一,二,四,六","RecycleDate":"二,六"},{"StopId":9471,"StopName":"民生路17-1號 喬登美語","ScheduleTime":"18:11","EstimateTime":"","CarInfo":"","Lon":120.254372,"Lat":23.183138,"Turn":24,"DayValue":"一,二,四,六","RecycleDate":"二,六"},{"StopId":9472,"StopName":"文昌路6號 城市貴族大樓","ScheduleTime":"18:20","EstimateTime":"","CarInfo":"","Lon":120.2522027,"Lat":23.1845316,"Turn":25,"DayValue":"一,二,四,六","RecycleDate":"二,六"},{"StopId":9473,"StopName":"忠孝路39-37號 五番社區前","ScheduleTime":"18:21","EstimateTime":"","CarInfo":"","Lon":120.255229,"Lat":23.185197,"Turn":26,"DayValue":"一,二,四,六","RecycleDate":"二,六"},{"StopId":9474,"StopName":"忠孝路31巷34號 三娘廟前","ScheduleTime":"18:29","EstimateTime":"","CarInfo":"","Lon":120.25551,"Lat":23.186721,"Turn":27,"DayValue":"一,二,四,六","RecycleDate":"二,六"},{"StopId":9475,"StopName":"忠孝路52號 致達宿舍","ScheduleTime":"18:30","EstimateTime":"","CarInfo":"","Lon":120.257271,"Lat":23.185962,"Turn":28,"DayValue":"一,二,四,六","RecycleDate":"二,六"},{"StopId":9476,"StopName":"忠孝路65號 永大興業","ScheduleTime":"18:30","EstimateTime":"","CarInfo":"","Lon":120.258766,"Lat":23.185294,"Turn":29,"DayValue":"一,二,四,六","RecycleDate":"二,六"},{"StopId":9477,"StopName":"關帝廟57號 品人園文旦園","ScheduleTime":"18:30","EstimateTime":"","CarInfo":"","Lon":120.2587067,"Lat":23.1892633,"Turn":30,"DayValue":"一,二,四,六","RecycleDate":"二,六"},{"StopId":9478,"StopName":"南勢5-15號 淨靈寺","ScheduleTime":"18:36","EstimateTime":"","CarInfo":"","Lon":120.25938,"Lat":23.186131,"Turn":31,"DayValue":"一,二,四,六","RecycleDate":"二,六"},{"StopId":9479,"StopName":"南勢24-2號 永豐商店","ScheduleTime":"18:37","EstimateTime":"","CarInfo":"","Lon":120.261592,"Lat":23.186484,"Turn":32,"DayValue":"一,二,四,六","RecycleDate":"二,六"},{"StopId":9480,"StopName":"關帝廟23號 前","ScheduleTime":"18:37","EstimateTime":"","CarInfo":"","Lon":120.255969,"Lat":23.190664,"Turn":33,"DayValue":"一,二,四,六","RecycleDate":"二,六"},{"StopId":9481,"StopName":"南勢里1-15號 千翔瓜子行","ScheduleTime":"18:37","EstimateTime":"","CarInfo":"","Lon":120.259431,"Lat":23.185788,"Turn":34,"DayValue":"一,二,四,六","RecycleDate":"二,六"},{"StopId":9482,"StopName":"關帝廟13-3號 富全五金行","ScheduleTime":"18:50","EstimateTime":"","CarInfo":"","Lon":120.260913,"Lat":23.1880078,"Turn":35,"DayValue":"一,二,四,六","RecycleDate":"二,六"},{"StopId":9483,"StopName":"關帝廟25-7號前","ScheduleTime":"18:51","EstimateTime":"","CarInfo":"","Lon":120.2601405,"Lat":23.1874913,"Turn":36,"DayValue":"一,二,四,六","RecycleDate":"二,六"},{"StopId":9484,"StopName":"憶全水電行 龍泉里16-1號","ScheduleTime":"19:00","EstimateTime":"","CarInfo":"","Lon":120.258636,"Lat":23.175891,"Turn":37,"DayValue":"一,二,四,六","RecycleDate":"二,六"},{"StopId":9485,"StopName":"溝子漧42號 太子宮","ScheduleTime":"19:01","EstimateTime":"","CarInfo":"","Lon":120.2566731,"Lat":23.1781831,"Turn":38,"DayValue":"一,二,四,六","RecycleDate":"二,六"},{"StopId":9486,"StopName":"溝子漧56-1號 抽水站前","ScheduleTime":"19:01","EstimateTime":"","CarInfo":"","Lon":120.2577446,"Lat":23.1786734,"Turn":39,"DayValue":"一,二,四,六","RecycleDate":"二,六"},{"StopId":9487,"StopName":"溝子漧89號 龍泉里巷道內","ScheduleTime":"19:01","EstimateTime":"","CarInfo":"","Lon":120.2591647,"Lat":23.1773971,"Turn":40,"DayValue":"一,二,四,六","RecycleDate":"二,六"},{"StopId":9488,"StopName":"溝子漧40-2號 龍泉里巷道內","ScheduleTime":"19:01","EstimateTime":"","CarInfo":"","Lon":120.2605141,"Lat":23.1780253,"Turn":41,"DayValue":"一,二,四,六","RecycleDate":"二,六"},{"StopId":9489,"StopName":"溝子漧102-1號","ScheduleTime":"19:01","EstimateTime":"","CarInfo":"","Lon":120.2618201,"Lat":23.17753,"Turn":42,"DayValue":"一,二,四,六","RecycleDate":"二,六"},{"StopId":9490,"StopName":"溝子漧3-7號 龍泉瓜子行","ScheduleTime":"19:01","EstimateTime":"","CarInfo":"","Lon":120.2601653,"Lat":23.1766364,"Turn":43,"DayValue":"一,二,四,六","RecycleDate":"二,六"},{"StopId":9491,"StopName":"磚井里139-2號","ScheduleTime":"19:19","EstimateTime":"","CarInfo":"","Lon":120.246442,"Lat":23.1651142,"Turn":44,"DayValue":"一,二,四,六","RecycleDate":"二,六"},{"StopId":9492,"StopName":"安業278-3號 四六部冰店","ScheduleTime":"19:20","EstimateTime":"","CarInfo":"","Lon":120.2472832,"Lat":23.1620169,"Turn":45,"DayValue":"一,二,四,六","RecycleDate":"二,六"},{"StopId":9493,"StopName":"安業112號 派出所前","ScheduleTime":"19:20","EstimateTime":"","CarInfo":"","Lon":120.246337,"Lat":23.159331,"Turn":46,"DayValue":"一,二,四,六","RecycleDate":"二,六"},{"StopId":9494,"StopName":"謝厝寮136號 西藥房","ScheduleTime":"19:20","EstimateTime":"","CarInfo":"","Lon":120.2449113,"Lat":23.1592828,"Turn":47,"DayValue":"一,二,四,六","RecycleDate":"二,六"},{"StopId":9495,"StopName":"謝厝寮124-4號 十字路口","ScheduleTime":"19:20","EstimateTime":"","CarInfo":"","Lon":120.2447059,"Lat":23.1599219,"Turn":48,"DayValue":"一,二,四,六","RecycleDate":"二,六"},{"StopId":9496,"StopName":"謝厝寮安溪洲16號","ScheduleTime":"19:42","EstimateTime":"","CarInfo":"","Lon":120.2348258,"Lat":23.1483179,"Turn":49,"DayValue":"一,二,四,六","RecycleDate":"二,六"},{"StopId":9497,"StopName":"安業115-2號 釣蝦場前","ScheduleTime":"19:43","EstimateTime":"","CarInfo":"","Lon":120.2455344,"Lat":23.1603104,"Turn":50,"DayValue":"一,二,四,六","RecycleDate":"二,六"},{"StopId":9498,"StopName":"安業44-5號","ScheduleTime":"19:43","EstimateTime":"","CarInfo":"","Lon":120.2453412,"Lat":23.1613405,"Turn":51,"DayValue":"一,二,四,六","RecycleDate":"二,六"},{"StopId":9499,"StopName":"興國路63-2號 棕梠旅館(終點收運)","ScheduleTime":"19:55","EstimateTime":"","CarInfo":"","Lon":120.246907,"Lat":23.175477,"Turn":52,"DayValue":"一,二,四,六","RecycleDate":"二,六"}],"CarData":[{"CarNo":"373-UT","Angle":180,"Lon":120.253364,"Lat":23.189178}],"RouteId":241,"RouteName":"麻豆-7","RouteInfo":"文昌路63號旺仔剉冰(起點)~興國路63-2號 棕梠旅館(終點收運)","IsWork":true}]