[{"StopData":[{"StopId":6499,"StopName":"長榮里111號","ScheduleTime":"17:23","EstimateTime":"","CarInfo":"","Lon":120.158223,"Lat":23.195971,"Turn":1,"DayValue":"一,三,五,六","RecycleDate":"三,六"},{"StopId":6500,"StopName":"漚汪7-11","ScheduleTime":"17:25","EstimateTime":"","CarInfo":"","Lon":120.158289,"Lat":23.196953,"Turn":2,"DayValue":"一,三,五,六","RecycleDate":"三,六"},{"StopId":6501,"StopName":"漚汪水利站","ScheduleTime":"17:26","EstimateTime":"","CarInfo":"","Lon":120.158816,"Lat":23.195901,"Turn":3,"DayValue":"一,三,五,六","RecycleDate":"三,六"},{"StopId":6502,"StopName":"阿三冰店","ScheduleTime":"17:28","EstimateTime":"","CarInfo":"","Lon":120.159346,"Lat":23.195797,"Turn":4,"DayValue":"一,三,五,六","RecycleDate":"三,六"},{"StopId":6503,"StopName":"長榮太子宮","ScheduleTime":"17:30","EstimateTime":"","CarInfo":"","Lon":120.160055,"Lat":23.196586,"Turn":5,"DayValue":"一,三,五,六","RecycleDate":"三,六"},{"StopId":6504,"StopName":"西華台南排骨飯","ScheduleTime":"17:32","EstimateTime":"","CarInfo":"","Lon":120.15773,"Lat":23.197045,"Turn":6,"DayValue":"一,三,五,六","RecycleDate":"三,六"},{"StopId":6505,"StopName":"舊台電服務所","ScheduleTime":"17:34","EstimateTime":"","CarInfo":"","Lon":120.158193,"Lat":23.194449,"Turn":7,"DayValue":"一,三,五,六","RecycleDate":"三,六"},{"StopId":6506,"StopName":"農會加油站","ScheduleTime":"17:36","EstimateTime":"","CarInfo":"","Lon":120.158349,"Lat":23.191788,"Turn":8,"DayValue":"一,三,五,六","RecycleDate":"三,六"},{"StopId":6507,"StopName":"順樺回收場","ScheduleTime":"17:38","EstimateTime":"","CarInfo":"","Lon":120.158047,"Lat":23.188011,"Turn":9,"DayValue":"一,三,五,六","RecycleDate":"三,六"},{"StopId":6508,"StopName":"洽溢農藥廠","ScheduleTime":"17:41","EstimateTime":"","CarInfo":"","Lon":120.158599,"Lat":23.189644,"Turn":10,"DayValue":"一,三,五,六","RecycleDate":"三,六"},{"StopId":6509,"StopName":"長榮128-2號","ScheduleTime":"17:45","EstimateTime":"","CarInfo":"","Lon":120.158252,"Lat":23.194372,"Turn":11,"DayValue":"一,三,五,六","RecycleDate":"三,六"},{"StopId":6510,"StopName":"漚汪文衡殿","ScheduleTime":"17:47","EstimateTime":"","CarInfo":"","Lon":120.158427,"Lat":23.198343,"Turn":12,"DayValue":"一,三,五,六","RecycleDate":"三,六"},{"StopId":6511,"StopName":"廟前大路（市場）","ScheduleTime":"17:50","EstimateTime":"","CarInfo":"","Lon":120.158338,"Lat":23.197825,"Turn":13,"DayValue":"一,三,五,六","RecycleDate":"三,六"},{"StopId":6512,"StopName":"聖德殿前","ScheduleTime":"17:53","EstimateTime":"","CarInfo":"","Lon":120.158183,"Lat":23.195108,"Turn":14,"DayValue":"一,三,五,六","RecycleDate":"三,六"},{"StopId":6513,"StopName":"忠興20米木材行前","ScheduleTime":"17:56","EstimateTime":"","CarInfo":"","Lon":120.156231,"Lat":23.200526,"Turn":15,"DayValue":"一,三,五,六","RecycleDate":"三,六"},{"StopId":6514,"StopName":"西華高祖厝","ScheduleTime":"18:01","EstimateTime":"","CarInfo":"","Lon":120.156693,"Lat":23.196976,"Turn":16,"DayValue":"一,三,五,六","RecycleDate":"三,六"},{"StopId":6515,"StopName":"西甲大路","ScheduleTime":"18:05","EstimateTime":"","CarInfo":"","Lon":120.153377,"Lat":23.196808,"Turn":17,"DayValue":"一,三,五,六","RecycleDate":"三,六"},{"StopId":6516,"StopName":"西和86號","ScheduleTime":"18:10","EstimateTime":"","CarInfo":"","Lon":120.151057,"Lat":23.197076,"Turn":18,"DayValue":"一,三,五,六","RecycleDate":"三,六"},{"StopId":6517,"StopName":"西甲清湄宮後","ScheduleTime":"18:15","EstimateTime":"","CarInfo":"","Lon":120.152288,"Lat":23.197723,"Turn":19,"DayValue":"一,三,五,六","RecycleDate":"三,六"},{"StopId":6518,"StopName":"西和128號","ScheduleTime":"18:17","EstimateTime":"","CarInfo":"","Lon":120.151176,"Lat":23.194692,"Turn":20,"DayValue":"一,三,五,六","RecycleDate":"三,六"},{"StopId":6519,"StopName":"西華活動中心","ScheduleTime":"18:21","EstimateTime":"","CarInfo":"","Lon":120.154689,"Lat":23.196474,"Turn":21,"DayValue":"一,三,五,六","RecycleDate":"三,六"},{"StopId":6520,"StopName":"西和155號","ScheduleTime":"18:24","EstimateTime":"","CarInfo":"","Lon":120.154842,"Lat":23.195314,"Turn":22,"DayValue":"一,三,五,六","RecycleDate":"三,六"},{"StopId":6521,"StopName":"玉山街","ScheduleTime":"18:26","EstimateTime":"","CarInfo":"","Lon":120.156164,"Lat":23.194652,"Turn":23,"DayValue":"一,三,五,六","RecycleDate":"三,六"},{"StopId":6522,"StopName":"北極宮後","ScheduleTime":"18:28","EstimateTime":"","CarInfo":"","Lon":120.156447,"Lat":23.194452,"Turn":24,"DayValue":"一,三,五,六","RecycleDate":"三,六"},{"StopId":6523,"StopName":"長榮里215-7號","ScheduleTime":"18:29","EstimateTime":"","CarInfo":"","Lon":120.157622,"Lat":23.194536,"Turn":25,"DayValue":"一,三,五,六","RecycleDate":"三,六"},{"StopId":6524,"StopName":"西和活動中心","ScheduleTime":"18:32","EstimateTime":"","CarInfo":"","Lon":120.153004,"Lat":23.194901,"Turn":26,"DayValue":"一,三,五,六","RecycleDate":"三,六"},{"StopId":6525,"StopName":"西和114號","ScheduleTime":"18:35","EstimateTime":"","CarInfo":"","Lon":120.153062,"Lat":23.195374,"Turn":27,"DayValue":"一,三,五,六","RecycleDate":"三,六"},{"StopId":6526,"StopName":"西華75-108號","ScheduleTime":"18:37","EstimateTime":"","CarInfo":"","Lon":120.155608,"Lat":23.198761,"Turn":28,"DayValue":"一,三,五,六","RecycleDate":"三,六"},{"StopId":6527,"StopName":"將軍區農會","ScheduleTime":"18:38","EstimateTime":"","CarInfo":"","Lon":120.158388,"Lat":23.199144,"Turn":29,"DayValue":"一,三,五,六","RecycleDate":"三,六"},{"StopId":6528,"StopName":"將軍電信局","ScheduleTime":"18:39","EstimateTime":"","CarInfo":"","Lon":120.15831,"Lat":23.200231,"Turn":30,"DayValue":"一,三,五,六","RecycleDate":"三,六"},{"StopId":6529,"StopName":"忠興中油加油站","ScheduleTime":"18:43","EstimateTime":"","CarInfo":"","Lon":120.159094,"Lat":23.204633,"Turn":31,"DayValue":"一,三,五,六","RecycleDate":"三,六"},{"StopId":6530,"StopName":"忠興203-11號","ScheduleTime":"18:47","EstimateTime":"","CarInfo":"","Lon":120.159712,"Lat":23.199153,"Turn":32,"DayValue":"一,三,五,六","RecycleDate":"三,六"},{"StopId":6531,"StopName":"將軍衛生所","ScheduleTime":"18:50","EstimateTime":"","CarInfo":"","Lon":120.158413,"Lat":23.201511,"Turn":33,"DayValue":"一,三,五,六","RecycleDate":"三,六"},{"StopId":6532,"StopName":"新榮鐵工場","ScheduleTime":"18:55","EstimateTime":"","CarInfo":"","Lon":120.157501,"Lat":23.200924,"Turn":34,"DayValue":"一,三,五,六","RecycleDate":"三,六"},{"StopId":6533,"StopName":"昌平(東線)","ScheduleTime":"18:58","EstimateTime":"","CarInfo":"","Lon":120.155821,"Lat":23.206012,"Turn":35,"DayValue":"一,三,五,六","RecycleDate":"三,六"},{"StopId":6534,"StopName":"昌平(北線)","ScheduleTime":"19:02","EstimateTime":"","CarInfo":"","Lon":120.152217,"Lat":23.206314,"Turn":36,"DayValue":"一,三,五,六","RecycleDate":"三,六"},{"StopId":6535,"StopName":"忠興98-3號","ScheduleTime":"19:05","EstimateTime":"","CarInfo":"","Lon":120.155242,"Lat":23.201805,"Turn":37,"DayValue":"一,三,五,六","RecycleDate":"三,六"},{"StopId":6536,"StopName":"保養廠 (北向)","ScheduleTime":"19:10","EstimateTime":"","CarInfo":"","Lon":120.157584,"Lat":23.20283,"Turn":38,"DayValue":"一,三,五,六","RecycleDate":"三,六"},{"StopId":6537,"StopName":"忠興151-22號","ScheduleTime":"19:13","EstimateTime":"","CarInfo":"","Lon":120.157029,"Lat":23.204732,"Turn":39,"DayValue":"一,三,五,六","RecycleDate":"三,六"},{"StopId":6538,"StopName":"忠興145-1號","ScheduleTime":"19:16","EstimateTime":"","CarInfo":"","Lon":120.156284,"Lat":23.205412,"Turn":40,"DayValue":"一,三,五,六","RecycleDate":"三,六"},{"StopId":6539,"StopName":"忠興中路南行至郵局","ScheduleTime":"19:18","EstimateTime":"","CarInfo":"","Lon":120.157299,"Lat":23.199412,"Turn":41,"DayValue":"一,三,五,六","RecycleDate":"三,六"}],"CarData":[],"RouteId":231,"RouteName":"將軍-1","RouteInfo":"長榮里111號~忠興中路南行至郵局","IsWork":false}]