[{"StopData":[{"StopId":11673,"StopName":"中正路128號","ScheduleTime":"15:16","EstimateTime":"","CarInfo":"","Lon":120.179522,"Lat":23.230082,"Turn":1,"DayValue":"三","RecycleDate":"三,六"},{"StopId":11674,"StopName":"中正路161號","ScheduleTime":"15:23","EstimateTime":"","CarInfo":"","Lon":120.179596,"Lat":23.231129,"Turn":2,"DayValue":"三","RecycleDate":"三,六"},{"StopId":11675,"StopName":"一秀街集和街路口","ScheduleTime":"17:31","EstimateTime":"","CarInfo":"","Lon":120.176458,"Lat":23.239247,"Turn":3,"DayValue":"三","RecycleDate":"三,六"},{"StopId":11676,"StopName":"一秀街中山路路口","ScheduleTime":"17:36","EstimateTime":"","CarInfo":"","Lon":120.17677,"Lat":23.235405,"Turn":4,"DayValue":"三","RecycleDate":"三,六"},{"StopId":11677,"StopName":"下溪洲16之1號","ScheduleTime":"17:39","EstimateTime":"","CarInfo":"","Lon":120.171411,"Lat":23.23878,"Turn":5,"DayValue":"三","RecycleDate":"三,六"},{"StopId":11678,"StopName":"新生路青年街路口","ScheduleTime":"17:54","EstimateTime":"","CarInfo":"","Lon":120.173468,"Lat":23.238843,"Turn":6,"DayValue":"三","RecycleDate":"三,六"},{"StopId":11679,"StopName":"集和街彭城街路口","ScheduleTime":"17:58","EstimateTime":"","CarInfo":"","Lon":120.1713,"Lat":23.240589,"Turn":7,"DayValue":"三","RecycleDate":"三,六"},{"StopId":11680,"StopName":"下溪洲72號","ScheduleTime":"18:05","EstimateTime":"","CarInfo":"","Lon":120.172954,"Lat":23.239029,"Turn":8,"DayValue":"三","RecycleDate":"三,六"},{"StopId":11681,"StopName":"三連路集和街路口","ScheduleTime":"18:09","EstimateTime":"","CarInfo":"","Lon":120.179269,"Lat":23.238881,"Turn":9,"DayValue":"三","RecycleDate":"三,六"},{"StopId":11682,"StopName":"煥昌20之25號","ScheduleTime":"18:13","EstimateTime":"","CarInfo":"","Lon":120.182261,"Lat":23.238217,"Turn":10,"DayValue":"三","RecycleDate":"三,六"},{"StopId":11683,"StopName":"煥昌88號","ScheduleTime":"18:18","EstimateTime":"","CarInfo":"","Lon":120.181821,"Lat":23.239756,"Turn":11,"DayValue":"三","RecycleDate":"三,六"},{"StopId":11684,"StopName":"煥昌100之42號","ScheduleTime":"18:26","EstimateTime":"","CarInfo":"","Lon":120.180405,"Lat":23.239924,"Turn":12,"DayValue":"三","RecycleDate":"三,六"},{"StopId":11685,"StopName":"中正路19號","ScheduleTime":"18:30","EstimateTime":"","CarInfo":"","Lon":120.183141,"Lat":23.238454,"Turn":13,"DayValue":"三","RecycleDate":"三,六"},{"StopId":11686,"StopName":"華宗路265號","ScheduleTime":"18:36","EstimateTime":"","CarInfo":"","Lon":120.182926,"Lat":23.228224,"Turn":14,"DayValue":"三","RecycleDate":"三,六"},{"StopId":11687,"StopName":"華宗路144號巷口","ScheduleTime":"18:43","EstimateTime":"","CarInfo":"","Lon":120.183745,"Lat":23.224029,"Turn":15,"DayValue":"三","RecycleDate":"三,六"},{"StopId":11688,"StopName":"華宗路204號","ScheduleTime":"18:46","EstimateTime":"","CarInfo":"","Lon":120.183509,"Lat":23.225323,"Turn":16,"DayValue":"三","RecycleDate":"三,六"},{"StopId":11689,"StopName":"東寮63之5號","ScheduleTime":"18:56","EstimateTime":"","CarInfo":"","Lon":120.185789,"Lat":23.225969,"Turn":17,"DayValue":"三","RecycleDate":"三,六"},{"StopId":11690,"StopName":"寶發路156號巷口","ScheduleTime":"19:03","EstimateTime":"","CarInfo":"","Lon":120.18504,"Lat":23.227043,"Turn":18,"DayValue":"三","RecycleDate":"三,六"},{"StopId":11691,"StopName":"和平路134號","ScheduleTime":"19:08","EstimateTime":"","CarInfo":"","Lon":120.177874,"Lat":23.229584,"Turn":19,"DayValue":"三","RecycleDate":"三,六"},{"StopId":11692,"StopName":"仁和街51號","ScheduleTime":"19:15","EstimateTime":"","CarInfo":"","Lon":120.179126,"Lat":23.222622,"Turn":20,"DayValue":"三","RecycleDate":"三,六"},{"StopId":11693,"StopName":"公園街3號","ScheduleTime":"19:22","EstimateTime":"","CarInfo":"","Lon":120.182216,"Lat":23.226994,"Turn":21,"DayValue":"三","RecycleDate":"三,六"},{"StopId":11694,"StopName":"寶發路210之5號巷口","ScheduleTime":"19:25","EstimateTime":"","CarInfo":"","Lon":120.183546,"Lat":23.226825,"Turn":22,"DayValue":"三","RecycleDate":"三,六"}],"CarData":[],"RouteId":295,"RouteName":"學甲-3(每星期三)","RouteInfo":"中正路128號~寶發路210之5號巷口","IsWork":false}]