[{"StopData":[{"StopId":11804,"StopName":"博愛街20號","ScheduleTime":"17:50","EstimateTime":"","CarInfo":"","Lon":120.3109425,"Lat":23.2778827,"Turn":1,"DayValue":"六","RecycleDate":"一,五"},{"StopId":11805,"StopName":"進學1，2街 61號","ScheduleTime":"17:52","EstimateTime":"","CarInfo":"","Lon":120.309583,"Lat":23.275481,"Turn":2,"DayValue":"六","RecycleDate":"一,五"},{"StopId":11806,"StopName":"育英街107號","ScheduleTime":"17:54","EstimateTime":"","CarInfo":"","Lon":120.309753,"Lat":23.274908,"Turn":3,"DayValue":"六","RecycleDate":"一,五"},{"StopId":11807,"StopName":"育英街28號","ScheduleTime":"17:56","EstimateTime":"","CarInfo":"","Lon":120.311658,"Lat":23.275868,"Turn":4,"DayValue":"六","RecycleDate":"一,五"},{"StopId":11808,"StopName":"柳營路一段765號","ScheduleTime":"17:58","EstimateTime":"","CarInfo":"","Lon":120.312184,"Lat":23.276498,"Turn":5,"DayValue":"六","RecycleDate":"一,五"},{"StopId":11809,"StopName":"中山西路2段187號","ScheduleTime":"18:59","EstimateTime":"","CarInfo":"","Lon":120.31283,"Lat":23.276597,"Turn":6,"DayValue":"六","RecycleDate":"一,五"},{"StopId":11810,"StopName":"中山西路2段133號","ScheduleTime":"18:00","EstimateTime":"","CarInfo":"","Lon":120.313903,"Lat":23.276709,"Turn":7,"DayValue":"六","RecycleDate":"一,五"},{"StopId":11811,"StopName":"中山西路2段10號","ScheduleTime":"18:03","EstimateTime":"","CarInfo":"","Lon":120.315683,"Lat":23.276981,"Turn":8,"DayValue":"六","RecycleDate":"一,五"},{"StopId":11812,"StopName":"建安街116號","ScheduleTime":"18:05","EstimateTime":"","CarInfo":"","Lon":120.315149,"Lat":23.276378,"Turn":9,"DayValue":"六","RecycleDate":"一,五"},{"StopId":11813,"StopName":"建安街42巷7號","ScheduleTime":"18:07","EstimateTime":"","CarInfo":"","Lon":120.314167,"Lat":23.275262,"Turn":10,"DayValue":"六","RecycleDate":"一,五"},{"StopId":11814,"StopName":"柳營路一段918號","ScheduleTime":"18:09","EstimateTime":"","CarInfo":"","Lon":120.313172,"Lat":23.275006,"Turn":11,"DayValue":"六","RecycleDate":"一,五"},{"StopId":11815,"StopName":"柳營路一段986號","ScheduleTime":"18:11","EstimateTime":"","CarInfo":"","Lon":120.312806,"Lat":23.276218,"Turn":12,"DayValue":"六","RecycleDate":"一,五"},{"StopId":11816,"StopName":"福中街33號","ScheduleTime":"18:15","EstimateTime":"","CarInfo":"","Lon":120.314169,"Lat":23.277716,"Turn":13,"DayValue":"六","RecycleDate":"一,五"},{"StopId":11817,"StopName":"福德ㄧ街50號","ScheduleTime":"18:19","EstimateTime":"","CarInfo":"","Lon":120.313864,"Lat":23.277229,"Turn":14,"DayValue":"六","RecycleDate":"一,五"},{"StopId":11818,"StopName":"建安街46號","ScheduleTime":"18:21","EstimateTime":"","CarInfo":"","Lon":120.313401,"Lat":23.275661,"Turn":15,"DayValue":"六","RecycleDate":"一,五"},{"StopId":11819,"StopName":"柳營路一段741巷11號","ScheduleTime":"18:26","EstimateTime":"","CarInfo":"","Lon":120.312506,"Lat":23.273832,"Turn":16,"DayValue":"六","RecycleDate":"一,五"},{"StopId":11820,"StopName":"中山西路一段79號","ScheduleTime":"18:29","EstimateTime":"","CarInfo":"","Lon":120.323203,"Lat":23.279084,"Turn":17,"DayValue":"六","RecycleDate":"一,五"},{"StopId":11821,"StopName":"中山西路一段1號","ScheduleTime":"18:31","EstimateTime":"","CarInfo":"","Lon":120.324914,"Lat":23.279117,"Turn":18,"DayValue":"六","RecycleDate":"一,五"},{"StopId":11822,"StopName":"中山東路2段876號","ScheduleTime":"18:33","EstimateTime":"","CarInfo":"","Lon":120.333344,"Lat":23.279349,"Turn":19,"DayValue":"六","RecycleDate":"一,五"},{"StopId":11824,"StopName":"小腳腿21之9號","ScheduleTime":"18:41","EstimateTime":"","CarInfo":"","Lon":120.366808,"Lat":23.288767,"Turn":20,"DayValue":"六","RecycleDate":"一,五"},{"StopId":11825,"StopName":"小腳腿229號","ScheduleTime":"18:43","EstimateTime":"","CarInfo":"","Lon":120.367079,"Lat":23.290179,"Turn":21,"DayValue":"六","RecycleDate":"一,五"},{"StopId":11826,"StopName":"小腳腿175號5之3","ScheduleTime":"18:48","EstimateTime":"","CarInfo":"","Lon":120.366474,"Lat":23.28497,"Turn":22,"DayValue":"六","RecycleDate":"一,五"},{"StopId":11827,"StopName":"小腳腿335號","ScheduleTime":"18:51","EstimateTime":"","CarInfo":"","Lon":120.366474,"Lat":23.28497,"Turn":23,"DayValue":"六","RecycleDate":"一,五"},{"StopId":11828,"StopName":"小腳腿258號","ScheduleTime":"18:53","EstimateTime":"","CarInfo":"","Lon":120.366474,"Lat":23.28497,"Turn":24,"DayValue":"六","RecycleDate":"一,五"},{"StopId":11829,"StopName":"小腳腿253號","ScheduleTime":"18:57","EstimateTime":"","CarInfo":"","Lon":120.366474,"Lat":23.28497,"Turn":25,"DayValue":"六","RecycleDate":"一,五"},{"StopId":11830,"StopName":"小腳腿316號","ScheduleTime":"18:59","EstimateTime":"","CarInfo":"","Lon":120.366474,"Lat":23.28497,"Turn":26,"DayValue":"六","RecycleDate":"一,五"},{"StopId":11831,"StopName":"小腳腿325號","ScheduleTime":"19:00","EstimateTime":"","CarInfo":"","Lon":120.365977,"Lat":23.293917,"Turn":27,"DayValue":"六","RecycleDate":"一,五"},{"StopId":11832,"StopName":"小腳腿227號之1","ScheduleTime":"19:07","EstimateTime":"","CarInfo":"","Lon":120.366474,"Lat":23.28497,"Turn":28,"DayValue":"六","RecycleDate":"一,五"},{"StopId":11833,"StopName":"小腳腿276號","ScheduleTime":"19:10","EstimateTime":"","CarInfo":"","Lon":120.38501,"Lat":23.271601,"Turn":29,"DayValue":"六","RecycleDate":"一,五"},{"StopId":11834,"StopName":"165線牌樓","ScheduleTime":"19:12","EstimateTime":"","CarInfo":"","Lon":120.3827602,"Lat":23.2752146,"Turn":30,"DayValue":"六","RecycleDate":"一,五"},{"StopId":11835,"StopName":"碧興宮","ScheduleTime":"19:14","EstimateTime":"","CarInfo":"","Lon":120.384205,"Lat":23.270999,"Turn":31,"DayValue":"六","RecycleDate":"一,五"},{"StopId":11836,"StopName":"果毅後15號之6","ScheduleTime":"19:16","EstimateTime":"","CarInfo":"","Lon":120.384141,"Lat":23.270526,"Turn":32,"DayValue":"六","RecycleDate":"一,五"},{"StopId":11837,"StopName":"果毅後14之1號","ScheduleTime":"19:26","EstimateTime":"","CarInfo":"","Lon":120.3729738,"Lat":23.2598576,"Turn":33,"DayValue":"六","RecycleDate":"一,五"}],"CarData":[],"RouteId":377,"RouteName":"柳營二線之三","RouteInfo":"博愛街20號~果毅後14之1號","IsWork":false}]