[{"StopData":[{"StopId":16160,"StopName":"中華東路三段336巷43弄18號","ScheduleTime":"15:37","EstimateTime":"","CarInfo":"","Lon":120.220422,"Lat":22.974863,"Turn":1,"DayValue":"一,二,四,六","RecycleDate":"二,六"},{"StopId":16161,"StopName":"崇明路32號","ScheduleTime":"15:43","EstimateTime":"","CarInfo":"","Lon":120.216324,"Lat":22.981439,"Turn":2,"DayValue":"一,二,四,六","RecycleDate":"二,六"},{"StopId":16162,"StopName":"崇明路68號","ScheduleTime":"15:46","EstimateTime":"","CarInfo":"","Lon":120.216876,"Lat":22.980667,"Turn":3,"DayValue":"一,二,四,六","RecycleDate":"二,六"},{"StopId":16163,"StopName":"崇明路168號","ScheduleTime":"15:50","EstimateTime":"","CarInfo":"","Lon":120.217549,"Lat":22.979603,"Turn":4,"DayValue":"一,二,四,六","RecycleDate":"二,六"},{"StopId":16164,"StopName":"中華東路三段175號{加油站}旁","ScheduleTime":"15:56","EstimateTime":"","CarInfo":"","Lon":120.225823,"Lat":22.976931,"Turn":5,"DayValue":"一,二,四,六","RecycleDate":"二,六"},{"StopId":16165,"StopName":"崇善路232巷35號","ScheduleTime":"15:59","EstimateTime":"","CarInfo":"","Lon":120.226446,"Lat":22.976722,"Turn":6,"DayValue":"一,二,四,六","RecycleDate":"二,六"},{"StopId":16166,"StopName":"崇德五街2巷11弄72號旁","ScheduleTime":"16:03","EstimateTime":"","CarInfo":"","Lon":120.227683,"Lat":22.976683,"Turn":7,"DayValue":"一,二,四,六","RecycleDate":"二,六"},{"StopId":16167,"StopName":"崇善路336號","ScheduleTime":"16:07","EstimateTime":"","CarInfo":"","Lon":120.228547,"Lat":22.975927,"Turn":8,"DayValue":"一,二,四,六","RecycleDate":"二,六"},{"StopId":16168,"StopName":"崇德路543號（崇義市場停車場）","ScheduleTime":"16:14","EstimateTime":"","CarInfo":"","Lon":120.22751,"Lat":22.973606,"Turn":9,"DayValue":"一,二,四,六","RecycleDate":"二,六"},{"StopId":16169,"StopName":"崇德路471之3號(崇德六街口)","ScheduleTime":"16:20","EstimateTime":"","CarInfo":"","Lon":120.226473,"Lat":22.974655,"Turn":10,"DayValue":"一,二,四,六","RecycleDate":"二,六"},{"StopId":16170,"StopName":"崇德七街20巷口 (崇德公園)","ScheduleTime":"16:25","EstimateTime":"","CarInfo":"","Lon":120.227469,"Lat":22.975125,"Turn":11,"DayValue":"一,二,四,六","RecycleDate":"二,六"},{"StopId":16171,"StopName":"崇德七街30巷71號對面","ScheduleTime":"16:29","EstimateTime":"","CarInfo":"","Lon":120.22855,"Lat":22.974542,"Turn":12,"DayValue":"一,二,四,六","RecycleDate":"二,六"},{"StopId":16172,"StopName":"崇德九街52號旁{崇德九街口}","ScheduleTime":"16:33","EstimateTime":"","CarInfo":"","Lon":120.22891,"Lat":22.973428,"Turn":13,"DayValue":"一,二,四,六","RecycleDate":"二,六"},{"StopId":16173,"StopName":"崇德十街50號旁{崇德十街口}","ScheduleTime":"16:36","EstimateTime":"","CarInfo":"","Lon":120.229,"Lat":22.973107,"Turn":14,"DayValue":"一,二,四,六","RecycleDate":"二,六"},{"StopId":16174,"StopName":"崇德十一街64號旁{崇德十一街口}","ScheduleTime":"16:40","EstimateTime":"","CarInfo":"","Lon":120.229166,"Lat":22.972583,"Turn":15,"DayValue":"一,二,四,六","RecycleDate":"二,六"},{"StopId":16175,"StopName":"崇道路15號前","ScheduleTime":"16:46","EstimateTime":"","CarInfo":"","Lon":120.225916,"Lat":22.972161,"Turn":16,"DayValue":"一,二,四,六","RecycleDate":"二,六"},{"StopId":16176,"StopName":"崇明十四街10號前","ScheduleTime":"16:50","EstimateTime":"","CarInfo":"","Lon":120.225179,"Lat":22.973166,"Turn":17,"DayValue":"一,二,四,六","RecycleDate":"二,六"},{"StopId":16177,"StopName":"崇德路508巷58號前","ScheduleTime":"16:54","EstimateTime":"","CarInfo":"","Lon":120.22569,"Lat":22.97376,"Turn":18,"DayValue":"一,二,四,六","RecycleDate":"二,六"},{"StopId":16178,"StopName":"崇明十四街62號前","ScheduleTime":"16:58","EstimateTime":"","CarInfo":"","Lon":120.225695,"Lat":22.973763,"Turn":19,"DayValue":"一,二,四,六","RecycleDate":"二,六"},{"StopId":16179,"StopName":"崇明十三街16號前","ScheduleTime":"17:03","EstimateTime":"","CarInfo":"","Lon":120.224489,"Lat":22.973809,"Turn":20,"DayValue":"一,二,四,六","RecycleDate":"二,六"},{"StopId":16180,"StopName":"崇明十三街10巷100號（崇明十三街口）","ScheduleTime":"17:08","EstimateTime":"","CarInfo":"","Lon":120.225465,"Lat":22.974934,"Turn":21,"DayValue":"一,二,四,六","RecycleDate":"二,六"},{"StopId":16181,"StopName":"崇明24街57號","ScheduleTime":"17:14","EstimateTime":"","CarInfo":"","Lon":120.227169,"Lat":22.966786,"Turn":22,"DayValue":"一,二,四,六","RecycleDate":"二,六"},{"StopId":16182,"StopName":"中華東路三段265號（三菱汽車）","ScheduleTime":"18:57","EstimateTime":"","CarInfo":"","Lon":120.224255,"Lat":22.975033,"Turn":23,"DayValue":"一,二,四,六","RecycleDate":"二,六"},{"StopId":16183,"StopName":"崇德路538號(崇德路530號巷口)","ScheduleTime":"19:03","EstimateTime":"","CarInfo":"","Lon":120.227411,"Lat":22.972831,"Turn":24,"DayValue":"一,二,四,六","RecycleDate":"二,六"},{"StopId":16184,"StopName":"崇道路102號（美國華府）","ScheduleTime":"19:08","EstimateTime":"","CarInfo":"","Lon":120.228584,"Lat":22.972045,"Turn":25,"DayValue":"一,二,四,六","RecycleDate":"二,六"},{"StopId":16185,"StopName":"崇德12街76巷1號對面（荷蘭家鄉）","ScheduleTime":"19:13","EstimateTime":"","CarInfo":"","Lon":120.229446,"Lat":22.971632,"Turn":26,"DayValue":"一,二,四,六","RecycleDate":"二,六"},{"StopId":16186,"StopName":"崇德十三街24號前","ScheduleTime":"19:18","EstimateTime":"","CarInfo":"","Lon":120.22854,"Lat":22.971094,"Turn":27,"DayValue":"一,二,四,六","RecycleDate":"二,六"},{"StopId":16187,"StopName":"崇德12街57號(文化香榭)","ScheduleTime":"19:23","EstimateTime":"","CarInfo":"","Lon":120.228891,"Lat":22.971636,"Turn":28,"DayValue":"一,二,四,六","RecycleDate":"二,六"},{"StopId":16188,"StopName":"崇善路572號（崇德十五街口）","ScheduleTime":"19:28","EstimateTime":"","CarInfo":"","Lon":120.230402,"Lat":22.970401,"Turn":29,"DayValue":"一,二,四,六","RecycleDate":"二,六"},{"StopId":16189,"StopName":"崇德十四街69號前","ScheduleTime":"19:32","EstimateTime":"","CarInfo":"","Lon":120.229704,"Lat":22.970701,"Turn":30,"DayValue":"一,二,四,六","RecycleDate":"二,六"},{"StopId":16190,"StopName":"崇德十四街29號前","ScheduleTime":"19:36","EstimateTime":"","CarInfo":"","Lon":120.228459,"Lat":22.970666,"Turn":31,"DayValue":"一,二,四,六","RecycleDate":"二,六"},{"StopId":16191,"StopName":"崇德路650號前","ScheduleTime":"19:41","EstimateTime":"","CarInfo":"","Lon":120.227448,"Lat":22.969538,"Turn":32,"DayValue":"一,二,四,六","RecycleDate":"二,六"},{"StopId":16192,"StopName":"崇德路678號旁（崇德郵局）","ScheduleTime":"19:46","EstimateTime":"","CarInfo":"","Lon":120.227317,"Lat":22.967252,"Turn":33,"DayValue":"一,二,四,六","RecycleDate":"二,六"},{"StopId":16193,"StopName":"崇明23街1-7 2-10號（大樓）","ScheduleTime":"19:51","EstimateTime":"","CarInfo":"","Lon":120.226048,"Lat":22.967243,"Turn":34,"DayValue":"一,二,四,六","RecycleDate":"二,六"},{"StopId":16194,"StopName":"崇明路591號前","ScheduleTime":"19:55","EstimateTime":"","CarInfo":"","Lon":120.22572,"Lat":22.967671,"Turn":35,"DayValue":"一,二,四,六","RecycleDate":"二,六"},{"StopId":16195,"StopName":"崇明路589之9號(崇明國中正門對面)","ScheduleTime":"19:58","EstimateTime":"","CarInfo":"","Lon":120.225709,"Lat":22.969752,"Turn":36,"DayValue":"一,二,四,六","RecycleDate":"二,六"},{"StopId":16196,"StopName":"崇明路553號(水電行)","ScheduleTime":"20:01","EstimateTime":"","CarInfo":"","Lon":120.225729,"Lat":22.971168,"Turn":37,"DayValue":"一,二,四,六","RecycleDate":"二,六"},{"StopId":16197,"StopName":"崇明15街51號前","ScheduleTime":"20:04","EstimateTime":"","CarInfo":"","Lon":120.226975,"Lat":22.971636,"Turn":38,"DayValue":"一,二,四,六","RecycleDate":"二,六"},{"StopId":16198,"StopName":"崇德616號旁(崇明十七街尾)","ScheduleTime":"20:09","EstimateTime":"","CarInfo":"","Lon":120.227375,"Lat":22.97063,"Turn":39,"DayValue":"一,二,四,六","RecycleDate":"二,六"},{"StopId":16199,"StopName":"崇德五街4號","ScheduleTime":"20:16","EstimateTime":"","CarInfo":"","Lon":120.22606,"Lat":22.975597,"Turn":40,"DayValue":"一,二,四,六","RecycleDate":"二,六"},{"StopId":16200,"StopName":"崇德五街86號","ScheduleTime":"20:21","EstimateTime":"","CarInfo":"","Lon":120.227229,"Lat":22.976924,"Turn":41,"DayValue":"一,二,四,六","RecycleDate":"二,六"},{"StopId":16201,"StopName":"崇德六街49號","ScheduleTime":"20:25","EstimateTime":"","CarInfo":"","Lon":120.227335,"Lat":22.975689,"Turn":42,"DayValue":"一,二,四,六","RecycleDate":"二,六"},{"StopId":16202,"StopName":"崇德路629號(崇德十三街口)","ScheduleTime":"20:31","EstimateTime":"","CarInfo":"","Lon":120.22755,"Lat":22.971109,"Turn":43,"DayValue":"一,二,四,六","RecycleDate":"二,六"}],"CarData":[],"RouteId":182,"RouteName":"東區-16","RouteInfo":"中華東路三段336巷43弄18號~崇德路629號(崇德十三街口)","IsWork":true}]