[{"StopData":[{"StopId":1782,"StopName":"三民路81號","ScheduleTime":"17:15","EstimateTime":"","CarInfo":"","Lon":120.288339,"Lat":23.13252,"Turn":1,"DayValue":"一,三,五,六","RecycleDate":"三,六"},{"StopId":1783,"StopName":"三民路37號","ScheduleTime":"17:17","EstimateTime":"","CarInfo":"","Lon":120.287997,"Lat":23.130482,"Turn":2,"DayValue":"一,三,五,六","RecycleDate":"三,六"},{"StopId":1784,"StopName":"三民路5之2號","ScheduleTime":"17:19","EstimateTime":"","CarInfo":"","Lon":120.287736,"Lat":23.129442,"Turn":3,"DayValue":"一,三,五,六","RecycleDate":"三,六"},{"StopId":1785,"StopName":"光復路368號","ScheduleTime":"17:21","EstimateTime":"","CarInfo":"","Lon":120.287254,"Lat":23.128022,"Turn":4,"DayValue":"一,三,五,六","RecycleDate":"三,六"},{"StopId":1786,"StopName":"光復路436號","ScheduleTime":"17:23","EstimateTime":"","CarInfo":"","Lon":120.28606,"Lat":23.128934,"Turn":5,"DayValue":"一,三,五,六","RecycleDate":"三,六"},{"StopId":1787,"StopName":"光復路566巷巷口","ScheduleTime":"17:25","EstimateTime":"","CarInfo":"","Lon":120.285037,"Lat":23.130883,"Turn":6,"DayValue":"一,三,五,六","RecycleDate":"三,六"},{"StopId":1788,"StopName":"光復路642號","ScheduleTime":"17:27","EstimateTime":"","CarInfo":"","Lon":120.284852,"Lat":23.132752,"Turn":7,"DayValue":"一,三,五,六","RecycleDate":"三,六"},{"StopId":1789,"StopName":"溪尾1037號","ScheduleTime":"17:29","EstimateTime":"","CarInfo":"","Lon":120.2884,"Lat":23.139169,"Turn":8,"DayValue":"一,三,五,六","RecycleDate":"三,六"},{"StopId":1790,"StopName":"溪尾979號","ScheduleTime":"17:31","EstimateTime":"","CarInfo":"","Lon":120.288305,"Lat":23.14098,"Turn":9,"DayValue":"一,三,五,六","RecycleDate":"三,六"},{"StopId":1791,"StopName":"溪尾957號","ScheduleTime":"17:33","EstimateTime":"","CarInfo":"","Lon":120.28825,"Lat":23.141873,"Turn":10,"DayValue":"一,三,五,六","RecycleDate":"三,六"},{"StopId":1792,"StopName":"溪尾681號","ScheduleTime":"17:35","EstimateTime":"","CarInfo":"","Lon":120.288141,"Lat":23.14744,"Turn":11,"DayValue":"一,三,五,六","RecycleDate":"三,六"},{"StopId":1793,"StopName":"溪尾625號","ScheduleTime":"17:37","EstimateTime":"","CarInfo":"","Lon":120.287712,"Lat":23.14976,"Turn":12,"DayValue":"一,三,五,六","RecycleDate":"三,六"},{"StopId":1794,"StopName":"溪尾583號","ScheduleTime":"17:39","EstimateTime":"","CarInfo":"","Lon":120.287445,"Lat":23.151068,"Turn":13,"DayValue":"一,三,五,六","RecycleDate":"三,六"},{"StopId":1795,"StopName":"溪美212號","ScheduleTime":"17:41","EstimateTime":"","CarInfo":"","Lon":120.289217,"Lat":23.15313,"Turn":14,"DayValue":"一,三,五,六","RecycleDate":"三,六"},{"StopId":1796,"StopName":"溪尾２１７號之３１","ScheduleTime":"17:43","EstimateTime":"","CarInfo":"","Lon":120.290204,"Lat":23.153231,"Turn":15,"DayValue":"一,三,五,六","RecycleDate":"三,六"},{"StopId":1797,"StopName":"建業路185號","ScheduleTime":"17:47","EstimateTime":"","CarInfo":"","Lon":120.304087,"Lat":23.138443,"Turn":16,"DayValue":"一,三,五,六","RecycleDate":"三,六"},{"StopId":1798,"StopName":"建業路24號","ScheduleTime":"17:49","EstimateTime":"","CarInfo":"","Lon":120.306519,"Lat":23.13676,"Turn":17,"DayValue":"一,三,五,六","RecycleDate":"三,六"},{"StopId":1799,"StopName":"建業路154號(衛浴)","ScheduleTime":"17:51","EstimateTime":"","CarInfo":"","Lon":120.304185,"Lat":23.138374,"Turn":18,"DayValue":"一,三,五,六","RecycleDate":"三,六"},{"StopId":1800,"StopName":"苓仔林4-1號(龍鳳宮)","ScheduleTime":"17:53","EstimateTime":"","CarInfo":"","Lon":120.305268,"Lat":23.143681,"Turn":19,"DayValue":"一,三,五,六","RecycleDate":"三,六"},{"StopId":1801,"StopName":"小新營２９８號","ScheduleTime":"18:00","EstimateTime":"","CarInfo":"","Lon":120.319026,"Lat":23.127191,"Turn":20,"DayValue":"一,三,五,六","RecycleDate":"三,六"},{"StopId":1802,"StopName":"成功新村7號","ScheduleTime":"18:02","EstimateTime":"","CarInfo":"","Lon":120.319465,"Lat":23.128824,"Turn":21,"DayValue":"一,三,五,六","RecycleDate":"三,六"},{"StopId":1803,"StopName":"小新營２５３號(綠生活社區)","ScheduleTime":"18:10","EstimateTime":"","CarInfo":"","Lon":120.319783,"Lat":23.129449,"Turn":22,"DayValue":"一,三,五,六","RecycleDate":"三,六"},{"StopId":1804,"StopName":"中山路３４３之２號","ScheduleTime":"19:19","EstimateTime":"","CarInfo":"","Lon":120.294132,"Lat":23.132119,"Turn":23,"DayValue":"一,三,五,六","RecycleDate":"三,六"},{"StopId":1805,"StopName":"中山路329號","ScheduleTime":"19:22","EstimateTime":"","CarInfo":"","Lon":120.294543,"Lat":23.132059,"Turn":24,"DayValue":"一,三,五,六","RecycleDate":"三,六"},{"StopId":1806,"StopName":"中山路285號之4","ScheduleTime":"19:24","EstimateTime":"","CarInfo":"","Lon":120.295608,"Lat":23.132034,"Turn":25,"DayValue":"一,三,五,六","RecycleDate":"三,六"},{"StopId":1807,"StopName":"中山路217號","ScheduleTime":"19:26","EstimateTime":"","CarInfo":"","Lon":120.299018,"Lat":23.132487,"Turn":26,"DayValue":"一,三,五,六","RecycleDate":"三,六"},{"StopId":1808,"StopName":"中山路203號","ScheduleTime":"19:28","EstimateTime":"","CarInfo":"","Lon":120.299713,"Lat":23.132592,"Turn":27,"DayValue":"一,三,五,六","RecycleDate":"三,六"},{"StopId":1809,"StopName":"中山路與樹人路口","ScheduleTime":"19:30","EstimateTime":"","CarInfo":"","Lon":120.300442,"Lat":23.132641,"Turn":28,"DayValue":"一,三,五,六","RecycleDate":"三,六"},{"StopId":1810,"StopName":"中山路73號","ScheduleTime":"19:32","EstimateTime":"","CarInfo":"","Lon":120.303594,"Lat":23.133164,"Turn":29,"DayValue":"一,三,五,六","RecycleDate":"三,六"},{"StopId":1811,"StopName":"中山路29號","ScheduleTime":"19:35","EstimateTime":"","CarInfo":"","Lon":120.305312,"Lat":23.133419,"Turn":30,"DayValue":"一,三,五,六","RecycleDate":"三,六"},{"StopId":1812,"StopName":"光文路20號(火車站)","ScheduleTime":"19:37","EstimateTime":"","CarInfo":"","Lon":120.30577,"Lat":23.133545,"Turn":31,"DayValue":"一,三,五,六","RecycleDate":"三,六"},{"StopId":1813,"StopName":"中山路52號","ScheduleTime":"19:39","EstimateTime":"","CarInfo":"","Lon":120.304515,"Lat":23.13335,"Turn":32,"DayValue":"一,三,五,六","RecycleDate":"三,六"},{"StopId":1814,"StopName":"中山路186號","ScheduleTime":"19:41","EstimateTime":"","CarInfo":"","Lon":120.300395,"Lat":23.132757,"Turn":33,"DayValue":"一,三,五,六","RecycleDate":"三,六"},{"StopId":1815,"StopName":"中山路270號","ScheduleTime":"19:43","EstimateTime":"","CarInfo":"","Lon":120.296398,"Lat":23.132065,"Turn":34,"DayValue":"一,三,五,六","RecycleDate":"三,六"},{"StopId":1816,"StopName":"中正路中山路口","ScheduleTime":"19:49","EstimateTime":"","CarInfo":"","Lon":120.293914,"Lat":23.132138,"Turn":35,"DayValue":"一,三,五,六","RecycleDate":"三,六"},{"StopId":1817,"StopName":"目加溜灣大道和善新大道交叉路口","ScheduleTime":"20:09","EstimateTime":"","CarInfo":"","Lon":120.311007,"Lat":23.11899,"Turn":36,"DayValue":"一,三,五,六","RecycleDate":"三,六"},{"StopId":1818,"StopName":"善新大道與蓮潭北三街口","ScheduleTime":"20:11","EstimateTime":"","CarInfo":"","Lon":120.310985,"Lat":23.118271,"Turn":37,"DayValue":"一,三,五,六","RecycleDate":"三,六"},{"StopId":1819,"StopName":"善新大道321巷","ScheduleTime":"20:13","EstimateTime":"","CarInfo":"","Lon":120.311015,"Lat":23.117261,"Turn":38,"DayValue":"一,三,五,六","RecycleDate":"三,六"},{"StopId":1820,"StopName":"善新大道285巷","ScheduleTime":"20:15","EstimateTime":"","CarInfo":"","Lon":120.31097,"Lat":23.116005,"Turn":39,"DayValue":"一,三,五,六","RecycleDate":"三,六"},{"StopId":1821,"StopName":"善新大道131巷","ScheduleTime":"20:17","EstimateTime":"","CarInfo":"","Lon":120.310905,"Lat":23.113057,"Turn":40,"DayValue":"一,三,五,六","RecycleDate":"三,六"},{"StopId":1822,"StopName":"陽光三路與龍目井路口","ScheduleTime":"20:19","EstimateTime":"","CarInfo":"","Lon":120.309472,"Lat":23.111065,"Turn":41,"DayValue":"一,三,五,六","RecycleDate":"三,六"},{"StopId":1823,"StopName":"龍目井路88號","ScheduleTime":"20:21","EstimateTime":"","CarInfo":"","Lon":120.308928,"Lat":23.110736,"Turn":42,"DayValue":"一,三,五,六","RecycleDate":"三,六"},{"StopId":1824,"StopName":"陽光大道和陽光大道３６０巷交叉路口","ScheduleTime":"20:23","EstimateTime":"","CarInfo":"","Lon":120.307355,"Lat":23.114439,"Turn":43,"DayValue":"一,三,五,六","RecycleDate":"三,六"},{"StopId":1825,"StopName":"陽光大道與蓮潭北三街路口","ScheduleTime":"20:25","EstimateTime":"","CarInfo":"","Lon":120.308072,"Lat":23.118341,"Turn":44,"DayValue":"一,三,五,六","RecycleDate":"三,六"},{"StopId":1826,"StopName":"陽光三路316巷","ScheduleTime":"20:27","EstimateTime":"","CarInfo":"","Lon":120.309678,"Lat":23.117727,"Turn":45,"DayValue":"一,三,五,六","RecycleDate":"三,六"},{"StopId":1827,"StopName":"陽光三路232巷","ScheduleTime":"20:29","EstimateTime":"","CarInfo":"","Lon":120.309597,"Lat":23.115972,"Turn":46,"DayValue":"一,三,五,六","RecycleDate":"三,六"},{"StopId":1828,"StopName":"陽光三路129巷","ScheduleTime":"20:31","EstimateTime":"","CarInfo":"","Lon":120.309587,"Lat":23.11398,"Turn":47,"DayValue":"一,三,五,六","RecycleDate":"三,六"},{"StopId":1829,"StopName":"陽光三路與蓮潭南街路口","ScheduleTime":"20:33","EstimateTime":"","CarInfo":"","Lon":120.309497,"Lat":23.112054,"Turn":48,"DayValue":"一,三,五,六","RecycleDate":"三,六"},{"StopId":1830,"StopName":"燈會街與蓮潭南路路口","ScheduleTime":"20:35","EstimateTime":"","CarInfo":"","Lon":120.308158,"Lat":23.112136,"Turn":49,"DayValue":"一,三,五,六","RecycleDate":"三,六"},{"StopId":1831,"StopName":"蓮潭南街279號","ScheduleTime":"20:37","EstimateTime":"","CarInfo":"","Lon":120.305897,"Lat":23.110934,"Turn":50,"DayValue":"一,三,五,六","RecycleDate":"三,六"},{"StopId":1832,"StopName":"月眉園路70巷(南科日麗)","ScheduleTime":"20:39","EstimateTime":"","CarInfo":"","Lon":120.303914,"Lat":23.110522,"Turn":51,"DayValue":"一,三,五,六","RecycleDate":"三,六"},{"StopId":1833,"StopName":"龍目井路與陽光南一路路口","ScheduleTime":"20:41","EstimateTime":"","CarInfo":"","Lon":120.305135,"Lat":23.109321,"Turn":52,"DayValue":"一,三,五,六","RecycleDate":"三,六"},{"StopId":1834,"StopName":"西拉雅大道與陽光南一路路口","ScheduleTime":"20:43","EstimateTime":"","CarInfo":"","Lon":120.305134,"Lat":23.10823,"Turn":53,"DayValue":"一,三,五,六","RecycleDate":"三,六"},{"StopId":1835,"StopName":"善新西路216號","ScheduleTime":"20:45","EstimateTime":"","CarInfo":"","Lon":120.302997,"Lat":23.11169,"Turn":54,"DayValue":"一,三,五,六","RecycleDate":"三,六"},{"StopId":1836,"StopName":"蓮潭北二街與善新西路路口","ScheduleTime":"20:47","EstimateTime":"","CarInfo":"","Lon":120.303991,"Lat":23.116867,"Turn":55,"DayValue":"一,三,五,六","RecycleDate":"三,六"},{"StopId":1837,"StopName":"蓮潭北三街與善新西路路口","ScheduleTime":"20:49","EstimateTime":"","CarInfo":"","Lon":120.304244,"Lat":23.118429,"Turn":56,"DayValue":"一,三,五,六","RecycleDate":"三,六"},{"StopId":1838,"StopName":"陽光北一路155巷","ScheduleTime":"20:51","EstimateTime":"","CarInfo":"","Lon":120.305307,"Lat":23.116444,"Turn":57,"DayValue":"一,三,五,六","RecycleDate":"三,六"},{"StopId":1839,"StopName":"陽光二路25號","ScheduleTime":"20:53","EstimateTime":"","CarInfo":"","Lon":120.30672,"Lat":23.116347,"Turn":58,"DayValue":"一,三,五,六","RecycleDate":"三,六"},{"StopId":1840,"StopName":"陽光二路與蓮潭北三街路口","ScheduleTime":"20:55","EstimateTime":"","CarInfo":"","Lon":120.306778,"Lat":23.118366,"Turn":59,"DayValue":"一,三,五,六","RecycleDate":"三,六"},{"StopId":1841,"StopName":"陽光大道515巷口","ScheduleTime":"20:57","EstimateTime":"","CarInfo":"","Lon":120.307926,"Lat":23.117693,"Turn":60,"DayValue":"一,三,五,六","RecycleDate":"三,六"}],"CarData":[],"RouteId":248,"RouteName":"善化-7","RouteInfo":"三民路81號~陽光大道515巷口","IsWork":false}]