[{"StopData":[{"StopId":5644,"StopName":"安中路一段29巷口","ScheduleTime":"14:47","EstimateTime":"","CarInfo":"","Lon":120.2102755,"Lat":23.0331956,"Turn":1,"DayValue":"一,二,四,六","RecycleDate":"二,六"},{"StopId":5645,"StopName":"安和路一段285巷口","ScheduleTime":"14:53","EstimateTime":"","CarInfo":"","Lon":120.2114377,"Lat":23.0322062,"Turn":2,"DayValue":"一,二,四,六","RecycleDate":"二,六"},{"StopId":5646,"StopName":"安和路一段215巷口","ScheduleTime":"14:57","EstimateTime":"","CarInfo":"","Lon":120.2121229,"Lat":23.0311047,"Turn":3,"DayValue":"一,二,四,六","RecycleDate":"二,六"},{"StopId":5647,"StopName":"安和路一段159巷口","ScheduleTime":"15:00","EstimateTime":"","CarInfo":"","Lon":120.2116364,"Lat":23.0302539,"Turn":4,"DayValue":"一,二,四,六","RecycleDate":"二,六"},{"StopId":5648,"StopName":"安和路一段91巷口","ScheduleTime":"15:04","EstimateTime":"","CarInfo":"","Lon":120.2131453,"Lat":23.0274742,"Turn":5,"DayValue":"一,二,四,六","RecycleDate":"二,六"},{"StopId":5649,"StopName":"安和路一段91巷15號","ScheduleTime":"15:07","EstimateTime":"","CarInfo":"","Lon":120.213937,"Lat":23.0277151,"Turn":6,"DayValue":"一,二,四,六","RecycleDate":"二,六"},{"StopId":5650,"StopName":"安和路一段89號","ScheduleTime":"15:10","EstimateTime":"","CarInfo":"","Lon":120.214476,"Lat":23.027905,"Turn":7,"DayValue":"一,二,四,六","RecycleDate":"二,六"},{"StopId":5651,"StopName":"安和路一段15巷口","ScheduleTime":"15:15","EstimateTime":"","CarInfo":"","Lon":120.2144932,"Lat":23.0259479,"Turn":8,"DayValue":"一,二,四,六","RecycleDate":"二,六"},{"StopId":5652,"StopName":"府安路三段276巷28弄口","ScheduleTime":"15:22","EstimateTime":"","CarInfo":"","Lon":120.2183668,"Lat":23.0307934,"Turn":9,"DayValue":"一,二,四,六","RecycleDate":"二,六"},{"StopId":5653,"StopName":"府安路三段298巷口","ScheduleTime":"15:24","EstimateTime":"","CarInfo":"","Lon":120.2180973,"Lat":23.0292001,"Turn":10,"DayValue":"一,二,四,六","RecycleDate":"二,六"},{"StopId":5654,"StopName":"府安路三段311巷口","ScheduleTime":"15:26","EstimateTime":"","CarInfo":"","Lon":120.2173778,"Lat":23.0286843,"Turn":11,"DayValue":"一,二,四,六","RecycleDate":"二,六"},{"StopId":5655,"StopName":"郡安路三段236巷22弄口(空地大樹下)","ScheduleTime":"15:30","EstimateTime":"","CarInfo":"","Lon":120.2167441,"Lat":23.0294817,"Turn":12,"DayValue":"一,二,四,六","RecycleDate":"二,六"},{"StopId":5656,"StopName":"郡安路三段236巷21弄口","ScheduleTime":"15:33","EstimateTime":"","CarInfo":"","Lon":120.2172698,"Lat":23.030648,"Turn":13,"DayValue":"一,二,四,六","RecycleDate":"二,六"},{"StopId":5657,"StopName":"府安路三段289巷52弄口","ScheduleTime":"15:35","EstimateTime":"","CarInfo":"","Lon":120.2176328,"Lat":23.0309437,"Turn":14,"DayValue":"一,二,四,六","RecycleDate":"二,六"},{"StopId":5658,"StopName":"府安路三段289巷33弄口","ScheduleTime":"15:37","EstimateTime":"","CarInfo":"","Lon":120.2174348,"Lat":23.029441,"Turn":15,"DayValue":"一,二,四,六","RecycleDate":"二,六"},{"StopId":5659,"StopName":"府安路三段339巷口","ScheduleTime":"15:40","EstimateTime":"","CarInfo":"","Lon":120.2169099,"Lat":23.0275528,"Turn":16,"DayValue":"一,二,四,六","RecycleDate":"二,六"},{"StopId":5660,"StopName":"安通路四段47巷口","ScheduleTime":"15:46","EstimateTime":"","CarInfo":"","Lon":120.2110598,"Lat":23.0299205,"Turn":17,"DayValue":"一,二,四,六","RecycleDate":"二,六"},{"StopId":5661,"StopName":"安通路四段101巷口","ScheduleTime":"15:54","EstimateTime":"","CarInfo":"","Lon":120.2078692,"Lat":23.0291921,"Turn":18,"DayValue":"一,二,四,六","RecycleDate":"二,六"},{"StopId":5662,"StopName":"安通路四段109巷口","ScheduleTime":"15:56","EstimateTime":"","CarInfo":"","Lon":120.2075367,"Lat":23.030138,"Turn":19,"DayValue":"一,二,四,六","RecycleDate":"二,六"},{"StopId":5663,"StopName":"安通路四段119巷口","ScheduleTime":"15:58","EstimateTime":"","CarInfo":"","Lon":120.2071264,"Lat":23.0305022,"Turn":20,"DayValue":"一,二,四,六","RecycleDate":"二,六"},{"StopId":5664,"StopName":"安通路四段119巷9弄口","ScheduleTime":"16:00","EstimateTime":"","CarInfo":"","Lon":120.2061837,"Lat":23.0297691,"Turn":21,"DayValue":"一,二,四,六","RecycleDate":"二,六"},{"StopId":5665,"StopName":"安通路四段119巷27弄口","ScheduleTime":"16:02","EstimateTime":"","CarInfo":"","Lon":120.2070312,"Lat":23.0301002,"Turn":22,"DayValue":"一,二,四,六","RecycleDate":"二,六"},{"StopId":5666,"StopName":"安西一街251號對面","ScheduleTime":"16:04","EstimateTime":"","CarInfo":"","Lon":120.2073014,"Lat":23.0309405,"Turn":23,"DayValue":"一,二,四,六","RecycleDate":"二,六"},{"StopId":5667,"StopName":"安通三街31號","ScheduleTime":"16:06","EstimateTime":"","CarInfo":"","Lon":120.2053487,"Lat":23.0311587,"Turn":24,"DayValue":"一,二,四,六","RecycleDate":"二,六"},{"StopId":5668,"StopName":"安西二街58號","ScheduleTime":"16:08","EstimateTime":"","CarInfo":"","Lon":120.2079722,"Lat":23.0320355,"Turn":25,"DayValue":"一,二,四,六","RecycleDate":"二,六"},{"StopId":5669,"StopName":"安通路四段119巷68號前","ScheduleTime":"16:10","EstimateTime":"","CarInfo":"","Lon":120.2073311,"Lat":23.0310524,"Turn":26,"DayValue":"一,二,四,六","RecycleDate":"二,六"},{"StopId":5670,"StopName":"安通路四段119巷45弄口","ScheduleTime":"16:12","EstimateTime":"","CarInfo":"","Lon":120.2071264,"Lat":23.0305022,"Turn":27,"DayValue":"一,二,四,六","RecycleDate":"二,六"},{"StopId":5671,"StopName":"安通路四段119巷23號","ScheduleTime":"16:14","EstimateTime":"","CarInfo":"","Lon":120.20701,"Lat":23.030033,"Turn":28,"DayValue":"一,二,四,六","RecycleDate":"二,六"},{"StopId":5672,"StopName":"安通路四段119巷7號","ScheduleTime":"16:16","EstimateTime":"","CarInfo":"","Lon":120.206979,"Lat":23.0296821,"Turn":29,"DayValue":"一,二,四,六","RecycleDate":"二,六"},{"StopId":5673,"StopName":"北安路二段206號","ScheduleTime":"16:18","EstimateTime":"","CarInfo":"","Lon":120.204666,"Lat":23.0306892,"Turn":30,"DayValue":"一,二,四,六","RecycleDate":"二,六"},{"StopId":5674,"StopName":"府安路四段34巷口","ScheduleTime":"17:47","EstimateTime":"","CarInfo":"","Lon":120.2134363,"Lat":23.0256382,"Turn":31,"DayValue":"一,二,四,六","RecycleDate":"二,六"},{"StopId":5675,"StopName":"府安路四段91巷10號","ScheduleTime":"17:52","EstimateTime":"","CarInfo":"","Lon":120.210856,"Lat":23.025394,"Turn":32,"DayValue":"一,二,四,六","RecycleDate":"二,六"},{"StopId":5676,"StopName":"府安路四段91巷18弄口","ScheduleTime":"17:56","EstimateTime":"","CarInfo":"","Lon":120.2114711,"Lat":23.0257277,"Turn":33,"DayValue":"一,二,四,六","RecycleDate":"二,六"},{"StopId":5677,"StopName":"府安路四段34巷18弄25號","ScheduleTime":"17:57","EstimateTime":"","CarInfo":"","Lon":120.212164,"Lat":23.0259749,"Turn":34,"DayValue":"一,二,四,六","RecycleDate":"二,六"},{"StopId":5678,"StopName":"府安路四段34巷45弄口","ScheduleTime":"17:59","EstimateTime":"","CarInfo":"","Lon":120.2127846,"Lat":23.0257692,"Turn":35,"DayValue":"一,二,四,六","RecycleDate":"二,六"},{"StopId":5679,"StopName":"府安路四段34巷38號","ScheduleTime":"18:00","EstimateTime":"","CarInfo":"","Lon":120.213334,"Lat":23.025371,"Turn":36,"DayValue":"一,二,四,六","RecycleDate":"二,六"},{"StopId":5680,"StopName":"府安路四段24巷口","ScheduleTime":"18:01","EstimateTime":"","CarInfo":"","Lon":120.2138289,"Lat":23.025758,"Turn":37,"DayValue":"一,二,四,六","RecycleDate":"二,六"},{"StopId":5681,"StopName":"安和路一段15巷32弄口","ScheduleTime":"18:03","EstimateTime":"","CarInfo":"","Lon":120.214111,"Lat":23.0258307,"Turn":38,"DayValue":"一,二,四,六","RecycleDate":"二,六"},{"StopId":5682,"StopName":"安和路一段15巷20弄口","ScheduleTime":"18:04","EstimateTime":"","CarInfo":"","Lon":120.2142153,"Lat":23.026595,"Turn":39,"DayValue":"一,二,四,六","RecycleDate":"二,六"},{"StopId":5683,"StopName":"安和路一段18巷17弄口","ScheduleTime":"18:09","EstimateTime":"","CarInfo":"","Lon":120.2130302,"Lat":23.0306707,"Turn":40,"DayValue":"一,二,四,六","RecycleDate":"二,六"},{"StopId":5684,"StopName":"安和路一段52巷21弄口","ScheduleTime":"18:12","EstimateTime":"","CarInfo":"","Lon":120.2153467,"Lat":23.0276711,"Turn":41,"DayValue":"一,二,四,六","RecycleDate":"二,六"},{"StopId":5685,"StopName":"安和路一段88號","ScheduleTime":"18:16","EstimateTime":"","CarInfo":"","Lon":120.214935,"Lat":23.027682,"Turn":42,"DayValue":"一,二,四,六","RecycleDate":"二,六"},{"StopId":5686,"StopName":"安和路一段96巷16號","ScheduleTime":"18:19","EstimateTime":"","CarInfo":"","Lon":120.215123,"Lat":23.028188,"Turn":43,"DayValue":"一,二,四,六","RecycleDate":"二,六"},{"StopId":5687,"StopName":"安和路一段96巷32弄口","ScheduleTime":"18:20","EstimateTime":"","CarInfo":"","Lon":120.2157971,"Lat":23.0281726,"Turn":44,"DayValue":"一,二,四,六","RecycleDate":"二,六"},{"StopId":5688,"StopName":"安和路一段96巷42弄口","ScheduleTime":"18:22","EstimateTime":"","CarInfo":"","Lon":120.2159674,"Lat":23.0284597,"Turn":45,"DayValue":"一,二,四,六","RecycleDate":"二,六"},{"StopId":5689,"StopName":"安和路一段96巷56號旁廟口","ScheduleTime":"18:23","EstimateTime":"","CarInfo":"","Lon":120.215687,"Lat":23.029129,"Turn":46,"DayValue":"一,二,四,六","RecycleDate":"二,六"},{"StopId":5690,"StopName":"安和路一段96巷73弄口","ScheduleTime":"18:28","EstimateTime":"","CarInfo":"","Lon":120.2130302,"Lat":23.0306707,"Turn":47,"DayValue":"一,二,四,六","RecycleDate":"二,六"},{"StopId":5691,"StopName":"安和路一段150巷口","ScheduleTime":"18:33","EstimateTime":"","CarInfo":"","Lon":120.215293,"Lat":23.0293327,"Turn":48,"DayValue":"一,二,四,六","RecycleDate":"二,六"},{"StopId":5692,"StopName":"安和路一段373號","ScheduleTime":"18:40","EstimateTime":"","CarInfo":"","Lon":120.212744,"Lat":23.0343771,"Turn":49,"DayValue":"一,二,四,六","RecycleDate":"二,六"},{"StopId":5693,"StopName":"安和路一段321巷口","ScheduleTime":"18:44","EstimateTime":"","CarInfo":"","Lon":120.2115882,"Lat":23.0329873,"Turn":50,"DayValue":"一,二,四,六","RecycleDate":"二,六"},{"StopId":5694,"StopName":"安和路一段285巷67號廟前","ScheduleTime":"18:47","EstimateTime":"","CarInfo":"","Lon":120.2149143,"Lat":23.0273812,"Turn":51,"DayValue":"一,二,四,六","RecycleDate":"二,六"},{"StopId":5695,"StopName":"安西一街41號","ScheduleTime":"18:50","EstimateTime":"","CarInfo":"","Lon":120.2149143,"Lat":23.0273812,"Turn":52,"DayValue":"一,二,四,六","RecycleDate":"二,六"},{"StopId":5696,"StopName":"安和路一段159巷136號","ScheduleTime":"18:52","EstimateTime":"","CarInfo":"","Lon":120.2113912,"Lat":23.0315886,"Turn":53,"DayValue":"一,二,四,六","RecycleDate":"二,六"},{"StopId":5697,"StopName":"安和路一段92號","ScheduleTime":"18:54","EstimateTime":"","CarInfo":"","Lon":120.2149,"Lat":23.0277691,"Turn":54,"DayValue":"一,二,四,六","RecycleDate":"二,六"},{"StopId":5698,"StopName":"安通路四段47巷23弄口","ScheduleTime":"19:00","EstimateTime":"","CarInfo":"","Lon":120.209895,"Lat":23.0299026,"Turn":55,"DayValue":"一,二,四,六","RecycleDate":"二,六"},{"StopId":5699,"StopName":"安西路39巷70號","ScheduleTime":"19:04","EstimateTime":"","CarInfo":"","Lon":120.20878,"Lat":23.0300137,"Turn":56,"DayValue":"一,二,四,六","RecycleDate":"二,六"},{"StopId":5700,"StopName":"安西路83巷口","ScheduleTime":"19:07","EstimateTime":"","CarInfo":"","Lon":120.2089995,"Lat":23.0322146,"Turn":57,"DayValue":"一,二,四,六","RecycleDate":"二,六"},{"StopId":5701,"StopName":"安通一街106號對面","ScheduleTime":"19:09","EstimateTime":"","CarInfo":"","Lon":120.2077953,"Lat":23.0320242,"Turn":58,"DayValue":"一,二,四,六","RecycleDate":"二,六"},{"StopId":5702,"StopName":"慈安路109巷口","ScheduleTime":"19:12","EstimateTime":"","CarInfo":"","Lon":120.2062825,"Lat":23.0325002,"Turn":59,"DayValue":"一,二,四,六","RecycleDate":"二,六"},{"StopId":5703,"StopName":"安通三街89號","ScheduleTime":"19:13","EstimateTime":"","CarInfo":"","Lon":120.2053101,"Lat":23.032222,"Turn":60,"DayValue":"一,二,四,六","RecycleDate":"二,六"},{"StopId":5704,"StopName":"安通三街27號","ScheduleTime":"19:15","EstimateTime":"","CarInfo":"","Lon":120.2053214,"Lat":23.0310098,"Turn":61,"DayValue":"一,二,四,六","RecycleDate":"二,六"},{"StopId":5705,"StopName":"安和路一段123巷口","ScheduleTime":"19:22","EstimateTime":"","CarInfo":"","Lon":120.2142559,"Lat":23.0286117,"Turn":62,"DayValue":"一,二,四,六","RecycleDate":"二,六"},{"StopId":5706,"StopName":"敬安街52號","ScheduleTime":"19:24","EstimateTime":"","CarInfo":"","Lon":120.2110398,"Lat":23.0272864,"Turn":63,"DayValue":"一,二,四,六","RecycleDate":"二,六"},{"StopId":5707,"StopName":"敬安街97號","ScheduleTime":"19:26","EstimateTime":"","CarInfo":"","Lon":120.2110398,"Lat":23.0272864,"Turn":64,"DayValue":"一,二,四,六","RecycleDate":"二,六"},{"StopId":5708,"StopName":"敦安街1號(北安大地大樓)","ScheduleTime":"19:28","EstimateTime":"","CarInfo":"","Lon":120.2127022,"Lat":23.0278896,"Turn":65,"DayValue":"一,二,四,六","RecycleDate":"二,六"},{"StopId":5709,"StopName":"惠安街24巷17號(森林故鄉大樓)","ScheduleTime":"19:33","EstimateTime":"","CarInfo":"","Lon":120.2108197,"Lat":23.0268336,"Turn":66,"DayValue":"一,二,四,六","RecycleDate":"二,六"},{"StopId":5710,"StopName":"惠安街23巷口","ScheduleTime":"19:37","EstimateTime":"","CarInfo":"","Lon":120.2106079,"Lat":23.0264128,"Turn":67,"DayValue":"一,二,四,六","RecycleDate":"二,六"},{"StopId":5711,"StopName":"文安街108巷口","ScheduleTime":"19:38","EstimateTime":"","CarInfo":"","Lon":120.2109878,"Lat":23.0264309,"Turn":68,"DayValue":"一,二,四,六","RecycleDate":"二,六"},{"StopId":5712,"StopName":"文安街45巷口","ScheduleTime":"19:40","EstimateTime":"","CarInfo":"","Lon":120.2136037,"Lat":23.026663,"Turn":69,"DayValue":"一,二,四,六","RecycleDate":"二,六"},{"StopId":5713,"StopName":"安和路一段47巷口","ScheduleTime":"19:44","EstimateTime":"","CarInfo":"","Lon":120.2146944,"Lat":23.0267939,"Turn":70,"DayValue":"一,二,四,六","RecycleDate":"二,六"}],"CarData":[],"RouteId":131,"RouteName":"安南14線","RouteInfo":"安中路一段29巷口~安和路一段47巷口","IsWork":true}]