[{"StopData":[{"StopId":15495,"StopName":"武聖路69巷(武聖夜市)(光賢里)","ScheduleTime":"06:30","EstimateTime":"","CarInfo":"","Lon":120.1912721,"Lat":23.0046464,"Turn":1,"DayValue":"","RecycleDate":""},{"StopId":15496,"StopName":"民權路四段、西湖公園(西湖里)","ScheduleTime":"06:55","EstimateTime":"","CarInfo":"","Lon":120.1841986,"Lat":22.999198,"Turn":2,"DayValue":"","RecycleDate":""},{"StopId":15497,"StopName":"民族路三段273號(藥王里)","ScheduleTime":"07:20","EstimateTime":"","CarInfo":"","Lon":120.192751,"Lat":22.999976,"Turn":3,"DayValue":"","RecycleDate":""},{"StopId":15498,"StopName":"金華路四段47巷口(永上海產)(協進里)","ScheduleTime":"07:43","EstimateTime":"","CarInfo":"","Lon":120.194712,"Lat":22.998293,"Turn":4,"DayValue":"","RecycleDate":""},{"StopId":15499,"StopName":"民生路二段協進館(協進里)","ScheduleTime":"07:50","EstimateTime":"","CarInfo":"","Lon":120.1936484,"Lat":22.9962598,"Turn":5,"DayValue":"","RecycleDate":""},{"StopId":15500,"StopName":"尊王路、康樂街口(保安里)","ScheduleTime":"08:05","EstimateTime":"","CarInfo":"","Lon":120.19435,"Lat":22.991931,"Turn":6,"DayValue":"","RecycleDate":""},{"StopId":15501,"StopName":"尊王路、國華街二段口(保安里)","ScheduleTime":"08:18","EstimateTime":"","CarInfo":"","Lon":120.197012,"Lat":22.991431,"Turn":7,"DayValue":"","RecycleDate":""},{"StopId":15502,"StopName":"保安路19號(保安里)","ScheduleTime":"08:33","EstimateTime":"","CarInfo":"","Lon":120.196965,"Lat":22.9901861,"Turn":8,"DayValue":"","RecycleDate":""},{"StopId":15503,"StopName":"金華路三段172號(安海里)","ScheduleTime":"08:40","EstimateTime":"","CarInfo":"","Lon":120.1932897,"Lat":22.9933541,"Turn":9,"DayValue":"","RecycleDate":""},{"StopId":15504,"StopName":"西和路、和美街口(文賢里)","ScheduleTime":"08:56","EstimateTime":"","CarInfo":"","Lon":120.191685,"Lat":23.002348,"Turn":10,"DayValue":"","RecycleDate":""},{"StopId":15505,"StopName":"西和路113號(協和里)","ScheduleTime":"09:08","EstimateTime":"","CarInfo":"","Lon":120.189239,"Lat":23.000797,"Turn":11,"DayValue":"","RecycleDate":""},{"StopId":15506,"StopName":"郡西路10號(洪玉鳳服務處)(郡西里)","ScheduleTime":"09:28","EstimateTime":"","CarInfo":"","Lon":120.194009,"Lat":22.988214,"Turn":12,"DayValue":"","RecycleDate":""},{"StopId":15507,"StopName":"府前一街55號(金城國中)(大涼里)","ScheduleTime":"10:16","EstimateTime":"","CarInfo":"","Lon":120.18826,"Lat":22.9940364,"Turn":13,"DayValue":"","RecycleDate":""},{"StopId":15508,"StopName":"光賢街63號(光賢里)","ScheduleTime":"10:33","EstimateTime":"","CarInfo":"","Lon":120.187612,"Lat":23.004306,"Turn":14,"DayValue":"","RecycleDate":""},{"StopId":15509,"StopName":"和緯路中華西路口(光賢里)","ScheduleTime":"10:50","EstimateTime":"","CarInfo":"","Lon":120.186292,"Lat":23.0064775,"Turn":15,"DayValue":"","RecycleDate":""}],"CarData":[],"RouteId":360,"RouteName":"西區-第1車輔助點","RouteInfo":"武聖路69巷(武聖夜市)(光賢里)~和緯路中華西路口(光賢里)","IsWork":false}]