[{"StopData":[{"StopId":6962,"StopName":"立德三路1號旁","ScheduleTime":"16:25","EstimateTime":"","CarInfo":"","Lon":120.2150337,"Lat":22.9752997,"Turn":1,"DayValue":"一,二,四,六","RecycleDate":"一,四"},{"StopId":6963,"StopName":"立德四路1號旁","ScheduleTime":"16:28","EstimateTime":"","CarInfo":"","Lon":120.2149403,"Lat":22.9756055,"Turn":2,"DayValue":"一,二,四,六","RecycleDate":"一,四"},{"StopId":6964,"StopName":"立德六路1號旁","ScheduleTime":"16:31","EstimateTime":"","CarInfo":"","Lon":120.2148376,"Lat":22.9761738,"Turn":3,"DayValue":"一,二,四,六","RecycleDate":"一,四"},{"StopId":6965,"StopName":"立德八路27號旁","ScheduleTime":"16:34","EstimateTime":"","CarInfo":"","Lon":120.2147117,"Lat":22.9767377,"Turn":4,"DayValue":"一,二,四,六","RecycleDate":"一,四"},{"StopId":6966,"StopName":"立德七路26號前","ScheduleTime":"16:39","EstimateTime":"","CarInfo":"","Lon":120.2155608,"Lat":22.9765421,"Turn":5,"DayValue":"一,二,四,六","RecycleDate":"一,四"},{"StopId":6967,"StopName":"立德五路25號公園旁","ScheduleTime":"16:45","EstimateTime":"","CarInfo":"","Lon":120.2157109,"Lat":22.9759962,"Turn":6,"DayValue":"一,二,四,六","RecycleDate":"一,四"},{"StopId":6968,"StopName":"立德二路54巷口","ScheduleTime":"16:47","EstimateTime":"","CarInfo":"","Lon":120.2159513,"Lat":22.9741148,"Turn":7,"DayValue":"一,二,四,六","RecycleDate":"一,四"},{"StopId":6969,"StopName":"立德二路39號前","ScheduleTime":"16:50","EstimateTime":"","CarInfo":"","Lon":120.2159774,"Lat":22.9752091,"Turn":8,"DayValue":"一,二,四,六","RecycleDate":"一,四"},{"StopId":6970,"StopName":"立德十路13號大樓前","ScheduleTime":"17:00","EstimateTime":"","CarInfo":"","Lon":120.2142226,"Lat":22.9777886,"Turn":9,"DayValue":"一,二,四,六","RecycleDate":"一,四"},{"StopId":6971,"StopName":"立德十路55號前","ScheduleTime":"17:04","EstimateTime":"","CarInfo":"","Lon":120.2153188,"Lat":22.9779876,"Turn":10,"DayValue":"一,二,四,六","RecycleDate":"一,四"},{"StopId":6972,"StopName":"立德九路68號","ScheduleTime":"17:07","EstimateTime":"","CarInfo":"","Lon":120.2155631,"Lat":22.9772283,"Turn":11,"DayValue":"一,二,四,六","RecycleDate":"一,四"},{"StopId":6973,"StopName":"立德11路2號","ScheduleTime":"17:11","EstimateTime":"","CarInfo":"","Lon":120.2139397,"Lat":22.9781145,"Turn":12,"DayValue":"一,二,四,六","RecycleDate":"一,四"},{"StopId":6974,"StopName":"立德11路75號前","ScheduleTime":"17:15","EstimateTime":"","CarInfo":"","Lon":120.215283,"Lat":22.97839,"Turn":13,"DayValue":"一,二,四,六","RecycleDate":"一,四"},{"StopId":6975,"StopName":"立德11路55巷24號","ScheduleTime":"17:18","EstimateTime":"","CarInfo":"","Lon":120.2148103,"Lat":22.9788406,"Turn":14,"DayValue":"一,二,四,六","RecycleDate":"一,四"},{"StopId":6976,"StopName":"立德11路55巷38弄口","ScheduleTime":"17:21","EstimateTime":"","CarInfo":"","Lon":120.2147592,"Lat":22.9791052,"Turn":15,"DayValue":"一,二,四,六","RecycleDate":"一,四"},{"StopId":6977,"StopName":"立德11路29巷轉彎口","ScheduleTime":"17:23","EstimateTime":"","CarInfo":"","Lon":120.2143028,"Lat":22.9789692,"Turn":16,"DayValue":"一,二,四,六","RecycleDate":"一,四"},{"StopId":6978,"StopName":"立德11路29巷7號（後退進入）","ScheduleTime":"17:26","EstimateTime":"","CarInfo":"","Lon":120.2143014,"Lat":22.978743,"Turn":17,"DayValue":"一,二,四,六","RecycleDate":"一,四"},{"StopId":6979,"StopName":"立德11路15號大同西服前","ScheduleTime":"17:30","EstimateTime":"","CarInfo":"","Lon":120.2145621,"Lat":22.978215,"Turn":18,"DayValue":"一,二,四,六","RecycleDate":"一,四"},{"StopId":6980,"StopName":"立德10路28號(公有市場前)","ScheduleTime":"17:35","EstimateTime":"","CarInfo":"","Lon":120.214569,"Lat":22.977792,"Turn":19,"DayValue":"一,二,四,六","RecycleDate":"一,四"},{"StopId":6981,"StopName":"榮譽街30號大同國小前","ScheduleTime":"18:00","EstimateTime":"","CarInfo":"","Lon":120.215724,"Lat":22.97393,"Turn":20,"DayValue":"一,二,四,六","RecycleDate":"一,四"},{"StopId":6982,"StopName":"中華東路三段399巷20弄55號","ScheduleTime":"19:41","EstimateTime":"","CarInfo":"","Lon":120.2179478,"Lat":22.9720553,"Turn":21,"DayValue":"一,二,四,六","RecycleDate":"一,四"},{"StopId":6983,"StopName":"中華東路三段399巷20弄32號","ScheduleTime":"19:43","EstimateTime":"","CarInfo":"","Lon":120.2192283,"Lat":22.9722696,"Turn":22,"DayValue":"一,二,四,六","RecycleDate":"一,四"},{"StopId":6984,"StopName":"中華東路三段399巷20弄1號","ScheduleTime":"19:47","EstimateTime":"","CarInfo":"","Lon":120.2205786,"Lat":22.9726099,"Turn":23,"DayValue":"一,二,四,六","RecycleDate":"一,四"},{"StopId":6985,"StopName":"中華東路三段399巷21弄10號","ScheduleTime":"19:50","EstimateTime":"","CarInfo":"","Lon":120.2214368,"Lat":22.9728087,"Turn":24,"DayValue":"一,二,四,六","RecycleDate":"一,四"},{"StopId":6986,"StopName":"中華東路三段377巷8號","ScheduleTime":"19:55","EstimateTime":"","CarInfo":"","Lon":120.2215996,"Lat":22.9733434,"Turn":25,"DayValue":"一,二,四,六","RecycleDate":"一,四"},{"StopId":6987,"StopName":"中華東路三段357巷12號邊","ScheduleTime":"19:57","EstimateTime":"","CarInfo":"","Lon":120.223354,"Lat":22.973371,"Turn":26,"DayValue":"一,二,四,六","RecycleDate":"一,四"},{"StopId":6988,"StopName":"中華東路三段357巷38號","ScheduleTime":"20:00","EstimateTime":"","CarInfo":"","Lon":120.223767,"Lat":22.972924,"Turn":27,"DayValue":"一,二,四,六","RecycleDate":"一,四"},{"StopId":6989,"StopName":"中華東路三段357巷80號","ScheduleTime":"20:03","EstimateTime":"","CarInfo":"","Lon":120.224381,"Lat":22.972267,"Turn":28,"DayValue":"一,二,四,六","RecycleDate":"一,四"},{"StopId":6990,"StopName":"崇明路650號崇明國小前","ScheduleTime":"20:07","EstimateTime":"","CarInfo":"","Lon":120.225487,"Lat":22.971318,"Turn":29,"DayValue":"一,二,四,六","RecycleDate":"一,四"},{"StopId":6991,"StopName":"崇明路738號","ScheduleTime":"20:11","EstimateTime":"","CarInfo":"","Lon":120.225571,"Lat":22.967817,"Turn":30,"DayValue":"一,二,四,六","RecycleDate":"一,四"},{"StopId":6992,"StopName":"大同路二段779號（北京理容院）","ScheduleTime":"20:17","EstimateTime":"","CarInfo":"","Lon":120.2162791,"Lat":22.9658242,"Turn":31,"DayValue":"一,二,四,六","RecycleDate":"一,四"},{"StopId":6993,"StopName":"大同路二段723號","ScheduleTime":"20:19","EstimateTime":"","CarInfo":"","Lon":120.2161658,"Lat":22.9664926,"Turn":32,"DayValue":"一,二,四,六","RecycleDate":"一,四"},{"StopId":6994,"StopName":"大同路二段615號(亞伯大樓)","ScheduleTime":"20:22","EstimateTime":"","CarInfo":"","Lon":120.21592,"Lat":22.9678124,"Turn":33,"DayValue":"一,二,四,六","RecycleDate":"一,四"},{"StopId":6995,"StopName":"大同路二段及601號（國寶大樓）","ScheduleTime":"20:25","EstimateTime":"","CarInfo":"","Lon":120.2158664,"Lat":22.9682258,"Turn":34,"DayValue":"一,二,四,六","RecycleDate":"一,四"},{"StopId":6996,"StopName":"大同路二段497號（弘晟汽車）","ScheduleTime":"20:29","EstimateTime":"","CarInfo":"","Lon":120.215588,"Lat":22.969653,"Turn":35,"DayValue":"一,二,四,六","RecycleDate":"一,四"},{"StopId":6997,"StopName":"大同路二段449巷口（竹仔店）","ScheduleTime":"20:32","EstimateTime":"","CarInfo":"","Lon":120.215175,"Lat":22.971149,"Turn":36,"DayValue":"一,二,四,六","RecycleDate":"一,四"},{"StopId":6998,"StopName":"大同路二段449巷11號前","ScheduleTime":"20:34","EstimateTime":"","CarInfo":"","Lon":120.216384,"Lat":22.97134,"Turn":37,"DayValue":"一,二,四,六","RecycleDate":"一,四"},{"StopId":6999,"StopName":"大同路二段449巷73號（豬腸工廠）","ScheduleTime":"20:36","EstimateTime":"","CarInfo":"","Lon":120.217539,"Lat":22.972131,"Turn":38,"DayValue":"一,二,四,六","RecycleDate":"一,四"},{"StopId":7000,"StopName":"大同路二段403巷66號","ScheduleTime":"20:39","EstimateTime":"","CarInfo":"","Lon":120.2167861,"Lat":22.9720746,"Turn":39,"DayValue":"一,二,四,六","RecycleDate":"一,四"},{"StopId":7001,"StopName":"大同路二段403巷61號","ScheduleTime":"20:41","EstimateTime":"","CarInfo":"","Lon":120.2158529,"Lat":22.9719453,"Turn":40,"DayValue":"一,二,四,六","RecycleDate":"一,四"},{"StopId":7002,"StopName":"中華東路三段511號路橋下活動中心","ScheduleTime":"20:44","EstimateTime":"","CarInfo":"","Lon":120.216682,"Lat":22.972656,"Turn":41,"DayValue":"一,二,四,六","RecycleDate":"一,四"},{"StopId":7003,"StopName":"中華東路三段618巷口","ScheduleTime":"20:48","EstimateTime":"","CarInfo":"","Lon":120.2151707,"Lat":22.9725614,"Turn":42,"DayValue":"一,二,四,六","RecycleDate":"一,四"},{"StopId":7004,"StopName":"大同路二段261號前","ScheduleTime":"20:50","EstimateTime":"","CarInfo":"","Lon":120.2142445,"Lat":22.9750226,"Turn":43,"DayValue":"一,二,四,六","RecycleDate":"一,四"},{"StopId":7005,"StopName":"大同路二段205號前","ScheduleTime":"20:54","EstimateTime":"","CarInfo":"","Lon":120.2140222,"Lat":22.9760675,"Turn":44,"DayValue":"一,二,四,六","RecycleDate":"一,四"}],"CarData":[{"CarNo":"958-T5","Angle":81,"Lon":120.214622,"Lat":22.977891}],"RouteId":171,"RouteName":"東區-05","RouteInfo":"立德三路1號旁~大同路二段205號前","IsWork":true}]