[{"StopData":[{"StopId":10985,"StopName":"慶平路88號","ScheduleTime":"13:05","EstimateTime":"","CarInfo":"","Lon":120.181884,"Lat":22.997086,"Turn":1,"DayValue":"一,二,四,六","RecycleDate":"一,四"},{"StopId":10986,"StopName":"安億路139號(台灣船)","ScheduleTime":"13:13","EstimateTime":"","CarInfo":"","Lon":120.156982,"Lat":22.991924,"Turn":2,"DayValue":"一,二,四,六","RecycleDate":"一,四"},{"StopId":10987,"StopName":"光洲路3號(億載金城)","ScheduleTime":"13:17","EstimateTime":"","CarInfo":"","Lon":120.160299,"Lat":22.988307,"Turn":3,"DayValue":"一,二,四,六","RecycleDate":"一,四"},{"StopId":10988,"StopName":"漁光里","ScheduleTime":"13:44","EstimateTime":"","CarInfo":"","Lon":120.159258,"Lat":22.976663,"Turn":4,"DayValue":"一,二,四,六","RecycleDate":"一,四"},{"StopId":10989,"StopName":"健康路三段308號(台南市地方法院)","ScheduleTime":"14:14","EstimateTime":"","CarInfo":"","Lon":120.171738,"Lat":22.984194,"Turn":5,"DayValue":"一,二,四,六","RecycleDate":"一,四"},{"StopId":10990,"StopName":"建平十七街235號(至尊天下)","ScheduleTime":"14:19","EstimateTime":"","CarInfo":"","Lon":120.176117,"Lat":22.997259,"Turn":6,"DayValue":"一,二,四,六","RecycleDate":"一,四"},{"StopId":10991,"StopName":"永華六街206巷公寓(太古廣場)","ScheduleTime":"14:22","EstimateTime":"","CarInfo":"","Lon":120.178226,"Lat":22.996361,"Turn":7,"DayValue":"一,二,四,六","RecycleDate":"一,四"},{"StopId":10992,"StopName":"建平十七街121號(賓士皇宮)","ScheduleTime":"14:25","EstimateTime":"","CarInfo":"","Lon":120.179878,"Lat":22.997493,"Turn":8,"DayValue":"一,二,四,六","RecycleDate":"一,四"},{"StopId":10993,"StopName":"建平十七街67號和81號","ScheduleTime":"14:29","EstimateTime":"","CarInfo":"","Lon":120.181332,"Lat":22.997447,"Turn":9,"DayValue":"一,二,四,六","RecycleDate":"一,四"},{"StopId":10994,"StopName":"建平十七街43號(御品天廈)","ScheduleTime":"14:35","EstimateTime":"","CarInfo":"","Lon":120.182522,"Lat":22.99737,"Turn":10,"DayValue":"一,二,四,六","RecycleDate":"一,四"},{"StopId":10995,"StopName":"永華路二段6號(市政府)","ScheduleTime":"14:36","EstimateTime":"","CarInfo":"","Lon":120.184997,"Lat":22.991303,"Turn":11,"DayValue":"一,二,四,六","RecycleDate":"一,四"},{"StopId":10996,"StopName":"怡平路75號","ScheduleTime":"14:40","EstimateTime":"","CarInfo":"","Lon":120.18093,"Lat":22.993048,"Turn":12,"DayValue":"一,二,四,六","RecycleDate":"一,四"},{"StopId":10997,"StopName":"怡平路140巷27弄7號","ScheduleTime":"14:44","EstimateTime":"","CarInfo":"","Lon":120.179443,"Lat":22.994076,"Turn":13,"DayValue":"一,二,四,六","RecycleDate":"一,四"},{"StopId":10998,"StopName":"萬客隆(台南市安平區育平九街22巷5號)","ScheduleTime":"14:47","EstimateTime":"","CarInfo":"","Lon":120.17497,"Lat":22.995121,"Turn":14,"DayValue":"一,二,四,六","RecycleDate":"一,四"},{"StopId":10999,"StopName":"國平路591巷60號前(富碧公園)","ScheduleTime":"14:49","EstimateTime":"","CarInfo":"","Lon":120.17025,"Lat":22.996584,"Turn":15,"DayValue":"一,二,四,六","RecycleDate":"一,四"},{"StopId":11000,"StopName":"育平九街245號前(府城大第)","ScheduleTime":"14:51","EstimateTime":"","CarInfo":"","Lon":120.169852,"Lat":22.995354,"Turn":16,"DayValue":"一,二,四,六","RecycleDate":"一,四"},{"StopId":11001,"StopName":"平通路580巷49號前(荷蘭芳鄰)","ScheduleTime":"14:55","EstimateTime":"","CarInfo":"","Lon":120.170379,"Lat":22.995045,"Turn":17,"DayValue":"一,二,四,六","RecycleDate":"一,四"},{"StopId":11002,"StopName":"健康三街460巷62號(大隆世紀觀二期公寓)","ScheduleTime":"15:00","EstimateTime":"","CarInfo":"","Lon":120.170886,"Lat":22.994225,"Turn":18,"DayValue":"一,二,四,六","RecycleDate":"一,四"},{"StopId":11003,"StopName":"國平路387號(大隆世紀觀二期公寓)","ScheduleTime":"15:06","EstimateTime":"","CarInfo":"","Lon":120.171349,"Lat":22.993898,"Turn":19,"DayValue":"一,二,四,六","RecycleDate":"一,四"},{"StopId":11004,"StopName":"永華六街66號","ScheduleTime":"15:08","EstimateTime":"","CarInfo":"","Lon":120.176768,"Lat":22.992421,"Turn":20,"DayValue":"一,二,四,六","RecycleDate":"一,四"},{"StopId":11005,"StopName":"長青公寓(台南市安平區建平路2號)","ScheduleTime":"15:12","EstimateTime":"","CarInfo":"","Lon":120.181512,"Lat":22.983073,"Turn":21,"DayValue":"一,二,四,六","RecycleDate":"一,四"},{"StopId":11006,"StopName":"建平三街65巷20號(世紀名園)(台邦天地)","ScheduleTime":"15:18","EstimateTime":"","CarInfo":"","Lon":120.178342,"Lat":22.984966,"Turn":22,"DayValue":"一,二,四,六","RecycleDate":"一,四"},{"StopId":11007,"StopName":"建平五街184巷8號（歡喜樓公寓）","ScheduleTime":"15:21","EstimateTime":"","CarInfo":"","Lon":120.176691,"Lat":22.988207,"Turn":23,"DayValue":"一,二,四,六","RecycleDate":"一,四"},{"StopId":11008,"StopName":"府平路364號(大隆新香港公寓)","ScheduleTime":"15:24","EstimateTime":"","CarInfo":"","Lon":120.167759,"Lat":22.987142,"Turn":24,"DayValue":"一,二,四,六","RecycleDate":"一,四"},{"StopId":11009,"StopName":"光州二街150號(親愛寶貝大樓)","ScheduleTime":"15:31","EstimateTime":"","CarInfo":"","Lon":120.16542,"Lat":22.98677,"Turn":25,"DayValue":"一,二,四,六","RecycleDate":"一,四"},{"StopId":16759,"StopName":"育平二街45號對面及健康三街12巷1號（荷蘭公寓）","ScheduleTime":"15:38","EstimateTime":"","CarInfo":"","Lon":120.168417,"Lat":22.985223,"Turn":26,"DayValue":"一,二,四,六","RecycleDate":"一,四"},{"StopId":16760,"StopName":"建平七街677號（富貴龍門公寓）","ScheduleTime":"15:45","EstimateTime":"","CarInfo":"","Lon":120.169467,"Lat":22.990011,"Turn":27,"DayValue":"一,二,四,六","RecycleDate":"一,四"}],"CarData":[],"RouteId":333,"RouteName":"安平區-2(日間)","RouteInfo":"慶平路88號~建平七街677號（富貴龍門公寓）","IsWork":true}]