[{"StopData":[{"StopId":1364,"StopName":"東寧里72之2號","ScheduleTime":"18:00","EstimateTime":"","CarInfo":"","Lon":120.184626,"Lat":23.163427,"Turn":1,"DayValue":"一,三,五","RecycleDate":"三"},{"StopId":1365,"StopName":"民安里17號(鐵工廠)","ScheduleTime":"18:05","EstimateTime":"","CarInfo":"","Lon":120.189952,"Lat":23.161658,"Turn":2,"DayValue":"一,三,五","RecycleDate":"三"},{"StopId":1366,"StopName":"同安寮34號（鎮安宮）","ScheduleTime":"18:08","EstimateTime":"","CarInfo":"","Lon":120.19205,"Lat":23.161147,"Turn":3,"DayValue":"一,三,五","RecycleDate":"三"},{"StopId":1367,"StopName":"同安寮90之1號","ScheduleTime":"18:11","EstimateTime":"","CarInfo":"","Lon":120.19312,"Lat":23.163807,"Turn":4,"DayValue":"一,三,五","RecycleDate":"三"},{"StopId":1368,"StopName":"子龍里219之1號（崇德醫院前）","ScheduleTime":"18:19","EstimateTime":"","CarInfo":"","Lon":120.206123,"Lat":23.172981,"Turn":5,"DayValue":"一,三,五","RecycleDate":"三"},{"StopId":1369,"StopName":"子龍里40號（永昌宮）","ScheduleTime":"18:26","EstimateTime":"","CarInfo":"","Lon":120.208368,"Lat":23.175095,"Turn":6,"DayValue":"一,三,五","RecycleDate":"三"},{"StopId":1370,"StopName":"子龍里57號","ScheduleTime":"18:32","EstimateTime":"","CarInfo":"","Lon":120.206197,"Lat":23.175041,"Turn":7,"DayValue":"一,三,五","RecycleDate":"三"},{"StopId":1371,"StopName":"後庄18之3號(雷恩行宮）","ScheduleTime":"18:39","EstimateTime":"","CarInfo":"","Lon":120.202752,"Lat":23.182763,"Turn":8,"DayValue":"一,三,五","RecycleDate":"三"},{"StopId":1372,"StopName":"後庄24之3號(樹下)","ScheduleTime":"18:43","EstimateTime":"","CarInfo":"","Lon":120.204451,"Lat":23.182204,"Turn":9,"DayValue":"一,三,五","RecycleDate":"三"},{"StopId":1373,"StopName":"菜寮23-23號","ScheduleTime":"18:49","EstimateTime":"","CarInfo":"","Lon":120.199398,"Lat":23.172787,"Turn":10,"DayValue":"一,三,五","RecycleDate":"三"},{"StopId":1374,"StopName":"民安里同安寮11鄰10號","ScheduleTime":"19:02","EstimateTime":"","CarInfo":"","Lon":120.191079,"Lat":23.175668,"Turn":11,"DayValue":"一,三,五","RecycleDate":"三"},{"StopId":1375,"StopName":"新宅37之6號（天玄宮）","ScheduleTime":"19:09","EstimateTime":"","CarInfo":"","Lon":120.194862,"Lat":23.183503,"Turn":12,"DayValue":"一,三,五","RecycleDate":"三"},{"StopId":1376,"StopName":"佳里興佳化里69之8號（代天宮）","ScheduleTime":"19:16","EstimateTime":"","CarInfo":"","Lon":120.195546,"Lat":23.186838,"Turn":13,"DayValue":"一,三,五","RecycleDate":"三"},{"StopId":1377,"StopName":"佳化里154號（長興宮）","ScheduleTime":"18:23","EstimateTime":"","CarInfo":"","Lon":120.192087,"Lat":23.185858,"Turn":14,"DayValue":"一,三,五","RecycleDate":"三"},{"StopId":1378,"StopName":"佳里興214號（佳興國小）","ScheduleTime":"19:32","EstimateTime":"","CarInfo":"","Lon":120.191232,"Lat":23.189419,"Turn":15,"DayValue":"一,三,五","RecycleDate":"三"},{"StopId":1379,"StopName":"興化541之1號（活動中心）","ScheduleTime":"19:44","EstimateTime":"","CarInfo":"","Lon":120.185834,"Lat":23.187546,"Turn":16,"DayValue":"一,三,五","RecycleDate":"三"},{"StopId":1380,"StopName":"禮化276號（曾姓祖厝祠）","ScheduleTime":"19:53","EstimateTime":"","CarInfo":"","Lon":120.186562,"Lat":23.192818,"Turn":17,"DayValue":"一,三,五","RecycleDate":"三"},{"StopId":1381,"StopName":"營頂里101之10號（佳福寺旁）","ScheduleTime":"20:07","EstimateTime":"","CarInfo":"","Lon":120.191359,"Lat":23.199284,"Turn":18,"DayValue":"一,三,五","RecycleDate":"三"},{"StopId":1382,"StopName":"營頂里54號（里長）","ScheduleTime":"20:13","EstimateTime":"","CarInfo":"","Lon":120.18894,"Lat":23.200118,"Turn":19,"DayValue":"一,三,五","RecycleDate":"三"},{"StopId":1383,"StopName":"溪洲58號前","ScheduleTime":"20:18","EstimateTime":"","CarInfo":"","Lon":120.184476,"Lat":23.206775,"Turn":20,"DayValue":"一,三,五","RecycleDate":"三"},{"StopId":1384,"StopName":"溪洲35號","ScheduleTime":"20:21","EstimateTime":"","CarInfo":"","Lon":120.182996,"Lat":23.205613,"Turn":21,"DayValue":"一,三,五","RecycleDate":"三"},{"StopId":1385,"StopName":"溪洲里85號前","ScheduleTime":"20:26","EstimateTime":"","CarInfo":"","Lon":120.184749,"Lat":23.208718,"Turn":22,"DayValue":"一,三,五","RecycleDate":"三"},{"StopId":1386,"StopName":"營頂25-1號","ScheduleTime":"20:33","EstimateTime":"","CarInfo":"","Lon":120.188579,"Lat":23.198982,"Turn":23,"DayValue":"一,三,五","RecycleDate":"三"}],"CarData":[],"RouteId":155,"RouteName":"佳里-6-3","RouteInfo":"東寧里72之2號~營頂25-1號","IsWork":false}]