[{"StopData":[{"StopId":2918,"StopName":"大灣東路22巷9號","ScheduleTime":"16:45","EstimateTime":"","CarInfo":"","Lon":120.2596351,"Lat":22.9976445,"Turn":1,"DayValue":"一,二,四,六","RecycleDate":"二,六"},{"StopId":2919,"StopName":"南興路2巷19號","ScheduleTime":"16:52","EstimateTime":"","CarInfo":"","Lon":120.2627231,"Lat":22.9951608,"Turn":2,"DayValue":"一,二,四,六","RecycleDate":"二,六"},{"StopId":2920,"StopName":"南興路48巷16號","ScheduleTime":"16:52","EstimateTime":"","CarInfo":"","Lon":120.262264,"Lat":22.996897,"Turn":3,"DayValue":"一,二,四,六","RecycleDate":"二,六"},{"StopId":2921,"StopName":"南興路112巷107號","ScheduleTime":"17:08","EstimateTime":"","CarInfo":"","Lon":120.2651041,"Lat":23.0008968,"Turn":4,"DayValue":"一,二,四,六","RecycleDate":"二,六"},{"StopId":2922,"StopName":"立興街176巷11號","ScheduleTime":"17:24","EstimateTime":"","CarInfo":"","Lon":120.2616899,"Lat":23.001273,"Turn":5,"DayValue":"一,二,四,六","RecycleDate":"二,六"},{"StopId":2923,"StopName":"大灣一街62巷2號","ScheduleTime":"17:24","EstimateTime":"","CarInfo":"","Lon":120.262012,"Lat":23.002495,"Turn":6,"DayValue":"一,二,四,六","RecycleDate":"二,六"},{"StopId":2924,"StopName":"大灣路764巷1號","ScheduleTime":"17:29","EstimateTime":"","CarInfo":"","Lon":120.26003,"Lat":23.0005391,"Turn":7,"DayValue":"一,二,四,六","RecycleDate":"二,六"},{"StopId":2925,"StopName":"南灣街101號","ScheduleTime":"17:36","EstimateTime":"","CarInfo":"","Lon":120.2619151,"Lat":23.0046057,"Turn":8,"DayValue":"一,二,四,六","RecycleDate":"二,六"},{"StopId":2926,"StopName":"大安街62號","ScheduleTime":"17:36","EstimateTime":"","CarInfo":"","Lon":120.263408,"Lat":23.003754,"Turn":9,"DayValue":"一,二,四,六","RecycleDate":"二,六"},{"StopId":2927,"StopName":"大灣一街80號","ScheduleTime":"17:36","EstimateTime":"","CarInfo":"","Lon":120.2629505,"Lat":23.0022532,"Turn":10,"DayValue":"一,二,四,六","RecycleDate":"二,六"},{"StopId":2928,"StopName":"立興街28巷19號","ScheduleTime":"17:47","EstimateTime":"","CarInfo":"","Lon":120.265109,"Lat":23.004087,"Turn":11,"DayValue":"一,二,四,六","RecycleDate":"二,六"},{"StopId":2929,"StopName":"大灣路436巷40號","ScheduleTime":"17:47","EstimateTime":"","CarInfo":"","Lon":120.265293,"Lat":23.004312,"Turn":12,"DayValue":"一,二,四,六","RecycleDate":"二,六"},{"StopId":2930,"StopName":"大灣路356巷36號","ScheduleTime":"18:30","EstimateTime":"","CarInfo":"","Lon":120.266302,"Lat":23.005959,"Turn":13,"DayValue":"一,二,四,六","RecycleDate":"二,六"},{"StopId":2931,"StopName":"大灣路288巷11號","ScheduleTime":"18:34","EstimateTime":"","CarInfo":"","Lon":120.267161,"Lat":23.007047,"Turn":14,"DayValue":"一,二,四,六","RecycleDate":"二,六"},{"StopId":2932,"StopName":"大灣五街93巷128號","ScheduleTime":"18:40","EstimateTime":"","CarInfo":"","Lon":120.263051,"Lat":23.0069089,"Turn":15,"DayValue":"一,二,四,六","RecycleDate":"二,六"},{"StopId":2933,"StopName":"永大路2段556巷23號","ScheduleTime":"18:47","EstimateTime":"","CarInfo":"","Lon":120.2632227,"Lat":23.0085206,"Turn":16,"DayValue":"一,二,四,六","RecycleDate":"二,六"},{"StopId":2934,"StopName":"民族路449號","ScheduleTime":"18:53","EstimateTime":"","CarInfo":"","Lon":120.2651971,"Lat":23.0084447,"Turn":17,"DayValue":"一,二,四,六","RecycleDate":"二,六"},{"StopId":2935,"StopName":"大灣五街69巷38號","ScheduleTime":"19:10","EstimateTime":"","CarInfo":"","Lon":120.265028,"Lat":23.006415,"Turn":18,"DayValue":"一,二,四,六","RecycleDate":"二,六"},{"StopId":2936,"StopName":"大灣三街218號","ScheduleTime":"19:15","EstimateTime":"","CarInfo":"","Lon":120.2633506,"Lat":23.0061904,"Turn":19,"DayValue":"一,二,四,六","RecycleDate":"二,六"},{"StopId":2937,"StopName":"民族路273巷16號","ScheduleTime":"19:40","EstimateTime":"","CarInfo":"","Lon":120.2688612,"Lat":23.0046714,"Turn":20,"DayValue":"一,二,四,六","RecycleDate":"二,六"},{"StopId":2938,"StopName":"民族路181巷3弄2號","ScheduleTime":"19:46","EstimateTime":"","CarInfo":"","Lon":120.2704442,"Lat":23.0031879,"Turn":21,"DayValue":"一,二,四,六","RecycleDate":"二,六"},{"StopId":2939,"StopName":"民族路145巷119號","ScheduleTime":"19:49","EstimateTime":"","CarInfo":"","Lon":120.2690297,"Lat":23.0017194,"Turn":22,"DayValue":"一,二,四,六","RecycleDate":"二,六"},{"StopId":2940,"StopName":"大灣三街89號","ScheduleTime":"19:56","EstimateTime":"","CarInfo":"","Lon":120.2667343,"Lat":23.0045789,"Turn":23,"DayValue":"一,二,四,六","RecycleDate":"二,六"}],"CarData":[{"CarNo":"291-TF","Angle":252,"Lon":120.26538,"Lat":22.997961}],"RouteId":65,"RouteName":"永康-夜間25","RouteInfo":"大灣東路22巷9號~大灣三街89號","IsWork":true}]