[{"StopData":[{"StopId":15737,"StopName":"自由路三段142號","ScheduleTime":"16:00","EstimateTime":"","CarInfo":"","Lon":120.237625,"Lat":22.978714,"Turn":1,"DayValue":"一,二,四,六","RecycleDate":"一,四"},{"StopId":15738,"StopName":"東成街111巷12弄與14弄口","ScheduleTime":"16:03","EstimateTime":"","CarInfo":"","Lon":120.235334,"Lat":22.980803,"Turn":2,"DayValue":"一,二,四,六","RecycleDate":"一,四"},{"StopId":15739,"StopName":"富農街一段188巷35號","ScheduleTime":"16:07","EstimateTime":"","CarInfo":"","Lon":120.235501,"Lat":22.981865,"Turn":3,"DayValue":"一,二,四,六","RecycleDate":"一,四"},{"StopId":15740,"StopName":"裕學路7號前","ScheduleTime":"16:12","EstimateTime":"","CarInfo":"","Lon":120.238092,"Lat":22.985058,"Turn":4,"DayValue":"一,二,四,六","RecycleDate":"一,四"},{"StopId":15741,"StopName":"裕學路55號（塔木德會館）","ScheduleTime":"16:14","EstimateTime":"","CarInfo":"","Lon":120.236677,"Lat":22.984958,"Turn":5,"DayValue":"一,二,四,六","RecycleDate":"一,四"},{"StopId":15742,"StopName":"富農街一段288號對面環保局","ScheduleTime":"16:18","EstimateTime":"","CarInfo":"","Lon":120.235343,"Lat":22.984144,"Turn":6,"DayValue":"一,二,四,六","RecycleDate":"一,四"},{"StopId":15743,"StopName":"富農街一段268巷38號","ScheduleTime":"16:22","EstimateTime":"","CarInfo":"","Lon":120.235768,"Lat":22.984249,"Turn":7,"DayValue":"一,二,四,六","RecycleDate":"一,四"},{"StopId":15744,"StopName":"東成街114巷口旁","ScheduleTime":"16:27","EstimateTime":"","CarInfo":"","Lon":120.234876,"Lat":22.980153,"Turn":8,"DayValue":"一,二,四,六","RecycleDate":"一,四"},{"StopId":15745,"StopName":"東成街150號旁公園","ScheduleTime":"16:31","EstimateTime":"","CarInfo":"","Lon":120.236542,"Lat":22.980277,"Turn":9,"DayValue":"一,二,四,六","RecycleDate":"一,四"},{"StopId":15746,"StopName":"東成街與自由路三段口","ScheduleTime":"16:35","EstimateTime":"","CarInfo":"","Lon":120.237534,"Lat":22.980292,"Turn":10,"DayValue":"一,二,四,六","RecycleDate":"一,四"},{"StopId":15747,"StopName":"東成街200巷54號（東方名人大樓）","ScheduleTime":"16:39","EstimateTime":"","CarInfo":"","Lon":120.238087,"Lat":22.979276,"Turn":11,"DayValue":"一,二,四,六","RecycleDate":"一,四"},{"StopId":15748,"StopName":"東門路三段179巷147弄13號","ScheduleTime":"16:43","EstimateTime":"","CarInfo":"","Lon":120.236987,"Lat":22.978554,"Turn":12,"DayValue":"一,二,四,六","RecycleDate":"一,四"},{"StopId":15749,"StopName":"東門路三段273巷65號","ScheduleTime":"16:47","EstimateTime":"","CarInfo":"","Lon":120.236458,"Lat":22.97774,"Turn":13,"DayValue":"一,二,四,六","RecycleDate":"一,四"},{"StopId":15750,"StopName":"東門路三段273巷24弄口","ScheduleTime":"16:50","EstimateTime":"","CarInfo":"","Lon":120.236684,"Lat":22.976779,"Turn":14,"DayValue":"一,二,四,六","RecycleDate":"一,四"},{"StopId":15751,"StopName":"東門路三段253號大樓（百利通商廣場）","ScheduleTime":"16:54","EstimateTime":"","CarInfo":"","Lon":120.235905,"Lat":22.976383,"Turn":15,"DayValue":"一,二,四,六","RecycleDate":"一,四"},{"StopId":15752,"StopName":"東門路三段211號林家牛肉","ScheduleTime":"16:57","EstimateTime":"","CarInfo":"","Lon":120.234964,"Lat":22.977086,"Turn":16,"DayValue":"一,二,四,六","RecycleDate":"一,四"},{"StopId":15753,"StopName":"東門路三段141巷口","ScheduleTime":"17:00","EstimateTime":"","CarInfo":"","Lon":120.23347,"Lat":22.978197,"Turn":17,"DayValue":"一,二,四,六","RecycleDate":"一,四"},{"StopId":15754,"StopName":"東門路三段101號前","ScheduleTime":"17:03","EstimateTime":"","CarInfo":"","Lon":120.232022,"Lat":22.979265,"Turn":18,"DayValue":"一,二,四,六","RecycleDate":"一,四"},{"StopId":15755,"StopName":"東門路三段77號前","ScheduleTime":"17:06","EstimateTime":"","CarInfo":"","Lon":120.231817,"Lat":22.979394,"Turn":19,"DayValue":"一,二,四,六","RecycleDate":"一,四"},{"StopId":15756,"StopName":"裕忠三街125巷口","ScheduleTime":"17:10","EstimateTime":"","CarInfo":"","Lon":120.239259,"Lat":22.98001,"Turn":20,"DayValue":"一,二,四,六","RecycleDate":"一,四"},{"StopId":15757,"StopName":"裕忠三街65號","ScheduleTime":"17:13","EstimateTime":"","CarInfo":"","Lon":120.240558,"Lat":22.979535,"Turn":21,"DayValue":"一,二,四,六","RecycleDate":"一,四"},{"StopId":15758,"StopName":"東成街28巷口","ScheduleTime":"19:00","EstimateTime":"","CarInfo":"","Lon":120.232274,"Lat":22.979726,"Turn":22,"DayValue":"一,二,四,六","RecycleDate":"一,四"},{"StopId":15759,"StopName":"東成街46巷及56巷口","ScheduleTime":"19:02","EstimateTime":"","CarInfo":"","Lon":120.232961,"Lat":22.979832,"Turn":23,"DayValue":"一,二,四,六","RecycleDate":"一,四"},{"StopId":15760,"StopName":"東成街82號之4","ScheduleTime":"19:05","EstimateTime":"","CarInfo":"","Lon":120.23401,"Lat":22.980004,"Turn":24,"DayValue":"一,二,四,六","RecycleDate":"一,四"},{"StopId":15761,"StopName":"裕文路125號旁停車場前","ScheduleTime":"19:09","EstimateTime":"","CarInfo":"","Lon":120.240536,"Lat":22.982679,"Turn":25,"DayValue":"一,二,四,六","RecycleDate":"一,四"},{"StopId":15762,"StopName":"自由路三段151號前","ScheduleTime":"19:13","EstimateTime":"","CarInfo":"","Lon":120.237306,"Lat":22.981133,"Turn":26,"DayValue":"一,二,四,六","RecycleDate":"一,四"},{"StopId":15763,"StopName":"東成街222巷口","ScheduleTime":"19:17","EstimateTime":"","CarInfo":"","Lon":120.238614,"Lat":22.979764,"Turn":27,"DayValue":"一,二,四,六","RecycleDate":"一,四"},{"StopId":15764,"StopName":"自由路三段16號（太子鎮B座）","ScheduleTime":"19:21","EstimateTime":"","CarInfo":"","Lon":120.237468,"Lat":22.976386,"Turn":28,"DayValue":"一,二,四,六","RecycleDate":"一,四"},{"StopId":15765,"StopName":"東門路三段179巷28號對面","ScheduleTime":"19:37","EstimateTime":"","CarInfo":"","Lon":120.235121,"Lat":22.977607,"Turn":29,"DayValue":"一,二,四,六","RecycleDate":"一,四"},{"StopId":15766,"StopName":"東門路三段273巷67號","ScheduleTime":"19:40","EstimateTime":"","CarInfo":"","Lon":120.236449,"Lat":22.97772,"Turn":30,"DayValue":"一,二,四,六","RecycleDate":"一,四"},{"StopId":15767,"StopName":"東成街182巷4弄2號前","ScheduleTime":"19:44","EstimateTime":"","CarInfo":"","Lon":120.236816,"Lat":22.979908,"Turn":31,"DayValue":"一,二,四,六","RecycleDate":"一,四"},{"StopId":15768,"StopName":"富農街一段72巷與東成街142巷口","ScheduleTime":"19:48","EstimateTime":"","CarInfo":"","Lon":120.235977,"Lat":22.979246,"Turn":32,"DayValue":"一,二,四,六","RecycleDate":"一,四"},{"StopId":15769,"StopName":"東成街142巷87號對面","ScheduleTime":"19:51","EstimateTime":"","CarInfo":"","Lon":120.236047,"Lat":22.97844,"Turn":33,"DayValue":"一,二,四,六","RecycleDate":"一,四"},{"StopId":15770,"StopName":"富農街一段36巷口","ScheduleTime":"19:54","EstimateTime":"","CarInfo":"","Lon":120.234314,"Lat":22.978356,"Turn":34,"DayValue":"一,二,四,六","RecycleDate":"一,四"},{"StopId":15771,"StopName":"富農街一段72巷口","ScheduleTime":"20:00","EstimateTime":"","CarInfo":"","Lon":120.234485,"Lat":22.979243,"Turn":35,"DayValue":"一,二,四,六","RecycleDate":"一,四"},{"StopId":15772,"StopName":"富農街一段138巷口","ScheduleTime":"20:04","EstimateTime":"","CarInfo":"","Lon":120.23438,"Lat":22.980796,"Turn":36,"DayValue":"一,二,四,六","RecycleDate":"一,四"},{"StopId":15773,"StopName":"富農街一段172號","ScheduleTime":"20:08","EstimateTime":"","CarInfo":"","Lon":120.234643,"Lat":22.981626,"Turn":37,"DayValue":"一,二,四,六","RecycleDate":"一,四"},{"StopId":15774,"StopName":"裕忠路302號(和風村)","ScheduleTime":"20:13","EstimateTime":"","CarInfo":"","Lon":120.241718,"Lat":22.981252,"Turn":38,"DayValue":"一,二,四,六","RecycleDate":"一,四"}],"CarData":[],"RouteId":173,"RouteName":"東區-07","RouteInfo":"自由路三段142號~裕忠路302號(和風村)","IsWork":true}]