[{"StopData":[{"StopId":7016,"StopName":"自由路三段142號","ScheduleTime":"16:00","EstimateTime":"","CarInfo":"","Lon":120.237318,"Lat":22.9812583,"Turn":1,"DayValue":"一,二,四,六","RecycleDate":"一,四"},{"StopId":7017,"StopName":"東成街111巷12弄與14弄口","ScheduleTime":"16:03","EstimateTime":"","CarInfo":"","Lon":120.2355063,"Lat":22.9807517,"Turn":2,"DayValue":"一,二,四,六","RecycleDate":"一,四"},{"StopId":7018,"StopName":"富農街一段188巷35號","ScheduleTime":"16:07","EstimateTime":"","CarInfo":"","Lon":120.2354871,"Lat":22.9819002,"Turn":3,"DayValue":"一,二,四,六","RecycleDate":"一,四"},{"StopId":7019,"StopName":"裕學路7號前","ScheduleTime":"16:12","EstimateTime":"","CarInfo":"","Lon":120.237924,"Lat":22.985032,"Turn":4,"DayValue":"一,二,四,六","RecycleDate":"一,四"},{"StopId":7020,"StopName":"裕學路55號（塔木德會館）","ScheduleTime":"16:14","EstimateTime":"","CarInfo":"","Lon":120.23695,"Lat":22.984994,"Turn":5,"DayValue":"一,二,四,六","RecycleDate":"一,四"},{"StopId":7021,"StopName":"富農街一段288號對面環保局","ScheduleTime":"16:18","EstimateTime":"","CarInfo":"","Lon":120.2355243,"Lat":22.9845656,"Turn":6,"DayValue":"一,二,四,六","RecycleDate":"一,四"},{"StopId":7022,"StopName":"富農街一段268巷38號","ScheduleTime":"16:22","EstimateTime":"","CarInfo":"","Lon":120.2357937,"Lat":22.9839556,"Turn":7,"DayValue":"一,二,四,六","RecycleDate":"一,四"},{"StopId":7023,"StopName":"東成街114巷口旁","ScheduleTime":"16:27","EstimateTime":"","CarInfo":"","Lon":120.2352603,"Lat":22.980146,"Turn":8,"DayValue":"一,二,四,六","RecycleDate":"一,四"},{"StopId":7024,"StopName":"東成街150號旁公園","ScheduleTime":"16:31","EstimateTime":"","CarInfo":"","Lon":120.2360685,"Lat":22.9802263,"Turn":9,"DayValue":"一,二,四,六","RecycleDate":"一,四"},{"StopId":7025,"StopName":"東成街與自由路三段口","ScheduleTime":"16:35","EstimateTime":"","CarInfo":"","Lon":120.237538,"Lat":22.980353,"Turn":10,"DayValue":"一,二,四,六","RecycleDate":"一,四"},{"StopId":7026,"StopName":"東成街200巷54號（東方名人大樓）","ScheduleTime":"16:39","EstimateTime":"","CarInfo":"","Lon":120.2381111,"Lat":22.9790157,"Turn":11,"DayValue":"一,二,四,六","RecycleDate":"一,四"},{"StopId":7027,"StopName":"東門路三段179巷147弄13號","ScheduleTime":"16:43","EstimateTime":"","CarInfo":"","Lon":120.236994,"Lat":22.97855,"Turn":12,"DayValue":"一,二,四,六","RecycleDate":"一,四"},{"StopId":7028,"StopName":"東門路三段273巷65號","ScheduleTime":"16:47","EstimateTime":"","CarInfo":"","Lon":120.2366397,"Lat":22.9770642,"Turn":13,"DayValue":"一,二,四,六","RecycleDate":"一,四"},{"StopId":7029,"StopName":"東門路三段273巷24弄口","ScheduleTime":"16:50","EstimateTime":"","CarInfo":"","Lon":120.2366859,"Lat":22.9767442,"Turn":14,"DayValue":"一,二,四,六","RecycleDate":"一,四"},{"StopId":7030,"StopName":"東門路三段253號大樓（百利通商廣場）","ScheduleTime":"16:54","EstimateTime":"","CarInfo":"","Lon":120.2359935,"Lat":22.976316,"Turn":15,"DayValue":"一,二,四,六","RecycleDate":"一,四"},{"StopId":7031,"StopName":"東門路三段211號林家牛肉","ScheduleTime":"16:57","EstimateTime":"","CarInfo":"","Lon":120.2349696,"Lat":22.977056,"Turn":16,"DayValue":"一,二,四,六","RecycleDate":"一,四"},{"StopId":7032,"StopName":"東門路三段141巷口","ScheduleTime":"17:00","EstimateTime":"","CarInfo":"","Lon":120.2334616,"Lat":22.978203,"Turn":17,"DayValue":"一,二,四,六","RecycleDate":"一,四"},{"StopId":7033,"StopName":"東門路三段101號前","ScheduleTime":"17:03","EstimateTime":"","CarInfo":"","Lon":120.2323339,"Lat":22.9790139,"Turn":18,"DayValue":"一,二,四,六","RecycleDate":"一,四"},{"StopId":7034,"StopName":"東門路三段77號前","ScheduleTime":"17:06","EstimateTime":"","CarInfo":"","Lon":120.2316054,"Lat":22.9795134,"Turn":19,"DayValue":"一,二,四,六","RecycleDate":"一,四"},{"StopId":7035,"StopName":"裕忠三街125巷口","ScheduleTime":"17:10","EstimateTime":"","CarInfo":"","Lon":120.2393319,"Lat":22.9800471,"Turn":20,"DayValue":"一,二,四,六","RecycleDate":"一,四"},{"StopId":7036,"StopName":"裕忠三街65號","ScheduleTime":"17:13","EstimateTime":"","CarInfo":"","Lon":120.2405973,"Lat":22.9795937,"Turn":21,"DayValue":"一,二,四,六","RecycleDate":"一,四"},{"StopId":7037,"StopName":"東成街28巷口","ScheduleTime":"19:00","EstimateTime":"","CarInfo":"","Lon":120.2321978,"Lat":22.9797087,"Turn":22,"DayValue":"一,二,四,六","RecycleDate":"一,四"},{"StopId":7038,"StopName":"東成街46巷及56巷口","ScheduleTime":"19:02","EstimateTime":"","CarInfo":"","Lon":120.2330531,"Lat":22.9798555,"Turn":23,"DayValue":"一,二,四,六","RecycleDate":"一,四"},{"StopId":7039,"StopName":"東成街82號之4","ScheduleTime":"19:05","EstimateTime":"","CarInfo":"","Lon":120.2339707,"Lat":22.9799829,"Turn":24,"DayValue":"一,二,四,六","RecycleDate":"一,四"},{"StopId":7040,"StopName":"裕文路125號旁停車場前","ScheduleTime":"19:09","EstimateTime":"","CarInfo":"","Lon":120.2401047,"Lat":22.982638,"Turn":25,"DayValue":"一,二,四,六","RecycleDate":"一,四"},{"StopId":7041,"StopName":"自由路三段151號前","ScheduleTime":"19:13","EstimateTime":"","CarInfo":"","Lon":120.2373589,"Lat":22.9810406,"Turn":26,"DayValue":"一,二,四,六","RecycleDate":"一,四"},{"StopId":7042,"StopName":"東成街222巷口","ScheduleTime":"19:17","EstimateTime":"","CarInfo":"","Lon":120.2386291,"Lat":22.9801605,"Turn":27,"DayValue":"一,二,四,六","RecycleDate":"一,四"},{"StopId":7043,"StopName":"自由路三段16號（太子鎮B座）","ScheduleTime":"19:21","EstimateTime":"","CarInfo":"","Lon":120.2376294,"Lat":22.9763893,"Turn":28,"DayValue":"一,二,四,六","RecycleDate":"一,四"},{"StopId":7044,"StopName":"東門路三段179巷28號對面","ScheduleTime":"19:39","EstimateTime":"","CarInfo":"","Lon":120.2352617,"Lat":22.9776301,"Turn":29,"DayValue":"一,二,四,六","RecycleDate":"一,四"},{"StopId":7045,"StopName":"東門路三段273巷67號","ScheduleTime":"19:43","EstimateTime":"","CarInfo":"","Lon":120.2365681,"Lat":22.9776578,"Turn":30,"DayValue":"一,二,四,六","RecycleDate":"一,四"},{"StopId":7046,"StopName":"東成街182巷4弄2號前","ScheduleTime":"19:47","EstimateTime":"","CarInfo":"","Lon":120.2367265,"Lat":22.9795379,"Turn":31,"DayValue":"一,二,四,六","RecycleDate":"一,四"},{"StopId":7047,"StopName":"富農街一段72巷與東成街142巷口","ScheduleTime":"19:51","EstimateTime":"","CarInfo":"","Lon":120.235985,"Lat":22.979327,"Turn":32,"DayValue":"一,二,四,六","RecycleDate":"一,四"},{"StopId":7048,"StopName":"東成街142巷87號對面","ScheduleTime":"19:55","EstimateTime":"","CarInfo":"","Lon":120.2360911,"Lat":22.9784119,"Turn":33,"DayValue":"一,二,四,六","RecycleDate":"一,四"},{"StopId":7049,"StopName":"富農街一段36巷口","ScheduleTime":"19:59","EstimateTime":"","CarInfo":"","Lon":120.2343728,"Lat":22.9782211,"Turn":34,"DayValue":"一,二,四,六","RecycleDate":"一,四"},{"StopId":7050,"StopName":"富農街一段72巷口","ScheduleTime":"20:03","EstimateTime":"","CarInfo":"","Lon":120.2344325,"Lat":22.9791126,"Turn":35,"DayValue":"一,二,四,六","RecycleDate":"一,四"},{"StopId":7051,"StopName":"富農街一段138巷口","ScheduleTime":"20:07","EstimateTime":"","CarInfo":"","Lon":120.2343733,"Lat":22.9807343,"Turn":36,"DayValue":"一,二,四,六","RecycleDate":"一,四"},{"StopId":7052,"StopName":"富農街一段172號","ScheduleTime":"20:11","EstimateTime":"","CarInfo":"","Lon":120.2346092,"Lat":22.9816271,"Turn":37,"DayValue":"一,二,四,六","RecycleDate":"一,四"},{"StopId":7053,"StopName":"裕忠路302號(和風村)","ScheduleTime":"20:16","EstimateTime":"","CarInfo":"","Lon":120.241585,"Lat":22.981378,"Turn":38,"DayValue":"一,二,四,六","RecycleDate":"一,四"}],"CarData":[],"RouteId":173,"RouteName":"東區-07","RouteInfo":"自由路三段142號~裕忠路302號(和風村)","IsWork":true}]