[{"StopData":[{"StopId":16522,"StopName":"四維街19號","ScheduleTime":"17:18","EstimateTime":"","CarInfo":"","Lon":120.413236,"Lat":23.35058,"Turn":1,"DayValue":"五","RecycleDate":"五"},{"StopId":16523,"StopName":"一心街12號","ScheduleTime":"17:24","EstimateTime":"","CarInfo":"","Lon":120.413599,"Lat":23.351853,"Turn":2,"DayValue":"五","RecycleDate":"五"},{"StopId":16524,"StopName":"康樂路43號","ScheduleTime":"17:42","EstimateTime":"","CarInfo":"","Lon":120.414795,"Lat":23.348374,"Turn":3,"DayValue":"五","RecycleDate":"五"},{"StopId":16525,"StopName":"國泰路102號","ScheduleTime":"17:55","EstimateTime":"","CarInfo":"","Lon":120.41327,"Lat":23.348079,"Turn":4,"DayValue":"五","RecycleDate":"五"},{"StopId":16526,"StopName":"中正路179號","ScheduleTime":"18:02","EstimateTime":"","CarInfo":"","Lon":120.410265,"Lat":23.34912,"Turn":5,"DayValue":"五","RecycleDate":"五"},{"StopId":16527,"StopName":"民安路86號","ScheduleTime":"18:08","EstimateTime":"","CarInfo":"","Lon":120.410265,"Lat":23.34912,"Turn":6,"DayValue":"五","RecycleDate":"五"},{"StopId":16528,"StopName":"富民路288號","ScheduleTime":"18:16","EstimateTime":"","CarInfo":"","Lon":120.410275,"Lat":23.346426,"Turn":7,"DayValue":"五","RecycleDate":"五"},{"StopId":16529,"StopName":"中山路133號","ScheduleTime":"18:43","EstimateTime":"","CarInfo":"","Lon":120.41665,"Lat":23.35195,"Turn":8,"DayValue":"五","RecycleDate":"五"},{"StopId":16530,"StopName":"新厝子70-8號","ScheduleTime":"18:53","EstimateTime":"","CarInfo":"","Lon":120.408194,"Lat":23.3482,"Turn":9,"DayValue":"五","RecycleDate":"五"},{"StopId":16531,"StopName":"開明街153號","ScheduleTime":"19:09","EstimateTime":"","CarInfo":"","Lon":120.41887,"Lat":23.350289,"Turn":10,"DayValue":"五","RecycleDate":"五"},{"StopId":16532,"StopName":"新起街5號","ScheduleTime":"19:15","EstimateTime":"","CarInfo":"","Lon":120.415855,"Lat":23.34788,"Turn":11,"DayValue":"五","RecycleDate":"五"}],"CarData":[],"RouteId":395,"RouteName":"白河-1-5","RouteInfo":"四維街19號~新起街5號","IsWork":false}]