[{"StopData":[{"StopId":10862,"StopName":"台南市中西區武聖路69巷(武聖夜市)(光賢里)","ScheduleTime":"06:30","EstimateTime":"","CarInfo":"","Lon":120.190128,"Lat":23.00467,"Turn":1,"DayValue":"一,二,三,四,五,六","RecycleDate":""},{"StopId":10863,"StopName":"台南市中西區民權路四段、西湖公園(西湖里)","ScheduleTime":"06:55","EstimateTime":"","CarInfo":"","Lon":120.183718,"Lat":22.999232,"Turn":2,"DayValue":"一,二,三,四,五,六","RecycleDate":""},{"StopId":10864,"StopName":"台南市中西區民族路三段273號(藥王里)","ScheduleTime":"07:20","EstimateTime":"","CarInfo":"","Lon":120.192769,"Lat":22.999883,"Turn":3,"DayValue":"一,二,三,四,五,六","RecycleDate":""},{"StopId":10865,"StopName":"台南市中西區金華路四段47巷口( 藥王里)","ScheduleTime":"07:43","EstimateTime":"","CarInfo":"","Lon":120.194715,"Lat":22.998351,"Turn":4,"DayValue":"一,二,三,四,五,六","RecycleDate":""},{"StopId":10866,"StopName":"台南市中西區民生路二段協進館(藥王里)","ScheduleTime":"07:50","EstimateTime":"","CarInfo":"","Lon":120.192517,"Lat":22.996694,"Turn":5,"DayValue":"一,二,三,四,五,六","RecycleDate":""},{"StopId":10867,"StopName":"台南市中西區尊王路、康樂街口(府前里)","ScheduleTime":"08:05","EstimateTime":"","CarInfo":"","Lon":120.194402,"Lat":22.991869,"Turn":6,"DayValue":"一,二,三,四,五,六","RecycleDate":""},{"StopId":10868,"StopName":"台南市中西區尊王路、國華街二段口(府前里)","ScheduleTime":"08:18","EstimateTime":"","CarInfo":"","Lon":120.196873,"Lat":22.991383,"Turn":7,"DayValue":"一,二,三,四,五,六","RecycleDate":""},{"StopId":10869,"StopName":"台南市中西區保安路24號(府前里)","ScheduleTime":"08:33","EstimateTime":"","CarInfo":"","Lon":120.197053,"Lat":22.990247,"Turn":8,"DayValue":"一,二,三,四,五,六","RecycleDate":""},{"StopId":10870,"StopName":"台南市中西區金華路三段172號(淺草里)","ScheduleTime":"08:40","EstimateTime":"","CarInfo":"","Lon":120.193307,"Lat":22.993173,"Turn":9,"DayValue":"一,二,三,四,五,六","RecycleDate":""},{"StopId":10871,"StopName":"台南市中西區西和路、和美街口(西和里)","ScheduleTime":"08:56","EstimateTime":"","CarInfo":"","Lon":120.191604,"Lat":23.00235,"Turn":10,"DayValue":"一,二,三,四,五,六","RecycleDate":""},{"StopId":10872,"StopName":"台南市中西區西和路113號(西和里)","ScheduleTime":"09:08","EstimateTime":"","CarInfo":"","Lon":120.189322,"Lat":23.000947,"Turn":11,"DayValue":"一,二,三,四,五,六","RecycleDate":""},{"StopId":10873,"StopName":"台南市中西區郡西路10號(南廠里)","ScheduleTime":"09:28","EstimateTime":"","CarInfo":"","Lon":120.194023,"Lat":22.988098,"Turn":12,"DayValue":"一,二,三,四,五,六","RecycleDate":""},{"StopId":10874,"StopName":"台南市中西區府前一街55號對面(大涼里)","ScheduleTime":"10:16","EstimateTime":"","CarInfo":"","Lon":120.188458,"Lat":22.993862,"Turn":13,"DayValue":"一,二,三,四,五,六","RecycleDate":""},{"StopId":10875,"StopName":"台南市中西區光賢街口(光賢公園旁)(光賢里)","ScheduleTime":"10:33","EstimateTime":"","CarInfo":"","Lon":120.189182,"Lat":23.004602,"Turn":14,"DayValue":"一,二,三,四,五,六","RecycleDate":""},{"StopId":10876,"StopName":"台南市中西區和緯路四段275號前(光賢里)","ScheduleTime":"10:50","EstimateTime":"","CarInfo":"","Lon":120.186885,"Lat":23.006937,"Turn":15,"DayValue":"一,二,三,四,五,六","RecycleDate":""}],"CarData":[{"CarNo":"KEA-1005","Angle":342,"Lon":120.168788,"Lat":23.002697},{"CarNo":"KEA-1005","Angle":187,"Lon":120.193165,"Lat":22.992883}],"RouteId":360,"RouteName":"西區-第1車輔助點","RouteInfo":"台南市中西區武聖路69巷(武聖夜市)(光賢里)~台南市中西區和緯路四段275號前(光賢里)","IsWork":true}]