[{"StopData":[{"StopId":8510,"StopName":"洪厝溪洲21號","ScheduleTime":"16:44","EstimateTime":"","CarInfo":"","Lon":120.44193,"Lat":23.357633,"Turn":1,"DayValue":"三","RecycleDate":"三"},{"StopId":8511,"StopName":"枋子林15-1號","ScheduleTime":"16:49","EstimateTime":"","CarInfo":"","Lon":120.452003,"Lat":23.366995,"Turn":2,"DayValue":"三","RecycleDate":"三"},{"StopId":8512,"StopName":"林仔內教會","ScheduleTime":"16:53","EstimateTime":"","CarInfo":"","Lon":120.461603,"Lat":23.367079,"Turn":3,"DayValue":"三","RecycleDate":"三"},{"StopId":8513,"StopName":"外崎內16號","ScheduleTime":"17:30","EstimateTime":"","CarInfo":"","Lon":120.45482,"Lat":23.380437,"Turn":4,"DayValue":"三","RecycleDate":"三"},{"StopId":8514,"StopName":"埤仔頭12號","ScheduleTime":"17:33","EstimateTime":"","CarInfo":"","Lon":120.43842,"Lat":23.367794,"Turn":5,"DayValue":"三","RecycleDate":"三"},{"StopId":8515,"StopName":"番子園7-2號","ScheduleTime":"17:49","EstimateTime":"","CarInfo":"","Lon":120.4363,"Lat":23.38019,"Turn":6,"DayValue":"三","RecycleDate":"三"},{"StopId":8516,"StopName":"甘宅45-1號","ScheduleTime":"17:53","EstimateTime":"","CarInfo":"","Lon":120.439115,"Lat":23.38298,"Turn":7,"DayValue":"三","RecycleDate":"三"},{"StopId":8517,"StopName":"草店8-1號庄頭","ScheduleTime":"18:00","EstimateTime":"","CarInfo":"","Lon":120.432622,"Lat":23.389273,"Turn":8,"DayValue":"三","RecycleDate":"三"},{"StopId":8518,"StopName":"將軍山160號","ScheduleTime":"18:13","EstimateTime":"","CarInfo":"","Lon":120.439774,"Lat":23.412065,"Turn":9,"DayValue":"三","RecycleDate":"三"},{"StopId":8519,"StopName":"三角潭6-2號(小巷)","ScheduleTime":"18:29","EstimateTime":"","CarInfo":"","Lon":120.413148,"Lat":23.408296,"Turn":10,"DayValue":"三","RecycleDate":"三"},{"StopId":8520,"StopName":"詔安曾家公厝詔安厝8-1號","ScheduleTime":"18:35","EstimateTime":"","CarInfo":"","Lon":120.412719,"Lat":23.393848,"Turn":11,"DayValue":"三","RecycleDate":"三"},{"StopId":8521,"StopName":"玉豐崁仔頭頂崁頭12-1號","ScheduleTime":"19:00","EstimateTime":"","CarInfo":"","Lon":120.422897,"Lat":23.38305,"Turn":12,"DayValue":"三","RecycleDate":"三"}],"CarData":[],"RouteId":414,"RouteName":"白河-6-3","RouteInfo":"洪厝溪洲21號~玉豐崁仔頭頂崁頭12-1號","IsWork":false}]