[{"StopData":[{"StopId":1507,"StopName":"和緯路3段399號五分局對面","ScheduleTime":"06:15","EstimateTime":"","CarInfo":"","Lon":120.19412,"Lat":23.00966,"Turn":1,"DayValue":"一,二,三,四,五,六","RecycleDate":""},{"StopId":1508,"StopName":"公園路750號","ScheduleTime":"06:40","EstimateTime":"","CarInfo":"","Lon":120.21051,"Lat":23.00923,"Turn":2,"DayValue":"一,二,三,四,五,六","RecycleDate":""},{"StopId":1509,"StopName":"大興街285巷8號大興宮廟前","ScheduleTime":"07:00","EstimateTime":"","CarInfo":"","Lon":120.18732,"Lat":23.0106,"Turn":3,"DayValue":"一,二,三,四,五,六","RecycleDate":""},{"StopId":1510,"StopName":"文賢路313巷66號","ScheduleTime":"07:08","EstimateTime":"","CarInfo":"","Lon":120.19155,"Lat":23.00685,"Turn":4,"DayValue":"一,二,三,四,五,六","RecycleDate":""},{"StopId":1511,"StopName":"和緯路三段335號","ScheduleTime":"07:16","EstimateTime":"","CarInfo":"","Lon":120.1958,"Lat":23.00985,"Turn":5,"DayValue":"一,二,三,四,五,六","RecycleDate":""},{"StopId":1512,"StopName":"文賢一路117號","ScheduleTime":"07:23","EstimateTime":"","CarInfo":"","Lon":120.19602,"Lat":23.00674,"Turn":6,"DayValue":"一,二,三,四,五,六","RecycleDate":""},{"StopId":1513,"StopName":"中華北路二段194巷57號","ScheduleTime":"07:37","EstimateTime":"","CarInfo":"","Lon":120.19957,"Lat":23.02035,"Turn":7,"DayValue":"一,二,三,四,五,六","RecycleDate":""},{"StopId":1514,"StopName":"國華街4段5巷13號","ScheduleTime":"07:52","EstimateTime":"","CarInfo":"","Lon":120.19934,"Lat":23.00062,"Turn":8,"DayValue":"一,二,三,四,五,六","RecycleDate":""},{"StopId":1515,"StopName":"臨安路二段219號","ScheduleTime":"07:58","EstimateTime":"","CarInfo":"","Lon":120.20022,"Lat":23.00444,"Turn":9,"DayValue":"一,二,三,四,五,六","RecycleDate":""},{"StopId":1516,"StopName":"北門路二段103號","ScheduleTime":"08:13","EstimateTime":"","CarInfo":"","Lon":120.21248,"Lat":22.99948,"Turn":10,"DayValue":"一,二,三,四,五,六","RecycleDate":""},{"StopId":1517,"StopName":"實踐街85巷25號","ScheduleTime":"08:28","EstimateTime":"","CarInfo":"","Lon":120.21957,"Lat":23.01454,"Turn":11,"DayValue":"一,二,三,四,五,六","RecycleDate":""},{"StopId":1518,"StopName":"公園路910號前","ScheduleTime":"08:40","EstimateTime":"","CarInfo":"","Lon":120.21344,"Lat":23.01493,"Turn":12,"DayValue":"一,二,三,四,五,六","RecycleDate":""},{"StopId":1519,"StopName":"正覺街104號","ScheduleTime":"08:48","EstimateTime":"","CarInfo":"","Lon":120.21308,"Lat":23.01802,"Turn":13,"DayValue":"一,二,三,四,五,六","RecycleDate":""},{"StopId":1520,"StopName":"臨安路2段53號大聖國家大樓前2500183","ScheduleTime":"09:05","EstimateTime":"","CarInfo":"","Lon":120.19656,"Lat":23.00277,"Turn":14,"DayValue":"一,二,三,四,五,六","RecycleDate":""},{"StopId":1521,"StopName":"中華北路一段105巷46號儷園大樓3580787","ScheduleTime":"10:20","EstimateTime":"","CarInfo":"","Lon":120.18552,"Lat":23.00896,"Turn":15,"DayValue":"一,二,三,四,五,六","RecycleDate":""},{"StopId":1522,"StopName":"賢北街27巷6號前","ScheduleTime":"10:26","EstimateTime":"","CarInfo":"","Lon":120.18235,"Lat":23.00788,"Turn":16,"DayValue":"一,二,三,四,五,六","RecycleDate":""},{"StopId":1523,"StopName":"賢北街27巷125號","ScheduleTime":"10:31","EstimateTime":"","CarInfo":"","Lon":120.18051,"Lat":23.00676,"Turn":17,"DayValue":"一,二,三,四,五,六","RecycleDate":""},{"StopId":1524,"StopName":"長德街40號新巢生活大樓2201001","ScheduleTime":"10:48","EstimateTime":"","CarInfo":"","Lon":120.20563,"Lat":23.00315,"Turn":18,"DayValue":"一,二,三,四,五,六","RecycleDate":""},{"StopId":1525,"StopName":"長北街172號名人家園大樓2253734","ScheduleTime":"10:52","EstimateTime":"","CarInfo":"","Lon":120.20522,"Lat":23.00382,"Turn":19,"DayValue":"一,二,三,四,五,六","RecycleDate":""},{"StopId":1526,"StopName":"西門路三段232巷18號西門經典大樓2212456","ScheduleTime":"10:54","EstimateTime":"","CarInfo":"","Lon":120.20497,"Lat":23.00399,"Turn":20,"DayValue":"一,二,三,四,五,六","RecycleDate":""},{"StopId":1527,"StopName":"長北街125號四季風情大樓2111448","ScheduleTime":"10:57","EstimateTime":"","CarInfo":"","Lon":120.20463,"Lat":23.00264,"Turn":21,"DayValue":"一,二,三,四,五,六","RecycleDate":""},{"StopId":1528,"StopName":"公園南路366號太皇園大樓2206137","ScheduleTime":"11:03","EstimateTime":"","CarInfo":"","Lon":120.20187,"Lat":23.00316,"Turn":22,"DayValue":"一,二,三,四,五,六","RecycleDate":""},{"StopId":1529,"StopName":"臨安路二段250號只收星期三、星期五太子龍大樓陳小姐0938-815149","ScheduleTime":"11:15","EstimateTime":"","CarInfo":"","Lon":120.20032,"Lat":23.00394,"Turn":23,"DayValue":"一,二,三,四,五,六","RecycleDate":""},{"StopId":1530,"StopName":"長榮路5段397號對面延平市場單月","ScheduleTime":"11:30","EstimateTime":"","CarInfo":"","Lon":120.2132,"Lat":23.01306,"Turn":24,"DayValue":"一,二,三,四,五,六","RecycleDate":""}],"CarData":[],"RouteId":32,"RouteName":"北區-03(日間輔助點)","RouteInfo":"和緯路3段399號五分局對面~長榮路5段397號對面延平市場單月","IsWork":true}]